id,lat,lng,"type","title"
430770,54.0167,23.9667,"city","Druskininkai"
430767,54.0167,23.9667,"city","Druskininkai"
430770,54.7289,25.3903,"adm3rd","Anatalkanis"
430767,54.7289,25.3903,"adm3rd","Anatalkanis"
408212,57.7833,108.1,"city","Kirensk"
371505,55.3695,12.4156,"landmark","Bøgeskov Havn"
416991,45.5162,-122.673,"landmark","Mill Ends Park"
39313,56.4056,10.8864,"landmark","IT-College Denmark"
225478,50.8,6.48333,"city","Düren"
36132,-33.45,-70.6667,"city","Santiago de Chile"
4,55.4916,8.44733,"landmark","Aalborg Universitet Esbjerg"
34619,55.6512,12.265,"adm2nd","Høje-Taastrup Kommune"
59753,54.65,8.35,"isle","Amrum"
34755,55.6597,12.5911,"landmark","IT-Universitetet i København"
34902,-13.1631,-72.5456,"landmark","Machu Picchu"
34922,54.9639,11.8822,"landmark","Storstrømsbroen"
85362,54.9841,12.2841,"landmark","Stege Kirke"
59756,54.3667,9.06667,"city","Frederiksstad"
35100,50.7167,4.38333,"city","Waterloo (Belgien)"
85368,36.1667,44.0167,"city","Arbil"
92,56,9,"isle","Jylland"
85377,53.22,-4.2,"city","Llanfairpwllgwyngyllgogerychwyrndrobwllllantysiliogogogoch"
97,55.6832,12.6044,"landmark","Jubii"
85415,57.4381,10.4056,"landmark","Åsted Kirke (Frederikshavn Kommune)"
59761,54.7667,9.31667,"city","Hanved"
59768,54.8419,9.02639,"city","Ladelund"
59787,57.0426,9.90569,"landmark","KUNSTEN Museum of Modern Art Aalborg"
59788,57.0481,9.91803,"landmark","Aalborg Historiske Museum"
35502,55.9344,12.3006,"landmark","Frederiksborg Slot"
59789,57.0481,9.91803,"landmark","Nordjyllands Historiske Museum"
59810,55.6789,12.5741,"landmark","Jorcks Passage"
85456,55.6811,12.6056,"landmark","Den Danske Filmskole"
35522,56.7,11.5667,"isle","Anholt"
59811,55.6827,12.5876,"landmark","Sankt Annæ Passage"
35613,55.8109,12.4735,"landmark","Holte"
35615,55.8102,12.4684,"landmark","Holte Havn"
35617,55.8117,12.4717,"landmark","Holte Midtpunkt"
59812,54.4131,9.97972,"city","Gettorp"
59816,54.7167,8.5,"isle","Før"
85506,55.6862,12.5906,"landmark","Østre Landsret"
59818,54.9167,8.33333,"isle","Sild (ø)"
35697,55.8078,12.4642,"waterbody","Vejlesø"
59863,54.8667,8.91667,"city","Sønder Løgum"
36001,56.3847,10.17,"landmark","Clausholm"
59880,12.05,-61.75,"city","Saint George's"
59884,12.15,-86.2667,"city","Managua"
59899,38.2458,15.6325,"waterbody","Messinastrædet"
36002,51.4853,-3.18667,"city","Cardiff"
85658,54.9397,12.2151,"landmark","Damsholte Kirke"
36055,45.9203,63.3422,"","Bajkonur-kosmodromen"
59936,54.5167,8.65,"isle","Pelvorm"
85665,54.9843,12.4842,"landmark","Magleby Kirke (Vordingborg Kommune)"
59939,54.4981,8.87694,"isle","Nordstrand"
59941,54.4667,8.71667,"city","Rungholt"
60080,55.3804,8.64439,"","Kongeå"
60133,64.2971,-16.7212,"landmark","Vatnajökull"
60155,56.4516,9.41222,"landmark","Vestre Landsret"
36277,7.36056,134.479,"city","Koror"
36464,51.8667,12.65,"city","Wittenberg"
36610,55.7542,37.62,"landmark","Den Røde Plads"
60286,54.7972,9.37639,"city","Harreslev"
85795,55.6747,12.5368,"landmark","Den Franske Skole"
36780,68.8019,16.5367,"","Harstad"
86019,54.5833,11.3333,"waterbody","Femern Bælt"
36820,55.7019,12.5611,"landmark","Datalogisk Institut (Københavns Universitet)"
86105,55.7457,12.5451,"landmark","Aurehøj Gymnasium"
37078,56.8317,9.02417,"isle","Fur"
86122,57.4406,10.5383,"landmark","Frederikshavn Kirke"
37128,55.3224,10.7952,"landmark","Nyborg Gymnasium"
60358,53.9,11.4667,"city","Wismar"
60367,38.9975,-77.2525,"waterbody","Great Falls"
37222,78.2167,15.55,"isle","Svalbard"
60426,56.9921,10.0007,"landmark","Gistrup Skole"
60486,55.6874,12.577,"landmark","Geologisk Museum"
163,55.4912,8.44952,"landmark","Syddansk Universitet Esbjerg"
60488,55.6755,12.5316,"landmark","Det Danske Revymuseum"
86169,25.7206,32.6103,"city","Theben (Egypten)"
60490,54.9503,11.9914,"isle","Farø"
60492,54.9542,12.045,"isle","Lilleø (Storstrømmen)"
37274,49.45,11.0833,"city","Nürnberg"
86176,54.9833,12.5222,"waterbody","Hunesø"
60496,54.9542,12.0833,"isle","Tærø"
86183,48.8928,2.23583,"landmark","Grande Arche"
60504,78.0667,14.2167,"city","Barentsburg"
60562,38.1167,13.3667,"city","Palermo"
60701,56.1744,9.66167,"landmark","Jyllandsringen"
37361,55.6728,12.5722,"landmark","Ny Carlsberg Glyptotek"
60899,55.5139,9.46006,"landmark","Kolding Storcenter"
61036,54.911,9.78386,"landmark","Kong Christian den X's Bro"
61088,55.0069,12.2222,"isle","Lindholm (Stege Bugt)"
37375,31,-100,"country","Texas"
61091,55,12.25,"waterbody","Stege Bugt"
37458,55.4997,9.53208,"landmark","Trapholt (kunstmuseum)"
61093,54.9833,12.1167,"isle","Langø (Ulvsund)"
61142,55.6578,12.4944,"landmark","Valby Gasværk"
37492,54.4333,18.55,"city","Sopot"
37495,54.4333,18.55,"city","Trójmiasto"
216,51.6667,6.45,"city","Xanten"
86470,55.4861,9.4665,"landmark","Sct. Michaels Kirke, Kolding"
37688,33,-87,"country","Alabama"
86511,55.7926,12.5276,"landmark","Hempel"
86541,55.7016,12.5376,"landmark","Lygten Station"
61457,36.4,25.4,"isle","Santorini"
61504,55.074,14.8149,"landmark","Nylars Kirke"
86547,48.5667,13.4667,"city","Passau"
61579,55.2152,14.7502,"landmark","Ruts Kirke"
37866,43.2,44.5667,"","Beslan"
37938,56.1458,10.1125,"waterbody","Brabrand Sø"
61741,55.6996,12.5553,"landmark","Rigshospitalets Kollegium"
61744,55.6669,12.6033,"landmark","Øresundskollegiet"
61925,54.9958,11.8917,"waterbody","Masnedsund"
62095,55.6133,12.9764,"landmark","Turning Torso"
62198,55.6733,12.5748,"landmark","Radikal Ungdom"
62211,54.9667,10.4167,"isle","Drejø"
38093,50.5508,9.67528,"city","Fulda"
62233,51.349,-0.8,"landmark","Sandhurst"
38241,57.2562,10.9996,"landmark","Læsø Kommune"
86873,55.7984,11.5542,"landmark","Grevinge Kirke"
62236,-6.13333,39.3167,"","Zanzibar"
86875,55.8099,11.4985,"landmark","Asnæs Kirke"
62264,55.0042,10.4672,"isle","Skarø"
62265,54.9625,10.4833,"isle","Hjortø"
86915,55.4725,10.3297,"airport","Odense Lufthavn"
62267,55.6824,12.5921,"landmark","Casino (teater)"
38281,54.8336,9.55,"city","Lyksborg"
87010,35.7667,-5.8,"","Tanger"
62269,55.0167,10.2833,"isle","Avernakø"
62273,55.0625,10.25,"isle","Bjørnø"
62834,55.6703,12.5786,"landmark","Langebro"
87161,55.6755,12.5611,"landmark","Imperial"
38519,43.5525,7.02167,"city","Cannes"
63083,12.8,45.0333,"landmark","Aden"
87192,35.2167,-114.017,"city","Kingman"
63100,55.7754,12.4646,"landmark","Marienborg"
63134,55.6735,12.581,"landmark","Istedløven"
87194,34.86,-111.789,"city","Sedona"
402,56.0525,9.74956,"landmark","Øm Kloster"
87195,31.5456,-110.276,"city","Sierra Vista"
403,56.0518,9.74958,"landmark","Øm Kloster museum"
87199,57.4706,10.4094,"landmark","Kvissel Kirke"
420,55.6869,12.5759,"landmark","Østervold (observatorium)"
63210,56.1806,9.37222,"waterbody","Bølling Sø"
87215,56.4789,10.795,"landmark","Rimsø Præstegård"
63327,55.1189,14.8974,"landmark","Lilleborg"
87330,55.3676,10.4304,"edu","IMADA"
38707,53.2992,10.395,"city","Bardowick"
63329,57.7246,10.5972,"landmark","Skagens Museum"
38813,55.6718,12.5817,"landmark","Københavns Havn"
87399,57.4608,9.98306,"landmark","Vendsyssel Historiske Museum"
38818,55.45,10.65,"city","Kerteminde"
87501,57.3614,10.0027,"landmark","Vrejlev Kloster"
87505,56.2028,8.8,"landmark","Merrild"
63438,55.0944,10.2469,"landmark","Faaborg Museum"
63461,55.6842,12.5823,"landmark","Davids Samling"
87545,55.425,10.35,"city","Næsby (Odense)"
63507,54.7817,9.54361,"landmark","Lyksborg Slot"
574,55.1333,10.1,"isle","Illum (ø)"
87743,55.5544,11.3144,"landmark","Sæbygård (Sæby Sogn)"
38906,46,-94,"country","Minnesota"
87800,57.4833,10.6167,"isle","Hirsholmene"
63581,55.5097,8.26167,"","Skallingen"
87868,57.5378,10.0942,"landmark","Odden (hovedgård)"
38916,39,-75.5,"country","Delaware"
87950,56.955,8.53306,"landmark","Sjørring Sø"
63783,48.9742,14.4744,"city","České Budějovice"
63809,55.4883,8.49144,"landmark","Esbjerg Gymnasium og HF"
804,55.6728,12.5214,"landmark","København Zoo"
63886,62.2,-6.54167,"waterbody","Borðoyarvík"
810,56.65,8.61667,"isle","Jegindø"
87966,55.6755,12.5719,"landmark","Vartov"
843,55.7,13.2,"city","Lund (Sverige)"
88081,55.3264,8.76043,"landmark","Ribe Katedralskole"
38917,40,-89,"country","Illinois"
63947,55.3851,10.3693,"landmark","Odense Universitetshospital"
88293,56.0231,9.64214,"landmark","Sønder Vissing Kirke"
63970,62.391,-6.56305,"landmark","Kap Enniberg"
88348,55.6486,12.6397,"isle","Kastrup Fort"
63987,62.3178,-6.46,"waterbody","Viðvík"
88407,55.7503,12.5806,"landmark","Charlottenlund Slot"
38924,40,-86,"country","Indiana"
64127,55.6775,12.5676,"landmark","Hotel Hafnia (København)"
64147,55.6928,12.5642,"landmark","Det Sundhedsvidenskabelige Fakultet (Københavns Universitet)"
878,56.7333,16.6667,"isle","Öland"
64201,55.4296,11.5565,"landmark","Sorø Akademi"
881,55.7388,12.5729,"landmark","Øregaard Museum"
64210,55.0256,8.57056,"isle","Jordsand"
88709,68.7333,-52.3167,"","Akunnaaq"
38966,31,-92,"country","Louisiana (stat)"
64375,54.62,8.96444,"city","Bredsted"
38980,33,-90,"country","Mississippi"
88724,69.4833,-53.9667,"city","Kangerluk"
64799,55.7262,12.4763,"landmark","TV-Byen"
64820,55.7917,12.3917,"forest","Nørreskoven (Værløse)"
970,55.7206,12.6658,"isle","Middelgrundsfortet"
38990,41.5,-100,"state","Nebraska"
64897,55.3333,10.9667,"isle","Sprogø"
981,55.9826,12.3953,"landmark","Fredensborg Slot"
88797,52.9233,9.235,"city","Verden (Aller)"
987,55.6928,12.5992,"landmark","Den lille Havfrue"
88829,55.7031,12.6144,"isle","Trekroner (ø)"
88833,55.7036,12.7314,"isle","Flakfortet"
65018,55.2833,8.56667,"isle","Mandø"
1160,55.6375,10.1792,"isle","Æbelø"
1161,57,11,"waterbody","Kattegat"
65116,55.6886,12.5783,"landmark","Statens Museum for Kunst"
39058,34,-106,"country","New Mexico"
65118,55.6745,12.532,"landmark","Storm P.-Museet"
1162,55.6222,10.1814,"isle","Brådet"
1163,55.6028,10.1733,"isle","Dræet"
1164,55.6097,10.1833,"isle","Æbeløholm"
88880,46.7833,-56.2,"isle","Saint-Pierre og Miquelon"
1168,55.3333,10.3333,"isle","Fyn"
65122,55.6767,12.5783,"landmark","Thorvaldsens Museum"
65255,53.0333,18.6167,"","Toruń"
1370,54.9833,12.35,"isle","Møn"
65718,38.4833,43.3667,"landmark","Van"
89031,55.6069,12.8,"isle","Svaneklapperne"
65885,62.2881,-6.96722,"city","Funningur"
89044,55.5622,12.5667,"landmark","Kongelundsfortet"
1547,32.5364,44.4208,"city","Babylon"
65896,56.05,12.2,"landmark","Valby (Gribskov Kommune)"
65920,55.675,12.5331,"landmark","Camp X Aveny"
1718,56.9954,9.25486,"landmark","Aggersborg"
65968,56.1564,10.2125,"landmark","Aarhus Katedralskole"
65979,56.4259,10.5506,"landmark","Djurs Sommerland"
65980,55.6789,12.5795,"landmark","Strøget"
66267,42.6931,27.7083,"city","Sunny Beach"
66394,55.6747,12.5872,"","Knippelsbro"
89389,3.15727,101.712,"landmark","Petronas Towers"
66513,55.3665,10.3732,"city","Dalum"
66530,55.7306,12.5733,"landmark","Gammel Hellerup Gymnasium"
66582,54.9917,15.0742,"landmark","Dueodde"
89499,55.4833,11.7667,"city","Haraldsted"
66688,36.1952,-115.114,"landmark","North Las Vegas"
66965,55.6139,12.5111,"landmark","Kalvebodbroerne"
89904,36.1667,28,"isle","Rhodos"
39082,34,-81,"country","South Carolina"
89927,55.6687,12.5011,"landmark","Akacieparken (Valby)"
67300,55.6167,8.48333,"city","Varde"
89962,37.7333,26.8333,"isle","Samos"
90008,56.1587,10.212,"landmark","Danske Skoleelever"
67331,55.7025,12.559,"landmark","Zoologisk Museum"
90262,55.1572,10.7628,"landmark","Hesselagergård"
39086,36,-86,"country","Tennessee"
90372,54.9404,12.2082,"landmark","Marienborg (Møn)"
1967,62,-7,"country","Færøerne"
39179,32.715,-117.162,"","San Diego"
39240,55.3827,14.054,"landmark","Ales sten"
90373,13.4125,103.867,"landmark","Angkor Wat"
39252,55,9.88333,"isle","Als"
2605,51.2167,4.4,"city","Antwerpen"
2805,55.9833,12.1167,"waterbody","Arresø"
39319,55.5833,12.6667,"city","Dragør"
90421,55.2317,11.7675,"landmark","Næstved Station"
39323,55.5008,14.2308,"landmark","Glimmingehus"
67718,55.7096,12.5145,"landmark","HF-Centret Efterslægten"
67980,56.1128,9.73194,"landmark","Alling Sogn"
39371,58.3636,-134.573,"landmark","Juneau"
68119,55.0794,10.3431,"landmark","Åstrup Sogn (Faaborg-Midtfyn Kommune)"
68138,55.5242,9.4776,"","Bramdrup Sogn"
3138,51.5233,-0.158333,"landmark","Baker Street"
68211,55.1058,10.2942,"landmark","Diernæs Sogn"
90524,51.8167,12.4667,"city","Riesigk"
68225,55.2258,10.0372,"landmark","Dreslette Sogn"
90547,56.7056,9.71111,"landmark","Rørbæk Kirke"
39622,35.6833,-105.95,"city","Santa Fe (New Mexico)"
68426,55.8074,12.4328,"landmark","Næsseslottet"
90581,56.087,10.2263,"landmark","Moesgård Museum"
68454,56.23,9.74028,"landmark","Gjern Sogn"
39630,41.8333,-71.4,"city","Providence"
90582,55.9642,9.59806,"landmark","Ring Sø"
68521,55.531,8.39894,"landmark","Guldager Sogn"
68554,56.2554,9.86278,"landmark","Hammel Sogn"
90663,50.845,4.35,"city","Manneken Pis"
68617,55.285,10.5728,"landmark","Hellerup Sogn (Faaborg-Midtfyn Kommune)"
90670,55.6802,12.5907,"landmark","Bådteatret"
39747,51.5081,-0.128056,"landmark","Trafalgar Square"
90689,50.9333,5.33333,"city","Hasselt"
39749,55.6955,12.5815,"landmark","Unitarisk Kirkesamfund"
68823,56.2788,9.82497,"landmark","Sall Kirke"
68836,55.7472,12.5216,"landmark","Vangede Kirke"
68843,55.7061,9.21389,"city","Vandel"
68856,55.2078,9.44389,"city","Marstrup"
68862,55.096,10.2592,"landmark","Dansk Friskoleforening"
68894,55.6979,9.1947,"landmark","Flyvestation Vandel"
3542,55.6865,12.5539,"landmark","Allotria-huset"
68924,55.3875,8.87687,"adm2nd","Kalvslund Sogn"
69085,55.2512,11.8827,"landmark","Toksværd Sogn"
69090,56.1536,9.69139,"landmark","Linå Sogn"
3736,56.1528,10.1056,"city","Brabrand"
69413,55.2858,9.45382,"landmark","Moltrup Sogn"
69648,55.085,10.3822,"landmark","Vester Åby Sogn"
70127,56.3804,9.08531,"landmark","Resen Sogn (Viborg Kommune)"
70151,55.2381,10.4778,"landmark","Ringe Sogn"
3809,55.6167,11.6667,"landmark","Brorfelde"
70166,55.2061,10.301,"landmark","Sandholts Lyndelse Sogn"
39897,55.7403,9.15167,"airport","Billund Lufthavn"
70176,57.4617,9.9825,"landmark","Sankt Catharinæ Sogn"
90825,28.1,-15.4,"isle","Kanariske Øer"
39940,55.6704,12.56,"landmark","Borgenhus"
3814,51.2167,3.23333,"city","Brugge"
70210,56.4614,10.6316,"landmark","Stenvad Kirke"
70216,56.2077,9.80842,"landmark","Røgen Sogn"
40070,39.1,-84.5167,"city","Cincinnati"
70838,55.6396,12.4796,"landmark","Sankt Nikolaj Kirke (Hvidovre)"
40120,-14.3,-170.7,"","Amerikansk Samoa"
70849,41.4036,2.17444,"","Sagrada Família"
40152,56.15,9.8,"city","Låsby Sogn"
71015,55.6825,12.6067,"landmark","Rytmisk Musikkonservatorium"
90934,63.1833,14.6333,"city","Östersund"
71036,55.2507,12.0614,"landmark","Øst-Sjællands Flyveklub"
71091,55.3667,10.45,"city","Holluf Pile"
3887,55.6752,12.5831,"landmark","Børsen"
71304,6.21806,160.703,"isle","Pingelap"
40159,56.0583,9.75556,"waterbody","Gudensø"
3943,52.2051,0.146253,"","Cambridge"
91008,65.6,22.15,"city","Luleå"
40358,55.6679,12.5147,"landmark","Nordisk Film"
71330,52.6256,10.0825,"city","Celle (Tyskland)"
40551,39.9667,4.08333,"","Menorca"
91013,65.8333,21.7167,"city","Boden (Sverige)"
40565,56.1139,9.66528,"landmark","FDF Friluftscenter Sletten"
3973,55.6667,12.5333,"landmark","Carlsberg"
71389,55.705,9.44028,"landmark","Skibet Kirke"
91038,55.2603,9.71167,"city","Årøsund"
71411,55.7,9.46667,"landmark","Østengård"
4014,30.75,76.78,"landmark","Chandigarh"
91078,54.9786,12.5027,"landmark","Klintholm Gods"
71455,54.8879,10.4122,"landmark","Ærøskøbing Kirke"
91130,46.6167,14.3,"city","Klagenfurt"
4398,55.6734,12.5827,"landmark","Den Sorte Diamant"
71457,56.2904,10.4854,"landmark","Bregnet Kirke"
91131,47.505,9.74917,"city","Bregenz"
71458,55.7587,10.2687,"landmark","Endelave Kirke"
71459,55.807,12.3574,"landmark","Farum Kirke"
4623,55.1762,10.4897,"landmark","Egeskov Slot"
91134,47.8456,16.5189,"city","Eisenstadt"
4918,54.8,12,"isle","Falster"
91135,48.2,15.6167,"city","Sankt Pölten"
71463,55.8205,12.0139,"landmark","Gerlev Kirke (Frederikssund Kommune)"
71466,55.8855,12.1946,"landmark","Gørløse Kirke"
5174,40.6892,-74.0446,"landmark","Frihedsgudinden"
5175,55.6742,12.5633,"landmark","Frihedsstøtten"
71467,55.7353,12.1481,"landmark","Gundsømagle Kirke"
5298,32.8333,35.5833,"waterbody","Genesaret sø"
5311,51.05,3.71667,"city","Gent"
91248,55.4756,9.13583,"city","Vejen"
91358,59.325,18.0708,"isle","Gamla stan"
5350,36.143,-5.353,"country","Gibraltar"
91475,55.1694,14.7111,"forest","Hasle Lystskov"
71475,55.7567,9.42,"landmark","Jelling Kirke"
5414,-25,147,"mountain","Great Dividing Range"
91498,57.1119,10.0264,"landmark","Vodskov Kirke"
91499,57.1278,10.07,"landmark","Kinderup"
91570,-33.8569,151.215,"landmark","Sydney Opera House"
91600,56.3549,10.2101,"landmark","Skader Kirke"
5417,54.0833,13.3833,"city","Greifswald"
91626,55.4824,8.4395,"landmark","Esbjerg Idrætspark"
5418,55.7333,9.53333,"landmark","Grejsdalen"
5432,54.8994,12.0833,"waterbody","Grønsund"
91639,55.7914,12.5608,"forest","Dyrehaven"
5433,55.4667,8.31667,"waterbody","Grådyb"
91664,55.7792,8.2875,"city","Nørre Nebel"
40682,55.6464,12.599,"landmark","Boldklubben Fremad Amager"
71483,56.8178,8.29528,"landmark","Lodbjerg Kirke"
5436,16.2656,-61.5444,"landmark","Guadeloupe"
71485,57.4625,9.78444,"landmark","Mårup Kirke"
91803,55.481,9.23392,"landmark","Andst Kirke"
71486,56.3316,10.3748,"landmark","Mørke Kirke"
91829,55.2061,10.7078,"landmark","Glorup"
40688,54.9,9.78333,"city","Sønderborg"
71487,55.9762,12.346,"landmark","Nødebo Kirke"
91846,54.75,11.8333,"landmark","Øster Toreby"
71488,55.4403,8.39722,"landmark","Nordby Kirke (Fanø Kommune)"
71489,56.3486,10.0473,"landmark","Nørre Galten Kirke"
5462,55.2499,9.4875,"landmark","Haderslev Domkirke"
40702,55.6585,12.6411,"landmark","Amager Strandpark"
71490,55.544,10.3924,"landmark","Norup Kirke"
5465,55.2275,9.9875,"landmark","Hagenskov"
40705,55.7286,12.5745,"","Maos Lyst"
40713,55.6997,12.57,"landmark","Fælledparken"
71491,55.1394,14.769,"landmark","Ny Kirke"
71492,56.3125,10.1308,"landmark","Ødum Kirke"
40718,55.696,12.5664,"landmark","Rigshospitalet"
91890,55.7603,12.5097,"landmark","Mariebjerg Kirkegård"
71493,55.5554,8.13786,"landmark","Oksby Kirke"
5528,56.7529,8.45389,"landmark","Heltborg Museum"
71494,56.3872,10.0886,"landmark","Ølst Kirke"
71495,56.4011,9.9535,"landmark","Ørum Kirke (Randers Kommune)"
5622,65.5,37,"waterbody","Hvidehavet"
71496,56.8158,8.33333,"landmark","Ørum Kirke (Thisted Kommune)"
92109,56.0975,10.1811,"city","Jelshøj"
71498,55.5189,10.4009,"landmark","Otterup Kirke"
5882,56.7631,8.81867,"landmark","Jesperhus"
92116,55.7333,8.18333,"landmark","Henne Strand"
71499,55.6226,12.1854,"landmark","Reerslev Kirke (Høje-Taastrup Kommune)"
5912,56.1167,9.68333,"waterbody","Julsø"
40931,57.3333,10,"isle","Nørrejyske Ø"
5964,-23,23,"landmark","Kalahari-ørkenen"
92171,55.8755,12.4998,"landmark","Hirschholm Slot"
40967,37.5167,15.0667,"city","Catania"
71500,55.4163,10.6611,"landmark","Revninge Kirke"
92179,56.3789,9.15833,"landmark","Kongenshus Mindepark"
6054,27.7167,85.3167,"","Katmandu"
40995,55.9705,12.0214,"adm2nd","Frederiksværk Kommune"
71501,55.1956,12.0909,"landmark","Roholte Kirke"
6069,34.0931,71.1458,"","Khyberpasset"
71502,55.7046,11.9389,"landmark","Sæby Kirke (Lejre Kommune)"
6072,57.0497,9.91638,"landmark","Cimbrertyren"
71503,55.3128,12.3916,"landmark","Sankt Katharina Kirke"
92315,54.9013,12.151,"landmark","Fanefjord Kirke"
92329,54.9667,12.5044,"landmark","Bjergene (Møn)"
71506,55.5649,9.75389,"landmark","Sankt Michaelis Kirke"
6274,39.6667,19.75,"isle","Korfu"
41078,55.5833,11.3,"waterbody","Tissø"
92418,54.9833,10.8333,"landmark","Tranekær"
71507,57.4614,9.98528,"landmark","Sankt Olai Kirke (Hjørring)"
41095,-8.41667,115.25,"","Bali"
6314,58.1447,7.99833,"adm2nd","Kristiansand"
92474,55.6805,12.5744,"landmark","Borchs Kollegium"
41100,41.3,-72.9333,"city","New Haven"
71509,55.7436,12.0062,"landmark","Selsø Kirke"
92536,56.4833,9.58333,"landmark","Foulum"
41104,55.7836,12.3723,"landmark","Værløse Bio"
6376,55.6798,12.5724,"landmark","Københavns Universitet"
71510,55.6818,12.2521,"landmark","Sengeløse Kirke"
92562,57.0725,10.1153,"edu","Vester Hassing Skole"
6395,-49.5833,-72.5,"","Lago Viedma"
41118,55.8,12.4167,"waterbody","Furesø"
71511,57.7214,10.5847,"landmark","Skagen Kirke"
41124,56,12.3833,"waterbody","Esrum Sø"
71512,55.7484,11.9583,"landmark","Skibby Kirke"
41125,56.0333,9.81667,"city","Mossø"
92614,55.7837,11.9392,"landmark","Svanholm Gods"
71513,56.2629,10.3088,"landmark","Skødstrup Kirke"
41126,56.0167,9.925,"waterbody","Skanderborg Sø"
71514,55.7849,12.0175,"landmark","Skuldelev Kirke"
6453,50.65,5.56667,"city","Liège"
92683,54.9592,10.8024,"landmark","Tullebølle Kirke"
71515,55.3497,8.46667,"landmark","Sønderho Kirke"
6458,55.1833,9.83333,"waterbody","Lillebælt"
41129,54.1825,7.88528,"city","Helgoland"
6461,56.9333,9.06667,"waterbody","Limfjorden"
71517,55.38,12.2843,"landmark","Strøby Kirke"
41142,54.7556,11.5056,"waterbody","Søndersø (Maribosøerne)"
41143,54.75,11.5667,"waterbody","Maribosøerne"
6490,54.75,11.3333,"isle","Lolland"
92799,55.6753,12.5806,"isle","Slotsholmen"
71518,56.9546,8.68917,"landmark","Thisted Kirke"
41147,54.7167,11.57,"waterbody","Røgbølle Sø"
71520,56.4044,9.99028,"landmark","Værum Kirke"
41149,54.7403,11.5917,"waterbody","Hejrede Sø"
41150,54.7833,11.4889,"waterbody","Nørresø (Maribosøerne)"
6517,57.2667,11,"isle","Læsø"
71521,57.4578,9.83111,"landmark","Vennebjerg Kirke"
41191,55.35,11.6,"waterbody","Tystrup Sø"
41222,55.775,12.35,"waterbody","Søndersø (Nordsjælland)"
71522,56.7732,8.31722,"landmark","Vestervig Kirke"
92858,55.6786,12.5814,"landmark","Kunsthallen Nikolaj"
71523,56.3644,10.0081,"landmark","Vissing Kirke"
71524,56.3644,10.1706,"landmark","Voldum Kirke"
92909,55.8469,12.4603,"landmark","Ebberød"
41257,55.8264,12.2167,"waterbody","Buresø"
71525,55.3842,10.6678,"landmark","Vor Frue Kirke (Flødstrup)"
41258,55.8175,12.2722,"waterbody","Bastrup Sø"
6599,55.6849,12.5894,"","Marmorkirken"
92998,55.5,10.6,"landmark","Midskov"
41261,55.8028,12.3667,"waterbody","Farum Sø"
71559,55.3214,15.1869,"landmark","Christiansø Kirke"
41264,55.8036,12.3722,"isle","Klavs Nars Holm"
71607,55.6256,8.28361,"city","Oksbøl"
71614,55.6578,12.5292,"landmark","Vestre Kirkegård (København)"
71636,55.7095,12.513,"landmark","Efterslægtselskabets Skole"
41265,55.7722,12.4583,"waterbody","Bagsværd Sø"
6705,19.4194,-99.1456,"city","Mexico City"
71660,55.7142,12.5256,"landmark","Bispebjerg Kirkegård"
41270,55.7742,12.4828,"waterbody","Lyngby Sø"
41296,54.9833,12.35,"isle","Møn Kommune"
71671,54.9833,12.35,"isle","Møn Amt"
41340,56.4472,9.42083,"waterbody","Viborgsøerne"
71816,55.6737,12.5737,"landmark","Dantes Plads"
71875,55.7833,11.95,"isle","Hornsherred"
41344,56.4583,9.425,"waterbody","Nørresø (Viborg)"
71951,57.4202,10.5041,"landmark","Bangsbo Museum"
93122,57.5594,9.97889,"landmark","Horne Kirke (Hjørring Kommune)"
41346,56.4417,9.41667,"waterbody","Søndersø (Viborg)"
71975,55.7788,12.4969,"landmark","Sorgenfri Slot"
41350,56.3833,9.36667,"waterbody","Hald Sø"
6784,56.0889,10.2333,"forest","Moesgård Skov"
41352,56.3167,9.58333,"waterbody","Tange Sø"
41353,55.1161,14.8742,"landmark","Store Grankule"
41356,56.3514,8.65833,"waterbody","Vandkraftsøen"
71977,55.77,12.5042,"landmark","Lyngby Hovedgade"
41357,57.1083,9.04167,"waterbody","Lund Fjord"
93223,68.4392,17.4075,"","Narvik"
72036,40.7819,-73.9661,"forest","Central Park"
41670,55.925,14.2917,"city","Åhus"
93434,35.0383,-97.9461,"","Chickasha"
93486,55.6843,12.5318,"","Frederiksberg Svømmehal"
72277,55.4878,8.41111,"landmark","Mennesket ved Havet"
72447,57.4422,10.5347,"landmark","Frederikshavn Kunstmuseum"
41844,55.977,9.83065,"landmark","Ejer Bavnehøj"
41869,55.6986,9.57278,"landmark","Vejlefjordbroen"
72595,55.3875,8.87687,"adm2nd","Kalvslund Herred"
93504,57.047,9.91667,"","Aalborg Teater"
41928,61.3411,28.0108,"city","Saimaa"
72612,55.6811,12.5613,"","Dannerhuset"
93564,69.6519,18.9533,"","Tromsø"
93708,56.1701,10.204,"landmark","Institut for Statskundskab (Aarhus Universitet)"
41931,46,9.28333,"waterbody","Comosøen"
72794,57.1583,9.02472,"landmark","Bulbjerg"
93809,56.9936,9.98556,"landmark","Gistrup Kirke"
6793,27.9881,86.9253,"landmark","Mount Everest"
42022,55.3785,10.3714,"landmark","Odense Zoo"
93993,57.75,14.2,"city","Jönköping"
73030,55.0528,9.45936,"landmark","Aabæk Efterskole"
73101,55.6955,12.5662,"landmark","Rigshospitalets Kirke"
93995,56.8833,14.8,"city","Växjö"
73170,55.6914,12.5871,"landmark","Den Frie Udstilling"
93997,56.6667,16.35,"city","Kalmar"
94018,56.6742,8.57889,"landmark","Hindsels"
6867,39,-117,"country","Nevada"
94056,46.4124,10.0285,"","Berninapasset"
73467,55.6969,12.561,"landmark","Steno (statue)"
73498,56,12,"adm2nd","Halsnæs Kommune"
42295,55.6808,12.5664,"","Ørstedsparken"
73500,56.05,12.2167,"adm2nd","Gribskov Kommune"
73508,56.1731,8.33083,"landmark","Hvingel"
6897,57.5871,9.98047,"landmark","Nordsøen Oceanarium"
6924,55.3138,10.7878,"landmark","Nyborg Slot"
73510,57.0463,9.91925,"adm2nd","Aalborg Kommune"
73564,55.7025,9.43944,"landmark","Haraldskær"
73670,55.6889,12.5875,"landmark","Nyboder"
6970,31.7833,35.2508,"mountain","Oliebjerget"
42528,25.7408,32.6022,"landmark","Kongernes Dal"
42565,56.0351,12.6156,"landmark","Stephen Hansens Palæ"
42747,56.1558,10.19,"landmark","Ceres (bryggeri)"
42899,55.693,12.5841,"landmark","Østre Borgerdyd Gymnasium"
42903,55.6553,12.5239,"landmark","Københavns åbne Gymnasium"
74467,56.6728,9.85083,"landmark","Valsgaard Kirke"
7197,41.9022,12.4533,"landmark","Peterskirken"
74569,55.6927,11.6986,"landmark","Tveje Merløse Kirke"
7250,36.4511,28.2278,"landmark","Kolossen på Rhodos"
74573,55.0381,9.79722,"landmark","Havnbjerg Kirke"
7303,55.05,10.6833,"isle","Thurø"
43091,55.814,12.496,"landmark","Søllerød Slot"
74655,47.8,13.0333,"city","Salzburg"
43159,55.7621,12.5072,"landmark","ASA Film"
74691,56.1683,8.91361,"landmark","Tjørring Kirke"
74763,56.8333,9.83333,"isle","Himmerland"
74768,55.3372,11.0025,"landmark","Storebæltsforbindelsen"
94093,55.6788,12.5655,"","Jarmers Tårn"
94101,55.676,12.5701,"landmark","Lurblæserne"
7850,-8.08333,-34.9,"city","Recife"
94162,41.7958,123.45,"landmark","Mukdenpaladset"
74805,40.7794,-73.9633,"","Metropolitan Museum of Art"
94197,55.6808,12.542,"","Det Biovidenskabelige Fakultets Have"
94388,55.0228,8.71861,"landmark","Kogsbøl Ladegård"
74959,55.232,10.5331,"landmark","Nazarethkirken"
74990,55.7144,12.5744,"landmark","Strandvejskvarteret"
43533,56.4693,10.026,"landmark","Randers Statsskole"
94431,54.9427,8.8088,"landmark","Schackenborg Slot"
75039,56.2556,9.80833,"waterbody","Søbygård Sø"
94495,56.4493,9.41089,"landmark","Sortebrødre Kirke"
75067,55.6769,12.5861,"landmark","Danmarks Nationalbank"
94570,56.1539,10.1961,"landmark","Det Jyske Musikkonservatorium"
75073,55.2426,10.5404,"landmark","Ryslinge Kirke"
75505,54.9224,9.76579,"landmark","Alssundbroen"
8396,-21,55.5,"state","Réunion"
75609,54.9667,9.63333,"isle","Sundeved"
43895,55.1242,14.925,"forest","Almindingen"
94579,51.5167,11.55,"city","Eisleben"
75616,56.2667,9.8,"landmark","Aptrup"
75717,55.6853,12.0622,"isle","Elleore"
75736,54.9256,9.595,"landmark","Gråsten Slot"
43981,61.5,-6.81667,"isle","Suðuroy"
75767,56.5106,9.61139,"","Tjele Gods"
44058,31.7031,35.1956,"city","Betlehem"
8451,55.3281,8.76111,"landmark","Ribe Domkirke"
8481,56.0882,8.24747,"landmark","Ringkøbing Museum"
75820,54.9574,9.73137,"landmark","Nydam Mose"
94808,55.4211,8.79889,"city","Jernved (Esbjerg Kommune)"
75984,56.1672,10.1989,"landmark","Institut for Fysik og Astronomi (Aarhus Universitet)"
44091,55.6667,12.4569,"landmark","Rødovre Gymnasium"
94809,55.4019,8.74444,"city","Gredstedbro"
44584,54.9247,9.97639,"city","Tandslet"
94819,57.4167,10.1333,"landmark","Ugilt"
76027,-13.5333,-71.95,"city","Cusco"
76384,55.6639,12.5405,"landmark","Enghave Kirke"
94869,57.45,10.1167,"landmark","Sønderskov (Astrup Sogn)"
76406,56.2833,9.85,"landmark","Njær Mark"
44722,56.4066,10.8738,"landmark","Grenaa Tekniske Skole"
76411,56.2817,9.87705,"","Frijsendal"
94875,56.4833,10.4667,"landmark","Østby (Norddjurs Kommune)"
76437,57.0464,9.91476,"landmark","Fontænen"
76443,40.35,26.4667,"isle","Gallipoli (halvø)"
44852,55.6899,12.5772,"","Den Hirschsprungske Samling"
94922,56.7883,9.21722,"landmark","Strandby Kirke (Vesthimmerlands Kommune)"
94925,55.25,8.5,"isle","Koresand"
76508,55.9286,12.2983,"landmark","Slotsarkaderne"
76510,55.6799,12.5903,"landmark","Nyhavn"
94935,56.6869,9.22361,"landmark","Louns Kirke"
44975,35.3667,24.4667,"city","Rethimno"
44986,41.9031,12.4664,"landmark","Engelsborg (Rom)"
94938,56.6917,9.22361,"waterbody","Louns Sø"
45042,55.6783,12.5648,"landmark","Styrelsen for Bibliotek og Medier"
45073,56.1862,10.1884,"landmark","Journalisthøjskolen"
95017,57.5875,10.1408,"landmark","Uggerby Å"
95019,57.6667,10.25,"waterbody","Tannis Bugt"
8575,55.6857,12.5773,"","Rosenborg Slot"
8633,51.5,7,"","Ruhr-distriktet"
45634,55.65,12.2667,"city","Høje-Taastrup"
95307,55.6717,12.6153,"","Kløvermarken"
8681,57.6491,10.4074,"landmark","Råbjerg Mile"
8835,53.1175,-4.12083,"city","Salamanca"
8860,55.6333,12.75,"isle","Saltholm"
45700,20.1444,92.8969,"city","Sittwe"
45702,55.6833,12.595,"landmark","Amaliehaven"
95395,55.6773,12.5316,"landmark","Cafe Intime"
95400,56.1247,10.0605,"landmark","Ormslev Kirke"
8869,-12.8895,-38.4549,"landmark","Salvador"
45826,59.3981,8.30639,"lake","Bandak"
9034,28.25,-16.5833,"isle","Tenerife"
45860,-8.565,116.351,"isle","Lombok"
45944,5.55,95.3167,"","Aceh"
9035,28.25,-16.6667,"mountain","Teide"
76646,55.7952,12.5712,"landmark","Eremitageslottet"
9117,55.0444,9.41808,"landmark","Sankt Nicolai Kirke (Aabenraa Kommune)"
95469,56.4947,8.52667,"landmark","Resen Kirke (Struer Kommune)"
9720,55,11.5,"waterbody","Smålandsfarvandet"
95473,56.7311,9.26778,"landmark","Fovlum Kirke"
10341,55.0203,9.43167,"landmark","Styrt-Om"
95478,57.4708,10.3142,"landmark","Tolne Kirke"
76836,55.6756,12.5694,"landmark","Jens Olsens Verdensur"
10797,56.3423,10.4607,"landmark","Thorsager Kirke"
10808,55.6736,12.5681,"landmark","Tivoli"
95484,55.648,12.4437,"landmark","Den muslimske gravplads i Brøndby"
95487,55.6375,12.5783,"landmark","Bella Center"
46197,55.6819,12.6006,"","Operaen på Holmen"
95491,55.7503,12.2939,"landmark","Oticon"
10862,11,-61,"country","Trinidad og Tobago"
95533,55.7003,12.5786,"landmark","Ingrid Jespersens Gymnasieskole"
46441,55.6333,12.4833,"city","Hvidovre"
77057,55.2855,10.5379,"landmark","Søllinge Kirke"
95538,55.7066,12.5154,"city","Bellahøj"
46462,55.6882,12.5611,"landmark","Nørrebro Teater"
95550,55.6764,12.5327,"landmark","Allégade (Frederiksberg)"
10893,48.52,9.05556,"city","Tübingen"
46612,54.9306,10.5,"isle","Birkholm"
95558,56.3616,10.1286,"landmark","Rud Kirke"
95567,55.4875,8.57083,"forest","Solbjerg Plantage"
10900,54.9327,8.86753,"landmark","Museum Sønderjylland – Kulturhistorie Tønder"
46635,55.0833,10.2333,"city","Faaborg"
77084,55.5053,9.68913,"landmark","Hindsgavl Slot"
11173,56.8844,8.63148,"landmark","Vilsundbroen"
46788,55.67,12.5597,"landmark","Halmtorvet"
77120,62.2558,-6.53417,"landmark","Árnafjørður"
46924,45.4675,9.18944,"landmark","Teatro alla Scala"
77124,55.6978,12.5889,"landmark","Classens Have"
47204,42.4637,1.97977,"","Llivia"
77171,54.9667,11.9,"waterbody","Storstrømmen"
95580,55.6633,11.7633,"landmark","Ågerup Kirke (Holbæk Kommune)"
77226,55.6583,12.5333,"landmark","Bavnehøj Kirke"
11264,47.5,-120.5,"country","Washington"
47439,57.1906,10.1047,"city","Ørum (Brønderslev Kommune)"
95595,55.8214,9.76639,"landmark","Ølsted Kirke (Hedensted Kommune)"
77332,51.5033,-0.119444,"landmark","London Eye"
95602,55.6795,12.4954,"landmark","Den Sønderjyske By"
95632,55.6758,12.5854,"landmark","Børsgraven"
77341,57.7136,10.5506,"landmark","Den tilsandede kirke"
95639,55.6696,12.5231,"landmark","Søndermarken"
77405,56.0321,12.5784,"landmark","Romerhusene"
95651,55.4705,8.45,"landmark","Sankt Nikolaj Kirke (Esbjerg)"
95657,56.0788,9.70244,"landmark","Sankt Sørens Kirke"
95665,55.6778,12.5286,"landmark","Hassagers Kollegium"
95680,55.6747,12.5014,"landmark","Johannesskolen (Frederiksberg)"
95686,55.6832,12.4987,"landmark","Flintholm"
47909,55.6925,12.1029,"landmark","Risø DTU"
95690,55.6782,12.5312,"landmark","Frederiksberg Rådhus"
77483,55.6709,12.5942,"landmark","Amagerport"
11287,50.9833,11.3167,"city","Weimar"
96024,56.0677,10.1604,"landmark","Mårslet Kirke"
47953,55.6008,8.80111,"city","Agerbæk"
96044,55.6822,12.5531,"landmark","Radiohuset"
47957,75,40,"waterbody","Barentshavet"
96070,55.5674,10.0875,"landmark","Sankt Nicolaj Kirke (Bogense)"
47972,56.79,8.74528,"landmark","Mors"
96077,56.0822,12.3878,"landmark","Villingerød Kirke"
48351,54.3,13.0833,"city","Stralsund"
48469,55.6579,12.5986,"landmark","Røgerigården"
48471,58.3667,19.25,"","Gotska Sandön"
96097,56.1276,8.17816,"landmark","Ny Sogn Kirke"
96098,56.0908,8.24461,"landmark","Ringkøbing Kirke"
77535,55.4013,11.3507,"landmark","Slagelse Museum"
48582,56.1558,10.2108,"landmark","Aarhus Teater"
96131,56.4489,8.58861,"landmark","Vejrum Kirke (Struer Kommune)"
96133,56.4753,8.60639,"landmark","Gimsing Kirke"
48623,41.4856,-71.3097,"landmark","Newport Tower"
11323,48.2,16.3833,"city","Wien"
48640,56.5667,9.01667,"city","Skive"
77673,54.9833,12.15,"waterbody","Ulvsund"
48673,55.6739,12.568,"landmark","Grøften"
96238,57.0479,9.91958,"","Budolfi Kirke"
96243,55.8805,12.4972,"landmark","Trommen"
96244,55.8833,12.5333,"city","Rungsted"
77725,55.4985,10.6869,"landmark","Viby Kirke (Kerteminde Kommune)"
96282,56.5506,8.62361,"landmark","Venø Kirke"
77741,55.3531,9.48472,"landmark","Tyrstrup Kirke"
96297,62.2893,-7.14742,"landmark","Tjørnuvík"
77854,31.7167,-110.067,"city","Tombstone"
48866,55.7667,11.8167,"isle","Orø"
96310,56.7742,9.33917,"landmark","Farsø Kirke"
77933,54.9285,11.272,"landmark","Nøbbet Kirke"
96311,56.805,9.51389,"landmark","Aars Kirke"
48968,55.0167,82.9333,"landmark","Novosibirsk"
96312,56.8435,9.42061,"landmark","Søttrup Frimenighedskirke"
78042,55.7044,8.75417,"city","Ansager"
49101,55.6911,12.5939,"landmark","Kastellet"
96374,55.3911,11.3628,"landmark","Antvorskov Kloster"
96411,55.6725,12.5328,"","Arveprins Knuds Kollegium"
96419,55.6739,12.5417,"landmark","Frederiksberg Allé"
78136,55.6593,12.589,"landmark","Bruger:Nickybutt"
11384,55.9933,9.79,"","Yding Skovhøj"
49240,55.6653,12.5221,"landmark","Jesuskirken"
78182,52.5074,13.3904,"landmark","Checkpoint Charlie"
96435,56.8353,9.42222,"landmark","Ulstrup Kirke"
11401,64.0722,24.5375,"city","Ylivieska"
78218,55.6746,12.57,"landmark","H.C. Andersens Boulevard"
49306,55.32,15.1878,"isle","Ertholmene"
49406,55.6992,12.5775,"landmark","Bien (på Trianglen)"
11608,55.9,12.7,"isle","Hven"
96439,56.6527,8.52725,"landmark","Hvidbjerg Kirke (Struer Kommune)"
96510,56.6061,8.53194,"landmark","Odby Kirke"
49415,55.7166,12.5336,"landmark","Grundtvigs Kirke"
11775,55.6794,12.5864,"landmark","Det Kongelige Teater"
49533,55.9772,9.82623,"landmark","Møllehøj"
78291,50.5667,8.5,"city","Wetzlar"
96586,56.9078,10.0342,"landmark","Lindenborg Gods"
49561,55.2611,12.0644,"landmark","Lystrup (Kongsted Sogn)"
78566,56.9659,8.70284,"landmark","EUC Nordvest"
96711,55.973,10.1524,"landmark","Odder Kirke"
78874,52.5083,13.3375,"landmark","Berlin Zoo"
96722,56.6392,8.61306,"landmark","Jegindø Kirke"
50109,55.5903,12.1294,"airport","Roskilde Lufthavn"
78908,55.6222,12.4458,"landmark","Vestvolden"
79148,55.3083,9.81667,"isle","Bågø"
96789,56.0228,12.2087,"landmark","Gribskov Gymnasium"
12864,56.0386,12.6219,"landmark","Kronborg"
79184,55.6806,12.5858,"","Kongens Nytorv"
96796,55.7882,12.5324,"landmark","Professor Ostenfeld Kollegiet"
79323,55.1292,15.1058,"landmark","Joboland"
96836,56.6153,8.5725,"landmark","Søndbjerg Kirke"
79324,57.4241,10.5186,"landmark","Bangsbostrand Kirke"
96845,56.6879,9.33389,"landmark","Gedsted Kirke"
79365,57.6058,10.2342,"landmark","Tversted-søerne"
79374,55.6786,12.5735,"landmark","La Glace"
79412,54.95,9.71667,"landmark","Øster Sottrup"
96939,54.7881,8.8296,"city","Niebüll"
79570,47.9833,7.85,"city","Freiburg im Breisgau"
96944,54.0714,9.99,"city","Neumünster"
96999,35.1667,33.35,"city","Nicosia"
97020,54.1622,10.4214,"city","Pløn"
13019,55.675,12.5917,"city","Christianshavn"
97203,56.2114,10.1294,"landmark","Kærbygård (Kasted Sogn)"
50464,48.2583,13.0333,"city","Braunau am Inn"
50465,56.9994,9.29403,"landmark","Aggersundbroen"
50481,25.0667,-77.3333,"city","Nassau (Bahamas)"
97214,54.7875,9.4325,"","Helligåndskirken (Flensborg)"
97227,56.2669,9.60697,"landmark","Alling Kloster"
13020,55.7,12.5833,"landmark","Indre Østerbro"
50484,55.0417,10.15,"isle","Lyø"
79618,55.6703,12.5902,"","Bruger:HenrikKbh"
13029,55.675,12.5686,"landmark","Louis Tussaud's Wax Museum"
97255,55.7623,8.50187,"landmark","Malle Plantage"
13030,55.6611,12.6111,"landmark","Sundbyøster"
97272,56.4847,8.87083,"landmark","Hjerl Hede"
50494,17.25,-88.7667,"city","Belmopan"
79668,55.6637,12.6386,"landmark","Helgoland Søbadeanstalt"
50631,55.6728,12.5497,"landmark","Jernporten (København)"
13031,55.6583,12.6028,"landmark","Sundbyvester"
97279,56.7053,9.45444,"landmark","Østerbølle Kirke"
79687,55.6667,12.5833,"landmark","Ny Tøjhusgrunden"
97280,56.7125,9.36222,"landmark","Vesterbølle Kirke"
13033,55.6816,12.5297,"landmark","Copenhagen Business School"
97283,56.6969,9.55417,"landmark","Simested Kirke"
79796,55.6794,12.5803,"landmark","Illum (stormagasin)"
50866,56.0239,12.0528,"landmark","Asserbo Slotsruin"
97285,56.7239,9.49972,"landmark","Testrup Kirke"
79849,57.1103,9.85722,"landmark","Flyvestation Aalborg"
79982,56.2437,10.7846,"landmark","Jernhatten"
97304,54.9186,9.59417,"city","Gråsten"
79993,56.1333,10.8028,"isle","Hjelm (ø)"
51032,48.8333,10.1,"city","Aalen"
97330,55.5125,8.3125,"isle","Langli"
80023,57.5365,10.416,"landmark","Jerup Kirke"
51663,54.9964,11.8897,"landmark","Masnedsundbroen"
80305,56.1778,10.225,"forest","Riis Skov"
80327,55.554,8.22941,"landmark","Ho Kirke"
51988,56.1487,10.2075,"landmark","Jægergården"
80335,56.5542,8.625,"isle","Venø"
80374,59.5326,-1.62941,"landmark","Fair Isle"
13211,55.6426,12.0803,"landmark","Roskilde Domkirke"
80429,55.8583,9.48278,"landmark","Tørring Kirke (Hedensted Kommune)"
97359,55.825,10.0833,"isle","Hjarnø"
13239,55.8333,10.6,"isle","Samsø"
97367,54.6333,8.71667,"isle","Grøde (ø)"
13255,56.1964,11.7072,"isle","Hesselø"
80491,55.2382,10.4777,"landmark","Ringe Kirke"
13339,55.6842,12.5931,"","Amalienborg"
80493,55.2348,10.3971,"landmark","Vantinge Kirke"
80494,55.9168,10.2233,"","Bjørnkær Voldsted"
80569,55.7267,12.5799,"landmark","Experimentarium"
97465,55.0201,8.6492,"landmark","Hjerpsted Kirke"
13342,45,-114,"country","Idaho"
80683,56.035,12.3447,"city","Esbønderup"
13393,55.5177,9.70968,"landmark","Lillebæltsbroen (1935)"
97472,54.9697,8.74528,"landmark","Daler Kirke"
13395,55.5181,9.75083,"landmark","Lillebæltsbroen (1970)"
80995,51.5197,6.3325,"city","Geldern"
52907,56.0833,10.1167,"city","Tranbjerg"
81044,56.6585,8.16919,"","Høfde 42"
52981,56.1527,10.1996,"landmark","Musikhuset Aarhus"
81138,56.0919,10.1349,"landmark","Tranbjerg Kirke"
13717,54.7819,9.43667,"city","Flensborg"
52998,62.25,-6.5,"isle","Borðoy"
13851,40.6986,-74.04,"","Ellis Island"
81257,57.4739,10.4842,"landmark","Elling Kirke"
53000,62.2167,-6.88333,"isle","Eysturoy"
81271,55.6775,12.5771,"landmark","Naboløs"
81325,23.9706,32.8779,"","Aswandæmningen"
53001,62.3333,-6.3,"isle","Fugloy"
81370,70.4592,-22.3292,"city","Itterajivit"
53002,61.95,-6.88333,"isle","Hestur"
53003,62.3,-6.75,"isle","Kalsoy"
53004,61.9917,-6.975,"isle","Koltur"
81566,48.3,14.2833,"city","Linz"
53005,62.3,-6.65,"isle","Kunoy"
97596,56.2939,9.43806,"landmark","Hørup Kirke (Kjellerup)"
53006,62.1083,-7.58333,"isle","Mykines"
97632,56.0648,9.9985,"landmark","Stilling Kirke"
81597,49.25,6.83333,"city","Völklingen"
53007,61.9833,-6.65,"isle","Nólsoy"
81634,56.9667,9.25,"city","Løgstør"
53009,61.6969,-6.74889,"isle","Stóra Dímun"
53010,62.2797,-6.34861,"isle","Svínoy"
97658,56.2077,9.80842,"landmark","Røgen Kirke"
53011,62.3167,-6.5,"isle","Viðoy"
97659,56.2365,9.88306,"landmark","Voldby Kirke (Favrskov Kommune)"
81784,55.6787,12.5803,"","Toga Vinstue"
53012,61.8333,-6.75,"isle","Sandoy"
81796,55.8647,9.82556,"landmark","Bygholm"
53013,56.1572,10.2114,"landmark","Kvindemuseet i Danmark"
81870,55.6992,12.5136,"landmark","Det Danske Teater"
53052,56.1546,10.2001,"landmark","Erhvervsarkivet"
81876,56.9833,10,"forest","Lundby Bakker"
97661,56.2436,9.81064,"landmark","Søby Kirke (Favrskov Kommune)"
81930,55.5666,9.75784,"landmark","Fredericia Teater"
97662,56.3001,9.93014,"landmark","Skjød Kirke"
81931,55.6745,12.5664,"landmark","Pantomimeteatret"
82122,55.7058,12.5811,"landmark","Randersgades Skole"
97704,39.1667,26.3333,"isle","Lesbos"
53112,55.9167,11.6667,"city","Nykøbing Sjælland"
14369,55.6711,9.34633,"landmark","Ravningbroen"
14394,90,0,"","Nordpolen"
82375,54.8667,11.2,"landmark","Vester Nordlunde"
14400,55.7514,13.0367,"landmark","Borgeby slot"
53123,54.7667,11.8833,"city","Nykøbing Falster"
53128,54.7597,11.8944,"landmark","CEUS"
97740,60.6,-45.4,"","Ammassivik"
82387,51.3833,7.76667,"city","Hemer"
97745,60.7833,-47.15,"city","Qassimiut"
82405,51.3833,7.66667,"city","Iserlohn"
53338,55.3557,9.48223,"landmark","Herrnhutiske Brødremenighed"
97777,56.0606,10.0472,"landmark","Stilling-Solbjerg Sø"
53360,55.6788,12.5796,"landmark","Storkespringvandet"
53376,55.6781,12.5723,"landmark","Caritasbrønden"
97815,56.7422,9.35472,"landmark","Svingelbjerg Kirke"
82501,56.1518,10.1014,"landmark","Brabrand Kirke"
97817,56.4338,10.376,"landmark","Auning Kirke"
82505,57.4956,10.4944,"landmark","Strandby Kirke (Frederikshavn Kommune)"
82619,54.5994,8.81889,"isle","Hamburger Hallig"
82629,28.585,-80.65,"","John F. Kennedy Space Center"
82967,57.4694,10.4333,"landmark","Amager (Frederikshavn Kommune)"
97864,54.9428,8.80167,"city","Møgeltønder"
53649,49.6319,8.36528,"city","Worms"
83371,57.04,9.95222,"city","Vejgaard"
97898,53.2525,10.4144,"city","Lüneburg"
83498,55.6787,12.5855,"landmark","Danske Bank"
83584,55.7644,12.4578,"landmark","Bagsværd"
97919,55.55,10.0833,"city","Bogense"
83685,56.4789,8.77833,"landmark","Vinderup Kirke"
53796,48.2533,12.8431,"city","Marktl"
53822,55.2598,12.1174,"landmark","Faxe Bryggeri"
97948,54.8569,9.50556,"isle","Okseøerne"
83689,56.4844,8.83889,"landmark","Sahl Kirke (Holstebro Kommune)"
53989,55.6737,12.5968,"landmark","Loppen"
97964,56.0561,12.2019,"landmark","Valby Kirke"
54007,56.7672,9.90972,"landmark","Lille Arden"
97971,56.6932,9.49708,"landmark","Danmarks Cykelmuseum"
83692,56.0231,12.5725,"landmark","Helsingør Dagblad"
54022,48.5,2.5,"adm1st","Île-de-France"
14649,56.6232,9.77049,"landmark","Fyrkat"
14862,55.6,12.7333,"isle","Peberholm"
83799,55.7387,12.3866,"landmark","GN Store Nord"
14893,55.3306,8.75694,"landmark","Riberhus"
15035,56.5501,10.0022,"landmark","Hvidsten Kro"
54442,56.1589,10.1917,"landmark","Den Gamle By"
54570,0,-91,"isle","Galápagosøerne"
83893,55.6811,12.5829,"landmark","Peder Madsens Gang"
54647,55.6794,12.4183,"city","Hvissinge"
83907,57.4086,10.5159,"landmark","Bangsbo Fort"
83919,56.7,10.2167,"waterbody","Mariager Fjord"
54811,54.8403,11.0583,"isle","Slotø"
98191,55.3853,10.3875,"landmark","Thomas Kingos Kirke"
54814,54.8267,11.0889,"isle","Barneholm"
98193,55.3273,9.92789,"landmark","Sandager Kirke"
54816,54.8067,11.0647,"isle","Smedeholm"
54817,54.8206,11.0525,"isle","Kåreholm"
98199,56.0159,12.1115,"landmark","Ramløse Kirke"
54820,54.8297,11.0456,"isle","Munkeholm"
15724,48.1333,11.5667,"city","München"
54822,54.8444,11.0361,"isle","Rommerholm"
54828,54.8417,11.0167,"isle","Enehøje"
15885,56.1272,9.02694,"landmark","Elia (skulptur)"
98201,56.0643,12.1408,"landmark","Vejby Kirke (Gribskov Kommune)"
54853,54.8333,11.0667,"waterbody","Nakskov Fjord"
54856,55.6944,12.3722,"forest","Vestskoven"
15928,55.6167,12.5833,"isle","Amager"
84061,55.0015,10.8559,"landmark","Tranekær Slot"
98203,56.0251,12.2797,"landmark","Mårum Kirke"
54932,54.8917,11.4917,"isle","Askø (Smålandsfarvandet)"
84119,31.3153,35.3536,"landmark","Masada"
16035,55.7667,12.7667,"waterbody","Øresund"
54934,54.9097,11.4833,"isle","Lilleø (Smålandsfarvandet)"
98209,55.765,12.4975,"landmark","Christianskirken (Lyngby-Taarbæk Kommune)"
54949,54.8811,11.4489,"isle","Lindholm (Smålandsfarvandet)"
54985,55.6681,12.5439,"landmark","Vega (København)"
16267,55.3333,11,"waterbody","Storebælt"
55007,56.1051,9.68503,"landmark","Himmelbjerget"
98356,55.6799,12.5706,"","Sankt Petri Kirke"
55035,55.6764,12.5636,"landmark","Palads Teatret (København)"
84266,53.3858,-1.46944,"","Sheffield"
55134,55.6733,12.5553,"landmark","Det Ny Teater (København)"
55166,54.75,11.5389,"isle","Askø (Søndersø)"
98557,55.7748,12.5065,"landmark","Sankt Knud Lavard Kirke"
16451,55.7859,12.5233,"landmark","Danmarks Tekniske Universitet"
98574,55.9251,12.3127,"landmark","Frederiksborg Gymnasium og HF"
16476,55.9694,12.5431,"landmark","Louisiana (kunstmuseum)"
98596,55.9236,12.3139,"waterbody","Teglgård Sø"
55181,55.6972,12.4097,"city","Ejby (Glostrup)"
84404,53.7917,9.42194,"city","Glückstadt"
98689,55.8167,12.5667,"forest","Jægersborg Hegn"
55184,54.7525,11.5389,"isle","Lindø (Søndersø)"
55188,54.7569,11.5403,"isle","Borgø"
84456,55.3941,11.2653,"landmark","Trelleborg (Slagelse)"
98690,55.5711,12.1318,"landmark","Snoldelev Kirke"
84471,55.6991,12.5933,"landmark","Nordisk Fjer"
55208,54.7625,11.4958,"isle","Hestø"
55209,54.76,11.5139,"isle","Præstø (ø)"
84624,55.8111,11.3889,"forest","Kårup Skov"
55210,54.765,11.4958,"landmark","Fruerø"
55212,54.7431,11.5781,"isle","Worsaaes Ø"
84909,55.6809,12.5768,"landmark","Købmagergade"
55215,54.8303,11.0875,"isle","Kuddeholm"
98739,55.7824,12.5428,"landmark","Fortunfortet"
55216,54.9292,11.0458,"isle","Vensholm"
55217,54.9167,10.9167,"waterbody","Langelandsbælt"
84989,55.7833,11.2875,"isle","Nekselø"
98757,55.3985,10.3852,"landmark","Odense Teater"
98774,55.6578,12.3565,"landmark","Forbrændingen"
55219,55.0333,11.3667,"isle","Vejrø (Smålandsfarvandet)"
98814,56.8,9.81667,"forest","Rold Skov"
55221,54.9722,11.2931,"isle","Rågø Kalv"
85008,54.9833,12.35,"isle","Mønbo Herred"
16725,34.3833,134.833,"isle","Avaji"
55223,54.9625,11.3583,"isle","Skalø"
98866,55.4145,10.397,"city","Skibhuskvarteret"
55224,54.95,11.4167,"isle","Fejø"
85024,55.772,11.3907,"landmark","Dragsholm Slot"
55225,54.9667,11.5333,"isle","Femø"
55226,54.8408,11.4961,"isle","Havneø"
98971,55.4323,10.3637,"city","Søhus"
85043,35.4667,44.4,"city","Kirkuk"
55294,54.9083,11.6347,"isle","Vigsø (ø)"
16872,54.95,8.65,"waterbody","Vidå"
98982,55.3991,10.3865,"landmark","Odense Slot"
55300,54.8386,11.7694,"isle","Hjelm Ø"
55301,54.85,11.75,"waterbody","Guldborgsund"
16988,55.8731,12.8225,"landmark","Landskrona slot"
55303,54.7306,11.8633,"isle","Flatø"
17041,83.6667,-29.8333,"isle","Kaffeklubben Ø"
55320,54.7236,11.8625,"isle","Kalvø (Guldborgsund)"
17086,56.7822,9.72389,"landmark","Nørlund Slot"
55326,54.7153,11.8333,"isle","Kejlsø"
55327,54.7178,11.8283,"isle","Lilleø (Guldborgsund)"
85293,55.6877,12.5035,"landmark","C.F. Richs Vej Station"
55330,55.4667,8.47222,"landmark","Grundtvigskirken (Esbjerg)"
55331,54.7131,11.8897,"isle","Barholme"
55335,54.5722,11.8381,"isle","Fugleholm"
99046,55.5563,10.1708,"landmark","Nørre Sandager Kirke"
55347,54.5667,11.9167,"landmark","Djævleø"
85301,29.5197,103.332,"mountain","Emei Shan"
55348,54.6395,11.8088,"isle","Store Skåne"
99065,54.9449,10.7624,"landmark","Simmerbølle Kirke"
85305,56.4708,8.54917,"landmark","Ølby Kirke (Struer Kommune)"
55354,54.6633,11.7244,"isle","Kalveholm (Nysted Nor)"
55358,54.6539,11.6569,"isle","Lindholm (Østersøen)"
99068,56.4422,9.55639,"landmark","Vejrum Kirke (Viborg Kommune)"
99069,54.6614,11.7951,"landmark","Vantore Kirke"
55360,54.6533,11.5994,"isle","Kalveholm (Østersøen)"
55362,54.6461,11.5978,"isle","Tjørneholm"
99071,55.7035,12.5764,"landmark","Sankt Jakobs Kirke"
100869,55.6943,12.5486,"landmark","Nørrebros Runddel"
55365,54.6508,11.5772,"isle","Hylleholm"
99077,56.5892,8.78083,"landmark","Lem Kirke (Skive Kommune)"
100902,56.1552,10.1574,"landmark","Åbyhøj Kirke"
55367,54.6236,11.5083,"isle","Storeager"
55373,54.6267,11.5139,"isle","Lilleager"
55375,54.6089,11.4642,"isle","Drummelholm"
101001,55.7754,12.4572,"landmark","Sophienholm"
99113,60.3975,5.32333,"landmark","Bryggen (Bergen)"
55382,55.6697,12.5644,"landmark","DGI-byen"
101007,55.6791,12.5686,"landmark","Fantask"
101089,55.7618,12.4445,"landmark","Bagsværd Kirke"
99191,55.6872,12.5411,"landmark","Falkonergården (Frederiksberg)"
99197,56.051,12.5847,"landmark","LO-skolen"
101090,55.739,12.3652,"landmark","Skovvejskirken"
99233,74.45,19,"isle","Bjørneøen"
101110,56.1657,10.1825,"landmark","Møllevangskirken"
99239,47.6667,9.18333,"city","Konstanz"
99287,55.7355,12.3845,"landmark","Borupgaard Gymnasium"
55400,54.8,11.6333,"city","Sakskøbing"
17119,52.0833,4.31667,"city","Haag"
99338,55.3802,11.6209,"landmark","Vester Broby Kirke"
99343,56.5976,9.21747,"landmark","Ørslev Kloster"
99351,40.8167,111.65,"city","Hohhot"
99353,55.9247,12.4917,"landmark","Nivå Kirke"
55430,56.1599,10.2096,"landmark","Øst for Paradis (biograf)"
99355,56.0461,12.2269,"forest","Valby Hegn"
101342,56.35,10.5167,"landmark","Skarresø"
55524,55.6693,12.5621,"landmark","Øksnehallen"
55529,55.6694,12.537,"landmark","Carlsberg-siloen"
99362,55.3967,10.3857,"landmark","Franciskanerklostret i Odense"
101405,55,9.61667,"landmark","Blåkrog"
101411,55.8119,9.35207,"landmark","Givskud Zoo"
99497,56.3929,9.34385,"","Hald Hovedgård"
101555,55.2367,11.9508,"landmark","Sparresholm"
101567,56.1377,8.97542,"landmark","Herning Kirke"
55646,55.6722,12.5533,"landmark","Københavns Museum"
101614,55.6782,12.455,"landmark","Rødovre Centrum"
105124,56.2229,10.7036,"landmark","Dråby Kirke (Djursland)"
105136,56.0597,10.2167,"landmark","Beder Kirke"
17326,55.2497,9.49194,"landmark","Haderslevhus"
55823,55.6756,12.5656,"landmark","Scala (København)"
55825,55.6754,12.565,"landmark","Axeltorv (København)"
99683,49.6167,6.13333,"city","Luxembourg (by)"
55828,55.6754,12.5644,"landmark","Axelborg"
99749,55.6791,12.5208,"landmark","Diakonissestiftelsen"
55838,55.6761,12.5651,"landmark","Cirkusbygningen"
17361,6.05,147.083,"isle","Carolinerne"
55840,56.1057,10.0702,"landmark","Kolt"
99752,55.7895,12.5895,"landmark","Taarbæk Kirke"
99834,55.9833,11.8833,"landmark","Kikhavn"
105440,55.9913,10.0093,"landmark","Herschendsgave"
55848,56.3692,10.4083,"landmark","Skaføgård"
99866,55.9827,12.3877,"landmark","Nordmandsdalen"
55891,56.354,9.60225,"landmark","Gudenaacentralen"
105518,56.1226,10.1426,"landmark","Ravnsbjergkirken"
105689,55.6739,12.5499,"landmark","Værnedamsvej"
99936,56.7978,-5.00278,"mountain","Ben Nevis"
55938,56.1907,10.1131,"landmark","Tilst"
99996,55.7223,12.407,"landmark","Skovlunde Kirke"
105729,55.7793,12.0657,"landmark","Roskilde Fjord"
55952,40.6417,-73.7792,"airport","John F. Kennedy International Airport"
56004,55.6704,12.5398,"landmark","Sorte Hest"
100002,55.9439,10.1862,"landmark","Randlev Kirke"
100011,55.9446,10.1866,"landmark","Randlev Præstegård"
105743,56.3106,9.12056,"airport","Karup Lufthavn"
100242,56.5466,10.1698,"landmark","Tvede Kirke"
105746,55.0644,14.755,"landmark","Bornholms Lufthavn"
100245,56.5789,10.1911,"landmark","Øster Tørslev Kirke"
105747,55.684,12.5932,"landmark","Frederik V (rytterstatue)"
105784,55.5217,8.54944,"airport","Esbjerg Lufthavn"
105788,55.3939,10.3316,"landmark","Odinstårnet"
100258,55.6958,12.5125,"landmark","Grøndalskirken"
105789,55.7036,12.5042,"city","Carlstad"
100259,55.6279,12.6026,"landmark","Tårnby Kirke (Tårnby Kommune)"
100260,55.9608,12.3493,"landmark","Egelund Slot"
105913,56.1456,10.1625,"landmark","Gammel Åby Kirke"
105921,55.7761,12.5739,"landmark","Dyrehavsbakken"
105925,54.7624,12.0027,"landmark","Sønder Alslev Kirke"
106094,55.6833,12.5611,"waterbody","Søerne"
100269,55.78,12.4803,"landmark","Sorgenfri Kirke"
106142,55.7857,12.4899,"landmark","Frilandsmuseet"
100270,56.0416,12.1066,"landmark","Tibirke Kirke"
100273,55.6708,12.5005,"landmark","Domus Vista"
100319,56.1172,9.95408,"landmark","Stjær Kirke"
100324,50.895,4.34139,"landmark","Atomium"
100329,41.65,-0.9,"city","Zaragoza"
106250,56.0917,12.45,"city","Hornbæk (Helsingør Kommune)"
100341,56.169,9.55311,"landmark","Silkeborg Hovedgård"
100363,56.3272,9.64583,"landmark","Ormstrup (Sahl Sogn)"
106287,50.8333,4.26667,"city","Dilbeek"
100401,56.169,9.55308,"landmark","Silkeborg Museum"
100413,56.578,8.55919,"landmark","Oddesundbroen"
106323,55.8448,12.0508,"landmark","J.F. Willumsens Museum"
56080,55.6667,12.5597,"landmark","Vestre Gasværk"
56135,55.7042,12.4982,"city","Brønshøj"
100435,55.3963,10.3909,"landmark","Sankt Albani Kirke (indviet 1908)"
56140,55.6892,12.4242,"landmark","Hvissingestenen"
100439,55.6454,8.65444,"landmark","Øse Kirke"
56149,56.5083,10.2908,"landmark","Stenalt (Ørsted Sogn)"
106448,56.0474,12.3808,"landmark","Esrum Kloster"
100523,55.6737,12.5993,"landmark","Pusher Street"
56160,54.9436,11.6989,"isle","Suderø (Smålandsfarvandet)"
106519,55.7246,12.4759,"landmark","Enghavegård Skole"
56163,54.9708,11.8233,"isle","Dyrefod"
56164,54.9665,11.8316,"isle","Skåneholm"
100564,37.1769,-3.58999,"","Alhambra"
56169,54.9917,11.8833,"isle","Masnedø"
56170,54.9778,11.8792,"isle","Masnedø Kalv"
17395,59.9333,30.2667,"","Sankt Petersborg"
106755,55.3833,10.6667,"landmark","Mullerup (Nyborg Kommune)"
56189,55.3833,10.45,"landmark","Blangstedgård"
106780,55.7989,12.5269,"city","Lundtofte"
56357,55.921,10.2516,"landmark","Egmont Højskolen"
100639,55.9944,12.2528,"waterbody","Solbjerg Engsø"
100784,55.6882,12.5596,"landmark","Sakramentskirken"
106925,61.2981,7.3225,"landmark","Urnes stavkirke"
121375,55.6867,12.3033,"landmark","Observatorium Tusculanum"
121376,55.6846,12.302,"landmark","Ole Rømers Høj"
107081,40.7058,-73.9967,"landmark","Brooklyn Bridge"
121460,55.0395,9.8079,"landmark","Danfoss Universe"
107276,56.4604,10.0408,"landmark","Randers Bibliotek"
56483,52.5164,13.3778,"landmark","Brandenburger Tor"
56537,55.6556,12.6083,"city","Eberts Villaby"
121474,55.6254,12.1376,"landmark","Vindinge Kirke (Roskilde Kommune)"
56566,52.5219,13.4131,"landmark","Alexanderplatz"
56584,55.705,12.5617,"","Egmont H. Petersens Kollegium"
121481,56.0907,12.3093,"landmark","Søborg Slot"
107450,55.6803,11.0853,"landmark","Kalundborg Slot"
121482,56.0863,12.3177,"landmark","Søborg Kirke (Gribskov Kommune)"
17628,55.7,10.9667,"waterbody","Kalundborg Fjord"
56729,55.6694,12.5481,"landmark","Sankt Matthæus Kirke"
107551,56.1603,9.50694,"landmark","Lysbro (Silkeborg)"
56742,55.6756,12.5697,"landmark","Københavns Rådhus"
107588,55.6805,11.0808,"landmark","Vor Frue Kirke (Kalundborg)"
107594,56.5464,9.52361,"landmark","Pederstrup Kirke"
17707,56.2745,10.4672,"landmark","Kalø Slotsruin"
56847,55.7267,12.5656,"landmark","Mindelunden i Ryvangen"
107598,55.6803,11.0856,"landmark","Folen (Kalundborg Slot)"
121588,56.2533,10.149,"landmark","Bakkegårdsskolen"
107621,55.6806,11.0851,"landmark","Fars Hat (Kalundborg Slot)"
17729,55.0417,10.5917,"waterbody","Svendborgsund"
121622,55.6798,12.5391,"landmark","DVJB"
17738,56.4167,10.6667,"isle","Djursland"
107624,55.6825,12.5197,"landmark","Frederiksberg Tekniske Gymnasium"
57048,56.1222,9.68056,"isle","Møgelø"
121632,54.4389,13.575,"landmark","Prora"
107807,55.4713,9.09958,"landmark","Askov Højskole"
17740,56.1978,10.6768,"landmark","Ebeltoft Rådhus (1789)"
57064,55.6772,12.5647,"landmark","Pumpehuset (København)"
121643,56.1332,9.91333,"landmark","Gammelgård (Storring Sogn)"
57200,55.6586,12.1844,"landmark","Fløng"
17783,51.5056,-0.0755556,"landmark","Tower Bridge"
107835,55.3697,9.05306,"landmark","Rødding Højskole"
107842,55.9735,12.5348,"landmark","Krogerup Højskole"
121671,44.9333,4.89167,"city","Valence"
121676,56.1288,9.90872,"landmark","Sandgravvold"
121739,55.1171,15.1047,"landmark","Sankt Ibs Kirke"
107901,55.8457,9.58383,"landmark","Uldum Mølle"
17814,56.1372,10.1958,"landmark","Tivoli Friheden"
17829,-90,0,"","Sydpolen"
107974,56.1458,8.27806,"landmark","Hee Kirke"
18270,54.5153,9.56972,"city","Slesvig by"
18272,54.35,9.25,"city","Stapelholm"
108031,55.7871,12.5214,"airport","Lundtofte Flyveplads"
121960,55.0374,12.2717,"landmark","Ulvshale"
18378,15,-75,"waterbody","Caribiske Hav"
121997,55.8903,10.1646,"landmark","Gylling Kirke"
57401,54.4333,11.1833,"city","Femern"
108161,55.7611,12.4906,"landmark","Lyngbyfortet"
108174,57.0569,9.95722,"landmark","Limfjordstunnelen"
108209,56.1828,9.6004,"landmark","Silkeborg Gymnasium"
108601,55.9738,10.2346,"landmark","Saksild Kirke"
122082,55.7817,12.5175,"landmark","DTU Fotonik, Institut for Fotonik"
108611,56.9831,9.63778,"landmark","Nibe Kirke"
58280,31.95,25.9333,"city","Amman"
122147,56.17,10.2031,"landmark","Juridisk Institut (Aarhus Universitet)"
108623,54.8333,11.9667,"landmark","Virket"
58301,55.6924,12.5987,"landmark","Langelinie"
58649,55.6848,12.5702,"landmark","Arbejdermuseet"
58654,55.6683,12.5318,"","Bakkehusmuseet"
19074,51.5081,-0.0761111,"landmark","Tower of London"
19172,25,-90,"waterbody","Mexicanske Golf"
58659,55.4186,9.56555,"landmark","Skamlingsbanken"
122189,56.1061,9.85,"waterbody","Ravnsø"
108703,37.0833,25.4667,"island","Naxos (geografi)"
122190,56.1,9.76667,"waterbody","Knudsø"
58685,55.6974,12.5595,"landmark","Det Naturvidenskabelige Fakultet (Københavns Universitet)"
122201,55.6812,12.5303,"landmark","Solbjerg Plads"
108800,56.0667,12.2417,"forest","Aggebo Hegn"
19406,56.1705,10.1991,"landmark","Statsbiblioteket"
58705,55.6851,12.5911,"landmark","Danmarks Apotekerforening"
58729,55.6793,12.5699,"landmark","Det Juridiske Fakultet (Københavns Universitet)"
19614,21.3619,-157.954,"landmark","Pearl Harbor"
58736,55.6871,12.5704,"landmark","Det Samfundsvidenskabelige Fakultet (Københavns Universitet)"
122215,56.5395,9.27692,"landmark","Tårupgård"
108812,-40.3475,176.551,"mountain","Taumatawhakatangihangakoauauotamateapokaiwhenuakitanatahu"
19684,45.3167,-75.6667,"city","Ottawa"
58796,55.6809,12.5773,"landmark","Det Teologiske Fakultet (Københavns Universitet)"
122223,56.5356,9.67611,"landmark","Vingegård Gods"
108885,56.6333,8.53333,"isle","Thyholm"
58859,55.0638,10.6072,"landmark","Naturama"
122230,56.4504,9.58694,"landmark","Viskum"
58878,54.9542,10.6917,"isle","Siø"
122236,55.6679,12.4357,"landmark","Nygårdskirken"
108913,54.0794,21.4936,"landmark","Ulveskansen"
19701,47.7831,9.61139,"city","Ravensburg"
58880,55.0533,10.6197,"isle","Koø"
19706,56.8167,9.88333,"forest","Den Jyske Skovhave"
58969,55.6695,12.5245,"landmark","Cisternerne"
109006,55.7619,12.5691,"landmark","Sankt Andreas Kirke (katolsk)"
59234,55.6717,12.525,"landmark","Frederiksberg Slot"
122265,56.1693,10.1157,"landmark","Skjoldhøjkollegiet"
59258,55.6766,12.5741,"landmark","Dansk Skolemuseum"
122270,56.8687,9.21314,"landmark","Vitskøl Kloster"
19886,51.1167,17.0333,"city","Wrocław"
122312,55.3996,10.4644,"landmark","Åsum Kirke"
109094,55.8264,12.5639,"forest","Bøllemosen"
122315,55.4072,10.4422,"landmark","Vollsmose Kirke"
109095,55.81,12.5423,"landmark","De Runde Haver"
20118,55.4915,9.47428,"landmark","Koldinghus"
122326,56.6683,9.55469,"landmark","Korsøgård"
20159,43,34,"waterbody","Sortehavet"
109161,56.1923,10.1949,"landmark","Skelager Kirke"
122347,55.4748,8.45252,"landmark","Esbjerg Statsskole"
109212,56.2278,8.60306,"landmark","Præstbjerg"
59315,55.6883,12.596,"landmark","Frihedsmuseet"
122372,55.3959,10.4229,"landmark","Vor Frelsers Kirke (Odense Kommune)"
59317,53.6667,23.8167,"","Grodno"
109249,56.5554,9.41134,"","Skals Efterskole"
20428,54.9889,12.1644,"landmark","Dronning Alexandrines Bro"
109318,56.7333,8.23333,"isle","Agger Tange"
59319,46.4833,30.7333,"city","Odessa"
122417,55.6681,12.525,"mountain","Valby Bakke og Frederiksberg Bakke"
122446,56.2017,10.1522,"landmark","Koldkærgård"
109451,56.1998,10.1746,"landmark","Skejby Kirke"
59320,49.8394,24.0328,"city","Lviv"
122462,55.96,10.1625,"landmark","Rodsteenseje"
59323,55.68,12.5792,"landmark","Museum Erotica"
109596,13.7167,-89.2,"city","San Salvador"
109602,14.0833,-87.2,"city","Tegucigalpa"
109633,55.6819,12.6067,"landmark","Statens Teaterskole"
109750,56.2864,9.33417,"landmark","Thorning Kirke"
59331,25.9333,-97.4833,"city","Brownsville"
122939,55.6341,12.4473,"landmark","Zentropa"
122986,55.1149,8.79945,"landmark","Døstrup Kirke (Tønder Kommune)"
59356,13.4333,103.833,"","Angkor"
109775,57.0181,9.9625,"landmark","Aalborg DH"
59413,55.6806,12.5778,"landmark","Post & Tele Museum"
109882,55.6804,11.0819,"landmark","Bruger:Lcl"
59451,55.7101,12.5818,"landmark","Østre Gasværk"
123014,55.7012,12.537,"landmark","Frederikssundsvej"
109884,62.3003,-7.08889,"city","Eiði"
123018,55.78,12.488,"landmark","NNIT"
123020,55.6847,12.3117,"landmark","Kroppedal Museum"
123083,55.4,10.6149,"landmark","Rynkeby Kirke"
123086,55.5018,10.6482,"landmark","Mesinge Kirke"
123090,55.4287,10.4334,"landmark","Seden Kirke"
123116,57.55,10.2833,"landmark","Sørig (Tversted Sogn)"
110184,40.7484,-73.9858,"landmark","Empire State Building"
59461,14.6489,-61.0206,"landmark","Martinique"
123139,55.6802,12.5869,"landmark","Charlottenborg"
110227,55.5667,11.5,"city","Verup"
123215,57.0629,9.57347,"landmark","Ø Nonnekloster"
110314,56.1583,10.1333,"city","Gellerupparken"
59575,54.4667,9.05,"city","Husum (Slesvig)"
123309,57.0826,9.57628,"landmark","Klavsholm"
123334,55.8533,10.1558,"landmark","Gyllingnæs"
110318,49.9481,11.5783,"city","Bayreuth"
59578,54.3,9.66667,"city","Rendsborg"
110497,55.3407,10.3605,"landmark","Stenløse Kirke (Odense Kommune)"
110511,56.4469,9.425,"landmark","Asmild Kirke"
59638,54.9333,10.25,"city","Søby (Ærø)"
59641,55.6811,12.575,"landmark","Regensen"
110543,56.4738,9.84559,"","Fussingø"
110578,55.6581,12.5906,"landmark","DR Byen"
110590,50.0156,9.01083,"landmark","DCF77"
59646,56.1583,10.1861,"landmark","Århus Amtssygehus"
59655,55.6856,12.5943,"landmark","Fødselsstiftelsen"
110611,56.1942,9.96361,"landmark","Skivholme Kirke"
59712,54.6614,9.93111,"city","Kappel"
110671,55.6611,11.0792,"landmark","Asnæsværket"
110683,55.6255,12.0832,"landmark","Roskilde Tekniske Gymnasium"
110728,56,12.5833,"landmark","Snekkersten"
110729,55.6736,12.5314,"landmark","Hansens Gamle Familiehave"
110839,55.2882,12.1412,"landmark","Tokkerup (Faxe Sogn)"
110926,55.9068,12.6967,"landmark","Stjerneborg"
111026,-7.53333,110.433,"mountain","Gunung Merapi"
111112,55.933,9.5,"landmark","Klovborg Kirke"
111116,55.6614,11.0017,"landmark","Asnæs (halvø)"
111242,55.6155,12.3521,"landmark","Vejleå Kirke"
59749,54.63,9.93139,"city","Arnæs"
135565,55.9067,9.71083,"landmark","Statsfængslet Østjylland"
111274,54.9071,9.78372,"landmark","Sønderborg Slotskapel"
135579,55.1756,10.23,"landmark","Østrupgård (Håstrup Sogn)"
111275,56.1522,10.0704,"landmark","Sønder Aarslev Kirke"
135618,-39.2,175.583,"landmark","Tongariro Nationalpark"
111279,57.0436,10.0208,"landmark","AaB 89ers"
111295,55.7233,12.5784,"landmark","Tuborgflasken"
135742,55.2803,9.95167,"landmark","Brahesborg"
135751,55.2961,9.94444,"landmark","Vilhelmsborg (Gamtofte Sogn)"
135782,55.2289,10.2692,"landmark","Brobygård"
111313,55.4454,11.7872,"landmark","Sankt Bendts Kirke"
135792,55.2189,10.3211,"landmark","Gelskov"
135883,55.1925,10.6997,"landmark","Rygård (Langå Sogn)"
111330,57.2886,10.3122,"landmark","Skæve Kirke"
20902,56.174,9.55622,"landmark","Silkeborg Slot"
135908,57.2681,10.9025,"landmark","Vesterø Søndre Kirke"
20946,55.6539,12.1411,"landmark","Roskilde Universitet"
111361,55.387,10.4043,"landmark","Munkebjerg Kirke"
111363,55.3977,10.3956,"landmark","Vor Frue Kirke (Odense)"
136593,55.4683,10.2814,"landmark","Zastrov"
20949,56.1569,10.2106,"landmark","Århus Domkirke"
136925,55.1836,10.1425,"landmark","Damsbo"
111364,55.3685,10.3293,"landmark","Sanderum Kirke"
137167,55.2061,10.2028,"landmark","Søbo (Jordløse Sogn)"
21051,70.6681,23.7,"","Hammerfest"
21074,55.9073,10.6057,"landmark","Kanhavekanalen"
123714,57.6,10.25,"forest","Tversted Plantage"
111416,56.1692,10.1597,"landmark","Århus Pinsekirke"
137387,55.6011,10.3478,"landmark","Egebjerggård"
21078,52.4831,-1.89361,"","Birmingham"
123715,57.5833,10.2,"landmark","Tannisby"
123717,57.5058,10.1464,"landmark","Baggesvogn"
111673,55.7333,9.95833,"forest","Klejsskov"
111699,56.0586,12.2306,"landmark","Nordsjællands Efterskole"
123746,56.2226,10.0528,"landmark","Ristrup"
111799,55.6741,12.5643,"landmark","Panoptikonbygningen"
138017,44.8386,-0.578333,"city","Bordeaux (by)"
138025,56.6755,16.4134,"","Ölandsbron"
123756,50.6486,11.9806,"city","Zeulenroda-Triebes"
21124,34.8,-92.2,"country","Arkansas"
123766,3.75306,8.77889,"city","Malabo"
138055,56.0854,10.0386,"landmark","Hørning Kirke (Skanderborg Kommune)"
111853,55.6724,12.5872,"landmark","Bruger:IbRas/Testside"
123773,45.7958,24.1522,"city","Sibiu"
111865,57.4212,10.4664,"landmark","Cloostårnet"
123779,55.4547,12.169,"landmark","Køge Gymnasium"
111866,57.419,10.4713,"forest","Vandværksskoven"
123875,55.9833,11.9,"landmark","Nødebohuse"
138062,56.1519,10.2067,"landmark","Svalegangen"
111881,56.1882,10.2363,"landmark","Risskov Kirke"
138161,55.4652,8.43578,"landmark","Esbjerg Havn"
21140,52.6667,22.0167,"city","Treblinka"
123905,11.0244,79.8556,"landmark","Dansborg"
111896,64.2581,-21.125,"landmark","Þingvellir"
138225,55.5794,10.3217,"landmark","Kørup (Krogsbølle Sogn)"
138235,55.2654,11.6525,"landmark","Vallensved Kirke"
112083,56.5667,9.31861,"landmark","Lynderup Kirke"
138300,54.4625,8.55417,"isle","Sønderog"
138302,54.5286,8.5125,"isle","Nørreog"
138312,40.4241,-3.71778,"landmark","Debods Tempel"
124034,55.4947,10.4204,"landmark","Østrup Kirke"
138324,55.55,12.2,"landmark","Karlstrup"
124046,55.6496,12.2629,"landmark","Høje-Taastrup Gymnasium"
138401,57.0708,10.2544,"landmark","Ulsted Kirke"
138418,55.475,10.1322,"landmark","Elvedgård"
112179,56.5642,9.32583,"landmark","Lynderupgaard"
124053,56.3142,10.3211,"landmark","Hornslet Kirke"
138433,55.5886,12.6783,"isle","Dragør Fort"
124067,55.6861,12.5728,"landmark","Botanisk Have (København)"
138441,55.5504,8.17225,"landmark","Tirpitz-stillingen"
112200,54.7366,11.4888,"landmark","Bursø Kirke"
138481,58.3233,7.36806,"city","Audnedal"
138499,55.396,10.0489,"landmark","Erholm"
138504,55.3972,10.0317,"landmark","Søndergårde (Rørup Sogn)"
138510,55.2139,9.99833,"landmark","Flenstofte"
124072,50.9761,10.3206,"city","Eisenach"
138525,55.6839,12.6228,"landmark","I/S Amagerforbrænding"
112214,55.5355,11.853,"landmark","Skjoldenæsholm"
124142,56.5522,10.3597,"landmark","Estruplund"
138531,55.4,10.1306,"landmark","Grøftebjerg"
124186,56.3255,9.85321,"","Hagsholm"
138542,55.5675,10.1503,"landmark","Gyldensteen"
138706,58.0958,6.80333,"city","Farsund"
138709,58.2992,6.66472,"city","Flekkefjord"
112255,54.7155,11.4512,"landmark","Holeby Kirke"
124237,56.3478,9.934,"","Bidstrup"
138769,55.5419,10.1022,"landmark","Harritslevgård"
112296,55.869,12.3549,"","Mungo Park (teater)"
21991,54.5117,9.54139,"landmark","Gottorp Slot"
124277,55.6839,12.576,"landmark","Gothersgade"
112325,55.6257,12.5755,"landmark","World Trade Center (København)"
138785,55.5375,10.4825,"landmark","Hofmansgave"
138860,56.1447,10.1814,"landmark","Langenæshus"
138863,56.2339,8.20083,"landmark","Vedersø Kirke"
138895,55.5639,12.275,"landmark","Mosede Fort"
112421,54.3306,8.78056,"city","Garding"
124322,55.5355,10.6734,"landmark","Stubberup Kirke"
124352,55.6758,12.3006,"landmark","Snubbekorset"
112452,55.6739,12.5136,"landmark","Solbjerg Parkkirkegård"
112455,55.6608,12.5329,"landmark","Vestre Katolske Kirkegård"
138909,50.2972,15.7403,"landmark","Slaget ved Königgrätz"
22547,55.6767,12.5833,"landmark","Holmens Kirke"
124394,55.3509,11.1899,"landmark","Tårnborg Kirke"
112456,54.6531,8.355,"city","Nebel (Amrum)"
138917,49.0167,8.4,"city","Karlsruhe"
124447,55.5958,12.6361,"landmark","Store Magleby Kirke"
22576,56.3333,10.3308,"landmark","Rosenholm Slot"
112522,55.7751,12.5442,"landmark","Fortunen"
112549,55.7833,12.5333,"city","Hjortekær"
124461,56.1708,10.1889,"landmark","Storcenter Nord"
112559,54.7931,9.42528,"landmark","Duborg Slot"
124462,55.6649,12.3992,"landmark","Glostrup Storcenter"
124478,55.7518,12.3178,"landmark","Måløv Kirke"
124574,55.674,12.537,"landmark","Betty Nansen Teatret"
22640,56.0195,12.5053,"landmark","Gurre Slot"
112567,54.75,9.9,"city","Gelting"
139037,55.4964,10.0261,"landmark","Holsegaard"
112569,56.119,12.2382,"landmark","Smidstrup Strandkirke"
124621,55.9272,9.68139,"landmark","Nim Kirke"
139047,55.658,11.4972,"landmark","Efterskolen Smededal"
139050,55.6417,12.1,"landmark","RO's Torv"
139053,55.4781,9.98028,"landmark","Kærsgård (Brenderup Sogn)"
124772,55.5778,12.2749,"landmark","Mosede Kirke"
139062,51.28,1.08,"","Canterbury"
124783,55.5349,8.47731,"landmark","Bryndum Kirke"
112575,54.5806,9.50833,"city","Isted"
124824,54.5667,8.55,"isle","Hoge"
139298,55.56,10.205,"landmark","Jerstrup"
139321,55.7656,12.5269,"landmark","Garderhøj Fort"
124894,55.5321,12.2212,"landmark","Solrød Strandkirke"
139403,55.7,9.66667,"waterbody","Vejle Fjord"
112591,54.45,9.33333,"city","Hollingsted"
139405,55.4167,8.38333,"landmark","Rindby"
139550,55.5553,10.1689,"landmark","Sandagergård"
112594,56.2795,9.12028,"airport","Flyvestation Karup"
139559,55.3092,10.1192,"landmark","Krengerup"
112656,59.6167,17.7167,"city","Sigtuna"
124913,56.2081,9.01222,"landmark","Sunds Kirke"
139628,55.5025,9.42444,"landmark","Harteværket"
124970,55.6636,12.5367,"landmark","Station Hof"
112657,54.5497,8.81222,"isle","Nordstrand Mor"
125054,56.5547,10.1792,"landmark","Gjessinggård"
112679,54.6333,8.6,"isle","Langenæs (Slesvig)"
125063,55.6758,12.5322,"landmark","Riddersalen"
112681,40.8075,-73.9619,"edu","Columbia University"
139767,55.3122,10.0522,"landmark","Brahesholm"
125076,56.0146,11.9657,"landmark","Ishuset i Liseleje"
139769,55.2789,10.1283,"landmark","Søholm (Køng Sogn)"
112683,54.6792,8.7,"isle","Oland"
125111,55.8964,9.96806,"landmark","Tyrrestrup"
139773,56.1439,10.1803,"landmark","Langenæsbo"
139774,56.1433,10.1797,"landmark","Plejehjemmet Langenæsbo"
125120,27.9708,-82.4647,"","Tampa"
125126,56.2086,9.66444,"","Sminge Kloster"
125142,55.6667,12.5825,"landmark","Admiralens Gaard"
125158,56.4444,10.1514,"","Essenbæk Kloster"
125161,56.2511,10.2147,"landmark","Skårupgård (Todbjerg Sogn)"
125167,55.9542,10.105,"landmark","Lundhof"
112699,54.4667,10,"city","Nør"
125178,56.2715,10.1533,"landmark","Thomasminde"
125185,56.1116,9.87917,"landmark","Sophiendal"
125195,55.1722,9.475,"waterbody","Slivsø"
112721,54.5,9.31667,"city","Treja"
125196,56.1117,9.88111,"landmark","Veng Kloster"
125203,55.3807,11.6208,"landmark","Frimenigheden Kilden"
23101,55.6738,12.5822,"landmark","Det Kongelige Bibliotek"
125252,56.5644,10.275,"landmark","Holbækgård"
125278,56.3342,10.7239,"landmark","Bjørnholm"
125283,51.5219,-0.0716667,"","Brick Lane"
125304,56.3261,10.7175,"landmark","Høegholm"
140024,58.1042,7.28889,"city","Lindesnes kommune"
125319,55.9432,9.75744,"landmark","Julianelyst"
125433,55.9481,9.77611,"landmark","Urup"
140062,55.4328,10.2008,"landmark","Langesø (Vigerslev Sogn)"
112723,54.5667,9.75,"city","Ulsnæs"
140070,55.4675,10.2292,"landmark","Margård"
125440,56.0129,9.96522,"","Ringkloster"
112872,55.0458,8.44583,"isle","Albuen (Sild)"
140095,58.1383,7.06917,"city","Lyngdal"
125446,55.6764,12.5663,"landmark","Dagmarteatret"
140096,55.2747,10.2419,"landmark","Lundegård (Nørre Broby Sogn)"
125452,55.8719,9.925,"landmark","Stensballegård"
140104,55.1858,10.0844,"landmark","Løgismose"
125472,55.9016,9.92292,"landmark","Serridslevgård"
23102,55.6758,12.5789,"landmark","Christiansborg"
140122,55.5075,10.0256,"landmark","Oregaard"
112914,56.193,10.1112,"landmark","Tilst Kirke"
125484,55.9721,10.1682,"landmark","Odder Gymnasium"
112949,56.1153,8.51278,"landmark","Brejninggaard"
140139,58.0297,7.45417,"city","Mandal"
23103,55.6802,12.5871,"landmark","Det Kongelige Danske Kunstakademi"
140154,55.3139,11.1806,"forest","Korsør Skov"
140160,55.4447,10.1225,"landmark","Rugård (Veflinge Sogn)"
140200,46.4311,8.66361,"city","Mogno"
140234,55.1928,10.2767,"landmark","Sandholt"
112999,55,8.43333,"city","List"
140254,55.2553,10.03,"landmark","Skovgaarde"
125567,55.7424,12.4896,"landmark","Gladsaxe Ny Teater"
140288,55.3673,9.82012,"landmark","Wedellsborg"
125570,55.6749,12.534,"landmark","ABC Teatret"
140299,55.5239,10.4189,"landmark","Ørritslevgård"
23128,55.6286,12.6492,"airport","Københavns Lufthavn"
140325,55.4944,10.4189,"landmark","Østrupgård (Østrup Sogn)"
113052,56.05,12.3167,"landmark","Saltrup"
140338,55.3628,10.3739,"landmark","Dalum Kloster"
113105,79,17,"isle","Spitsbergen"
140349,49.7969,12.6347,"city","Tachov"
125607,56.1294,9.0275,"landmark","Aarhus Universitet, Handels- og IngeniørHøjskolen"
125615,55.9847,9.85722,"landmark","Tammestrup"
140353,55.2628,12.4136,"landmark","Stevnsfortet"
113154,56.2091,10.1311,"landmark","Kasted Kirke"
140411,55.1194,9.46667,"isle","Kalvø (Genner Bugt)"
125619,35.5,12.6,"isle","Lampedusa"
23194,59.3217,17.8861,"landmark","Drottningholm Slot"
125759,56.0667,9.625,"waterbody","Salten Langsø"
125769,55.8883,9.83306,"landmark","Hanstedgård"
23365,56.05,12.7,"city","Helsingborg"
125784,55.9503,9.82381,"landmark","Lillerup"
125786,56.0039,10.0299,"landmark","Lethenborg"
125803,55.9456,9.87639,"landmark","St. Borupgård"
140532,56.1417,10.0722,"waterbody","Årslev Engsø"
140541,58.2333,7.48333,"city","Marnardal"
140557,58.6628,6.71694,"city","Sirdal"
140568,55.55,9.425,"waterbody","Donssøerne"
125806,49.1831,-0.369444,"city","Caen"
141117,52.5211,13.1853,"landmark","Spandau-fængslet"
125828,54.88,10.4017,"city","Tivoli (Ærø)"
141158,57.8292,11.9036,"waterbody","Nordre älv"
141170,55.7172,37.6114,"landmark","Sjukhovtårnet"
126085,49.6333,11.2333,"city","Gräfenberg"
141176,55.2822,12.45,"landmark","Stevns Klint"
126146,55.3072,12.0067,"landmark","Bregentved"
141224,56.1612,10.2125,"landmark","Arkitektskolen Aarhus"
126166,55.76,11.7,"isle","Tuse Næs"
23621,55.6217,12.0767,"landmark","Roskilde Festival"
126236,46.2358,15.2675,"city","Celje"
113179,56.1743,10.2025,"landmark","Rytterfægtningen ved Århus"
113258,56.0086,12.5897,"landmark","Skotterup"
126287,55.6808,12.5762,"landmark","Café Teatret"
23766,61.7667,-6.83333,"isle","Skúvoy"
126303,33.6678,-93.59,"city","Hope (Arkansas)"
126327,55.3458,11.99,"landmark","Sofiedal (Terslev Sogn)"
126341,55.3769,11.88,"landmark","Eskilstrup (Sneslev Sogn)"
126389,55.4921,11.9553,"landmark","Svenstrup (Borup Sogn)"
23790,56.0333,14.15,"city","Kristianstad"
126406,55.5468,12.097,"landmark","Risbyholm"
23805,55.375,13.15,"city","Trelleborg (Sverige)"
141340,55.279,12.4427,"landmark","Stevns Museum"
126430,55.7056,12.5611,"landmark","Taksigelseskirken"
126457,55.4595,12.1655,"landmark","Gammel Køgegård"
23880,62.1333,-7,"isle","Streymoy"
126461,56.522,10.2683,"landmark","Voer Kirke (Norddjurs Kommune)"
141452,55.679,12.5881,"landmark","Forfatterskolen"
141527,55.2556,12.1228,"landmark","Geomuseum Faxe"
141540,55.2583,12.1292,"landmark","Faxe Kalkbrud"
23881,50.0358,19.1783,"landmark","Auschwitz"
126466,55.4176,11.9364,"landmark","Giesegård"
141600,55.6788,12.567,"landmark","Farmakonomforeningen"
24327,-54.4333,3.4,"isle","Bouvetøen"
126479,56.5734,10.2987,"landmark","Udby Kirke (Norddjurs Kommune)"
24329,-68.8333,-90.5833,"isle","Peter I's Ø"
141601,55.9216,12.2973,"landmark","Pharmakon - Danish College of Pharmacy Practice"
24337,59.9913,29.7736,"landmark","Kronstadt (Rusland)"
141619,55.3819,10.4453,"landmark","Blangstedgaard"
141621,55.2156,10.4492,"landmark","Boltinggaard"
113463,55.6706,12.5717,"landmark","Københavns Politigård"
24409,54.9833,10.6,"isle","Tåsinge"
141628,55.6575,12.6094,"landmark","Amager Bio"
24410,55.0473,10.6028,"landmark","Svendborgsundbroen"
24417,55.6813,12.5754,"landmark","Regenskirken"
126495,56.4984,10.3385,"landmark","Ørsted Kirke (Norddjurs Kommune)"
141648,55.6808,12.5736,"landmark","Københavns Hovedbibliotek"
141666,55.3217,10.3978,"landmark","Bramstrup (Nørre Lyndelse Sogn)"
141699,55.2847,10.5733,"landmark","Hellerup (Ringe)"
141730,55.3475,10.6642,"landmark","Hindemae"
126521,55.4614,11.8789,"landmark","Rosengård"
141735,56.9981,10.3111,"landmark","Hals Kirke"
126535,55.47,12.1114,"landmark","Lellingegård"
126544,55.4597,11.8228,"landmark","Kærup (Benløse Sogn)"
141818,55.4516,11.5558,"landmark","Pedersborg Kirke"
126547,56.8861,9.25417,"waterbody","Vilsted Sø"
141833,55.4794,10.6994,"landmark","Hverringe"
141840,55.475,10.6789,"landmark","Broløkke (Viby Sogn)"
24749,55.6061,12.3875,"landmark","Arken"
141844,55.5428,10.6878,"landmark","Bøgebjerg (Viby Sogn)"
141879,55.3414,10.7639,"landmark","Juelsberg"
24808,63.88,-22.4481,"waterbody","Blå Lagune"
126596,55.4672,11.7517,"landmark","Lille Svenstrup"
141891,55.3003,10.6875,"landmark","Juulskov"
141935,55.415,10.5111,"landmark","Klarskov (Marslev Sogn)"
126734,57.1497,9.70278,"landmark","Birkelse Hovedgård"
113687,55.8667,12.4833,"","Helsingørmotorvejen"
113697,55.5599,8.07444,"landmark","Blåvands Huk"
24958,55.55,14.35,"city","Simrishamn"
126848,57.4508,10.5798,"isle","Deget"
113700,56.0175,11.9922,"landmark","Melbylejren"
24961,56.2417,12.8667,"city","Ängelholm"
142021,55.51,8.55722,"landmark","Skads Kirke"
142043,55.8563,11.9742,"landmark","Jægerspris Slot"
142134,55.6105,11.3729,"landmark","Kattrup Gods"
25275,56.0483,12.6975,"landmark","Kernen"
126888,54.7744,8.97361,"city","Læk"
113718,56.3892,8.5788,"landmark","Team Tvis Holstebro"
113732,55.4184,10.3531,"landmark","Næsby Kirke (Odense Kommune)"
126944,55.6944,12.5718,"landmark","Fredens Kirke (Københavns Kommune)"
126946,55.6973,12.5752,"landmark","Nazaret Kirke"
142183,55.0606,15.1322,"landmark","Nexø Kirke"
142185,55.22,10.5222,"landmark","Krumstrup"
25349,34,-112,"country","Arizona"
25594,56.1392,10.0764,"landmark","Constantinsborg"
127080,55.676,12.5738,"landmark","Vandkunsten"
127087,55.4547,11.6719,"landmark","Mørup (Fjenneslev Sogn)"
25612,56.0281,10.1553,"landmark","Østergård (Tulstrup Sogn)"
142193,76.7587,-18.6074,"","Danmark-ekspeditionen"
113765,54.54,13.0928,"city","Hiddensee"
127094,55.6936,12.5535,"landmark","Simeons Kirke"
127097,55.4372,11.6075,"landmark","Store Ladegård"
25865,19.75,-72.2,"city","Cap-Haïtien"
142195,55.2517,10.5211,"landmark","Tøjstrup (Ryslinge Sogn)"
142203,55.85,10,"waterbody","Horsens Fjord"
113832,55.3833,10.6833,"landmark","Langtved (Flødstrup Sogn)"
113924,56.0067,11.9872,"landmark","Asserbo"
25888,51.7167,-5.05,"city","Milford Haven"
113966,57.4833,9.91667,"landmark","Gårestrup"
127124,55.4786,11.4786,"landmark","Ødemark (Bromme Sogn)"
113969,55.4282,10.4063,"landmark","Fynsværket"
142210,54.8828,11.0281,"landmark","Tårs (Lolland Kommune)"
127178,55.7113,12.5781,"landmark","Sions Kirke"
25917,26.1833,31.9167,"","Abydos"
114042,56.1871,10.01,"landmark","Borum Kirke"
25920,53.7536,-2.37222,"","Accrington"
127188,55.8833,11.15,"isle","Sejerø"
114112,56.2833,12.485,"city","Mölle"
25935,46.1953,10.6244,"mountain","Adamello"
25958,43,15,"isle","Adriaterhavet"
127285,71.1844,25.6739,"landmark","Knivskjellodden"
25962,30.4167,-9.58333,"city","Agadir"
127349,56.1339,8.90556,"landmark","Snejbjerg Kirke"
114183,55.6711,12.51,"landmark","Søndermark Kirkegård"
25968,55.5968,10.3388,"isle","Agernæs (Krogsbølle Sogn)"
127429,57.0686,8.93781,"landmark","Thylejren"
114210,55.6488,12.5949,"landmark","Solvang Kirke"
25969,55.2167,11.1833,"isle","Agersø"
114217,55.6815,12.5817,"landmark","Jazzhus Montmartre"
25971,56.7167,8.56667,"isle","Agerø"
25972,57,9.3,"waterbody","Aggersund"
127445,55.4928,9.52703,"waterbody","Kolding Fjord"
142466,55.26,10.4822,"landmark","Lammehave (Ringe Sogn)"
142472,55.3422,10.4225,"landmark","Lindved (herregård)"
142473,54.6602,11.7343,"landmark","Nysted Efterskole"
25979,65.8833,-52.1167,"mountain","Agssaussat"
114394,56.8933,9.08611,"landmark","Livø"
142542,55.4406,10.6733,"landmark","Lundsgård (Revninge Sogn)"
25980,-34.8167,20,"landmark","Kap Agulhas"
142874,55.255,10.4286,"landmark","Nordskov (Gestelev Sogn)"
142875,54.9333,11.3667,"landmark","Vesterby (Fejø)"
142878,54.9161,11.3528,"city","Kragenæs"
142885,55.2608,10.5817,"landmark","Ravnholt (Herrested Sogn)"
143060,55.4106,10.7128,"landmark","Risinge"
26031,37.3122,13.5781,"city","Agrigento (by)"
127644,55.4422,11.4628,"landmark","Store Frederikslund"
26041,54.9069,9.7839,"landmark","Sønderborg Slot"
127654,55.4261,11.3056,"landmark","Valbygård"
26065,54.8514,11.0556,"isle","Vejlø (Nakskov Fjord)"
143131,55.2547,10.4528,"landmark","Rynkebygård"
114472,54.6392,9.77306,"city","Sønder Brarup"
143311,55.4047,10.6703,"landmark","Rørbæk (Flødstrup Sogn)"
143318,55.3531,10.5328,"landmark","Sanderumgård"
143338,55.5353,10.6469,"landmark","Scheelenborg"
26148,56.0681,10.1892,"landmark","Vilhelmsborg"
127678,57.0434,9.93164,"landmark","Karolinelund"
143341,55.5683,10.6406,"landmark","Brockdorff (hovedgård)"
114565,56.0231,12.2056,"landmark","Helsinge Station"
127706,55.2745,11.8374,"landmark","Holmegaard Gods"
143458,55.6992,12.5772,"landmark","Trianglen (København)"
114566,55.9975,12.2858,"landmark","Kagerup Station"
114610,55.5162,10.561,"isle","Enebærodde"
114633,56.1533,9.52535,"landmark","Silkeborg Bad"
127805,55.6982,12.5495,"landmark","Samuels Kirke"
114675,56.4431,10.6781,"landmark","Ørum Kirke (Norddjurs Kommune)"
143649,55.8597,10.0658,"isle","Alrø"
127810,55.6385,11.9382,"landmark","Lindholm (Gevninge Sogn)"
114698,56.174,10.1221,"landmark","Skjoldhøj Kirke"
114751,56.1858,9.35442,"landmark","Klosterlund museum"
127817,55.4351,10.314,"landmark","Næsbyhoved-Broby Kirke"
127828,55.7411,12.0107,"landmark","Selsø"
114938,-7.53333,110.433,"mountain","Merapi"
143670,49.6667,8.61667,"city","Bensheim"
143676,55.6807,11.0817,"landmark","Adelgade (Kalundborg)"
127938,56.042,12.6019,"landmark","Marienlyst Slot"
143707,55.6773,12.573,"landmark","Domhuset i København"
114941,55.8726,12.3999,"landmark","Center Sandholm"
127944,49.8167,12.5667,"city","Halže"
114942,56.1747,8.82944,"landmark","Nøvlingskov Efterskole"
143708,55.1654,11.9305,"landmark","Snesere Kirke"
26225,55.6814,12.5758,"landmark","Rundetårn"
26237,55.9078,12.6962,"landmark","Uranienborg"
127949,55.6967,12.5446,"landmark","Sankt Stefans Kirke"
128063,55.9083,13.2619,"landmark","Trolleholm slot"
143841,55.6,11.3667,"landmark","Kuserup"
143881,55.3922,10.5442,"landmark","Sellebjerg (hovedgård)"
115197,63.55,10.4667,"waterbody","Trondheimsfjorden"
143889,55.3931,10.6325,"landmark","Skovsbo (Rynkeby Sogn)"
26282,55.7333,12.2667,"landmark","Smørum"
143903,55.6957,12.5331,"landmark","Bispeengbuen"
143926,55.4228,10.5694,"landmark","Ulriksholm"
115360,71.1656,25.7992,"","Nordkap kommune"
128224,55.8877,9.73703,"landmark","Tamdrup Bisgård"
128272,55.8822,9.59711,"landmark","Rask Hovedgård"
26423,55.7015,12.5756,"landmark","Brumleby"
26426,56.4505,9.41233,"landmark","Viborg Domkirke"
115425,55.6828,12.59,"landmark","Odd Fellow Palæet"
26544,56.4475,9.41194,"landmark","Viborg Tugthus"
128408,55.9794,13.1347,"landmark","Knutstorp borg"
128438,67,37,"","Kolahalvøen"
128460,56.0517,9.58689,"landmark","Løndal"
128486,56.0881,9.70472,"landmark","Rye Nørskov"
128533,56.0517,9.6075,"landmark","Addithus"
128561,56.0044,9.68083,"landmark","Vissinggård"
26615,55.6765,12.5807,"landmark","Blåtårn (Københavns Slot)"
128572,55.6801,12.4981,"landmark","Frederiksberg Idrætspark"
128574,55.757,12.527,"landmark","Gentofte Stadion"
26617,54.9069,9.7839,"landmark","Blåtårn (Sønderborg Slot)"
128575,55.6774,12.4936,"landmark","KB's anlæg"
144014,62.4422,-114.397,"airport","Yellowknife"
128576,55.7308,12.5486,"landmark","B 1903's anlæg"
26701,55.3987,10.3909,"landmark","H.C. Andersens Hus"
144018,55.3753,10.5211,"landmark","Vejrupgård"
26725,55.6792,12.5867,"","Stærekassen"
144030,57.0417,9.95528,"landmark","Vejgaard Kirke"
128578,55.6764,12.4972,"landmark","Frederiksberg-Hallerne"
144056,57.0558,9.89167,"landmark","Vesterkær Kirke"
128710,55.6843,12.5417,"landmark","Sankt Thomas Kirke"
144097,57.0497,9.90639,"landmark","Vor Frelsers Kirke (Aalborg Kommune)"
128735,55.7464,10.0236,"landmark","Palsgård"
144107,55.2453,10.6694,"landmark","Ørbæklunde"
128749,56.1,9.7,"forest","Rye Nørreskov"
128751,55.5462,10.2694,"landmark","Nørre Højrup Kirke"
144236,55.6029,12.5878,"landmark","Skelgårdskirken"
144253,55.4261,10.5383,"landmark","Østergård (Munkebo Sogn)"
144263,55.0303,10.5042,"landmark","Lehnskov"
128756,56.0914,9.75278,"landmark","Rye Mølle"
26773,55.3658,10.3842,"landmark","Den Fynske Landsby"
128758,55.5733,10.2835,"landmark","Nørre Næraa Kirke"
26775,55.3945,10.3873,"landmark","H.C. Andersens Barndomshjem"
128816,55.9878,9.57699,"landmark","Rodvigsballe"
144279,70.2,23.1,"waterbody","Altafjord"
144280,55.2203,10.7256,"landmark","Anhof"
128849,55.8382,11.552,"landmark","Den Rytmiske Højskole"
26779,54.8833,10.3333,"isle","Ærø"
144324,55.5097,13.55,"city","Slimminge"
26790,55.3954,10.3892,"landmark","Sankt Knuds Kirke (Odense)"
144426,55.8963,11.6106,"landmark","Sommerland Sjælland"
128885,55.0224,10.6537,"landmark","Valdemars Slot"
144475,55.4261,10.6022,"landmark","Kejrup"
26794,54.8833,10.4,"city","Ærøskøbing"
144505,55.1247,10.4492,"landmark","Langeskov (Hundstrup Sogn)"
128905,48.1386,11.5731,"landmark","Frauenkirche (München)"
26928,55.9103,10.1061,"landmark","Åkær (Hads Herred)"
115571,55.7771,12.5704,"landmark","Kirsten Piils Kilde"
26941,55.4029,10.3863,"landmark","Danmarks Jernbanemuseum"
128927,57.1767,10.3322,"city","Ørsø"
115664,57.5664,10.2833,"landmark","Sørig Kirke"
115682,54.7817,9.54361,"landmark","Ryd Kloster"
128978,55.48,13.9864,"landmark","Tosterup slot"
27099,56.0871,10.2262,"landmark","Moesgård"
27152,55.9144,10.2335,"","Gersdorffslund"
27154,55.9183,10.1625,"landmark","Dybvad Gods"
115783,57.0771,9.91243,"landmark","Lindholm Høje"
115785,56.1996,10.4441,"landmark","Tved Kirke (Syddjurs Kommune)"
129061,55.6924,12.5592,"landmark","Det frie Gymnasium"
115811,55.8919,9.73833,"landmark","Tamdrup Kirke"
115828,56.2473,10.0461,"landmark","Friskolen i Hinnerup"
115832,54.4653,8.72639,"isle","Sydfald"
129067,55.5653,13.2086,"landmark","Torup slot"
27371,52.3269,9.80917,"landmark","CeBIT"
115838,57.7397,10.6339,"landmark","Grenen Kunstmuseum"
144735,55.3475,9.95111,"landmark","Billeskov"
144746,54.9447,10.7819,"landmark","Biskopstorp (Simmerbølle Sogn)"
115839,57.7249,10.5983,"landmark","Brøndums Hotel"
27380,55.9647,10.125,"landmark","Rathlousdal"
129075,55.5803,13.4283,"landmark","Häckeberga slot"
144771,55.3319,10.6703,"landmark","Biskopstorp (Skellerup Sogn)"
144785,55.1258,10.3914,"landmark","Brændegård"
27429,55.7712,11.6297,"landmark","Lammefjorden"
144936,54.7814,10.735,"landmark","Nordenbrogård"
27572,21.2167,-86.7167,"isle","Isla Mujeres"
144940,54.8058,10.7214,"landmark","Lykkesholm (Tryggelev Sogn)"
144946,54.9169,10.8061,"landmark","Møllegård (Longelse Sogn)"
129105,55.9239,9.54056,"city","Mattrup"
129106,54.85,10.4167,"landmark","Lille Rise"
129144,56.0801,9.63089,"landmark","Højkol"
129148,55.4957,8.48618,"landmark","Kvaglund Kirke"
144966,8.73333,167.717,"","Kwajalein"
144977,54.6656,11.7372,"landmark","Nysted franciskanerkloster"
144987,55.6137,12.6303,"landmark","Flyvergrillen"
129160,55.6493,12.0757,"landmark","Sankt Jørgensbjerg Kirke"
27852,61.6333,-6.70833,"isle","Lítla Dímun"
145022,55.5089,10.3853,"landmark","Nislevgård"
129206,55.8333,11.8,"waterbody","Isefjorden"
145054,55.3406,9.90917,"landmark","Orelund (Sandager Sogn)"
27883,54.9056,10.6083,"isle","Strynø"
145056,55.4325,9.79472,"landmark","Sparretorn"
129255,55.6474,12.6168,"landmark","Alhambra (cyklistpavillon)"
27885,56.2819,10.1008,"landmark","Haraldslund"
129355,56.0844,9.57383,"landmark","Løvenholt"
145062,55.3997,9.86556,"landmark","Tybrind"
145079,55.5342,10.3042,"landmark","Uggerslevgård"
129371,55.6366,12.5731,"landmark","Royal Golf Center"
129375,55.8464,9.475,"landmark","Stougård"
129451,55.8344,9.68417,"landmark","Merringgaard"
145144,55.2792,10.3031,"landmark","Vejlegård"
145150,55.2467,10.3072,"landmark","Ølsted (Sønder Broby Sogn)"
129491,55.4667,11.8,"landmark","Benløse"
145176,55.4211,10.4042,"landmark","Marienlund (Fredens Sogn)"
145188,55.7,11.0333,"landmark","Nyrup (Kalundborg)"
27921,54.6667,11.7333,"city","Nysted"
129504,55.3816,10.3921,"city","Hunderup (Odense)"
145225,57.0325,9.98194,"landmark","Nørre Tranders Kirke"
129505,55.6745,12.5448,"landmark","Alhambra (forlystelseshave)"
129515,55.8028,10.0308,"landmark","Jensgård"
129529,55.7419,9.87611,"landmark","Skerrildgaard"
129558,55.706,9.91722,"","Barritskov"
129569,55.6711,9.82417,"landmark","Rosenvold"
145252,57.0142,9.88667,"landmark","Skalborg Kirke"
115925,48.2456,12.5228,"city","Mühldorf am Inn"
129588,55.7031,9.73667,"landmark","Rohden"
145263,55.0707,14.9191,"landmark","Aa Kirke"
129602,55.6422,12.0795,"landmark","Roskilde Gymnasium"
28103,54.9167,10.75,"isle","Langeland"
129604,55.4914,14.0458,"landmark","Bollerup borg"
129605,55.7333,9.74806,"landmark","Ørumgård"
145300,53.5167,8.13333,"city","Wilhelmshaven"
129623,55.7339,9.71833,"landmark","Williamsborg"
129661,55.7133,9.63722,"landmark","Tirsbæk"
129663,54.5017,11.2278,"landmark","Puttgarden"
115931,53.85,13.6833,"city","Anklam"
129726,55.7336,9.54722,"landmark","Store Grundet"
28227,55.3833,10.4261,"landmark","Rosengårdcentret"
129730,55.7336,9.54722,"landmark","Øster Grundet"
28229,55.6303,12.5778,"landmark","Field's"
129738,55.7914,9.59694,"landmark","Agersbøl"
28233,55.6436,12.2775,"landmark","City 2"
129765,55.7938,9.91214,"landmark","Møgelkær"
145318,69.9678,23.2497,"","Alta (Norge)"
129770,55.8375,9.89667,"landmark","Boller"
129852,55.7708,9.47167,"landmark","Brandbjerg"
145444,54.8544,10.6989,"landmark","Vestergaard"
115935,50.6872,10.9142,"city","Ilmenau"
145467,54.7358,10.6819,"landmark","Søgaard"
28258,55.6747,12.5747,"landmark","Nationalmuseet"
129905,56.2619,12.53,"landmark","Krapperup slot"
145480,65.75,14,"waterbody","Røssvatnet"
130066,55.7444,9.49111,"landmark","Lerbæk (Hover Sogn)"
28301,56.1489,10.2047,"landmark","Bruun's Galleri"
145490,60.3903,10.3942,"waterbody","Randsfjorden"
130149,55.6722,12.4903,"landmark","Aalholm Kirke"
145523,55.6093,12.0982,"landmark","Vor Frue Kirke (Vor Frue)"
115947,55.225,14.897,"landmark","Helligdomsklipperne"
130234,55.6662,12.5043,"landmark","Timotheus Kirke"
145543,60.0333,10.1333,"waterbody","Tyrifjorden"
130243,55.716,9.3184,"landmark","Engelsholm Slot"
28526,51.45,-0.966667,"city","Reading (England)"
115968,56.45,9.71667,"landmark","Løvskal"
145668,55.2069,10.3731,"landmark","Nybøllegård (Hillerslev Sogn)"
145679,55.1961,10.3583,"landmark","Lykkenssæde"
115985,54.35,8.83333,"isle","Landskabet Ejdersted"
130270,54.8972,10.425,"isle","Dejrø"
145968,55.6827,11.1014,"landmark","Nyvangs Kirke"
130294,55.6588,12.4893,"landmark","Vigerslev Kirke (Københavns Kommune)"
146214,55,9.95,"landmark","Helved"
115987,54.3172,8.94278,"city","Tønning (Slesvig)"
28658,56.3,10.6189,"airport","Aarhus Lufthavn"
130494,55.685,9.37611,"landmark","Kjeldkær"
116108,52.6411,9.20694,"city","Nienburg"
146345,55.6501,12.0789,"landmark","Vikingeskibsmuseet"
130526,55.6194,9.71528,"landmark","Nebbegård"
130538,54.8806,10.4331,"isle","Lilleø (Sydfynske Øhav)"
146454,54.8817,11.1122,"landmark","Asserstrup"
130547,55.2376,9.25435,"airport","Flyvestation Skrydstrup"
130571,55.6022,9.685,"landmark","Østedgaard"
146479,54.9042,11.0414,"landmark","Frederiksdal (Sandby Sogn)"
146482,54.8936,11.0353,"landmark","Stensgård (Sandby Sogn)"
146504,54.8214,11.6656,"landmark","Berritzgård"
146514,54.7295,11.6603,"landmark","Bramsløkke"
130585,55.2475,9.49,"landmark","Hertug Hans Hospitalskirke"
146521,45.2333,12.2833,"city","Chioggia"
28674,55.6738,12.5779,"landmark","Frederiksholms Kanal"
130607,55.6467,12.5281,"landmark","Sjælør Kirke"
28885,55.7854,12.3767,"landmark","Museet for Kajs Avis"
146573,54.6814,11.5247,"landmark","Bremersvold"
146584,54.7703,11.2261,"landmark","Bådesgård"
130628,55.7458,12.5872,"landmark","Charlottenlund Fort"
146624,54.7567,11.3553,"landmark","Christianssæde"
28890,55.7859,12.376,"landmark","Værløse Kirke"
146632,54.73,11.3903,"landmark","Dansted"
130761,55.6964,9.51583,"landmark","Pedersholm"
28891,80.8257,-66.4545,"isle","Hans Ø"
146672,55.5841,11.327,"landmark","Selchausdal"
116114,49.9747,6.52556,"city","Bitburg"
146706,54.955,9.425,"landmark","Ny-Hedeby Spejdercenter"
130764,56.0658,12.9744,"landmark","Billesholm borgruin"
29083,55.7589,12.5539,"landmark","Bernstorff Slot"
130780,56.2554,9.68033,"landmark","Tvilumgård"
29177,55.6622,12.5622,"landmark","Fisketorvet"
130788,56.1092,12.6297,"landmark","Kulla Gunnarstorp slot"
29276,57.7444,10.6481,"landmark","Grenen"
29293,21.4,39.8333,"city","Mekka"
146858,54.7625,11.5622,"landmark","Engestofte"
29308,55.7667,12.3833,"forest","Hareskoven"
146896,54.7411,11.5389,"landmark","Søholt (Krønge Sogn)"
29310,55.7854,12.3767,"landmark","Værløse Museum"
29521,56.0394,9.69333,"landmark","Voer Kloster"
29705,56.0356,9.66833,"","Vissing Kloster"
130975,55.4797,8.43353,"landmark","Esbjerg Handelsskole"
29762,56.1539,10.1996,"landmark","ARoS Aarhus Kunstmuseum"
131004,55.6614,12.5667,"landmark","Bryggebroen"
147004,55.6922,12.552,"landmark","Nørrebrogade"
116119,55.5667,12.3,"city","Greve Strand"
147070,55.7317,12.5592,"landmark","Hellerup Kirkegård"
131133,56.2659,9.92445,"landmark","Jernit (avlsgård)"
131144,56.1508,9.77917,"landmark","Kalbygård"
131192,56.2281,9.63167,"landmark","Grauballegård"
116147,54.6667,9.4,"city","Tarp (Slesvig)"
131206,56.4817,10.0722,"landmark","Dronningborg (gods)"
116181,56.1667,10.2003,"landmark","Institut for Matematiske Fag (Aarhus Universitet)"
147092,56.5992,9.99694,"landmark","Kjellerup Hovedgård"
147182,55.4773,9.13992,"landmark","Vejen Kunstmuseum"
147328,56.1605,10.2032,"landmark","Elise Smiths Skole"
29829,55.6757,12.594,"landmark","Wilders Plads"
147379,37.8629,-85.8108,"landmark","Fort Knox (gulddepot)"
147501,56.1564,10.163,"landmark","Dansk Plakatmuseum"
116215,54.5444,9.82222,"city","Risby (Slesvig)"
29973,55.4192,11.5697,"landmark","Sorø Station"
147667,54.8097,11.0989,"landmark","Fredsholm"
30045,40.2167,26.4333,"waterbody","Dardanellerne"
147683,54.7219,11.7977,"landmark","Fuglsang (Toreby Sogn)"
147691,54.7956,11.8689,"landmark","Gammel Kirstineberg"
30048,41.15,29.0667,"waterbody","Bosporus"
147701,54.79,11.8519,"landmark","Ny Kirstineberg"
131306,56.5022,10.2022,"landmark","Støvringgård"
147750,55.675,12.5686,"landmark","H.C. Andersen Slottet"
131318,56.3972,10.1897,"landmark","Tustrup (Hørning Sogn)"
30316,55.9025,12.5194,"landmark","Kokkedal Slot (Nordsjælland)"
147795,54.7875,11.2897,"landmark","Gammelgaard (Ryde Sogn)"
147798,54.6481,11.8822,"landmark","Gjedsergaard"
131337,55.6472,8.59722,"waterbody","Karlsgårde Sø"
30318,55.6736,12.5997,"landmark","Christiania"
147809,54.7692,11.0308,"landmark","Gottesgabe"
147823,54.9353,11.1933,"landmark","Vintersborg"
131350,56.4382,10.344,"","Gammel Estrup"
116244,52.7544,13.2369,"city","Oranienburg"
147866,54.6865,11.3275,"landmark","Lidsø"
147902,54.8467,11.2253,"landmark","Halsted Kloster"
131362,55.6411,12.5511,"bridge","Sjællandsbroen"
131364,55.699,12.5501,"landmark","Rådmandsgade Skole"
116396,56.7352,9.38272,"landmark","Lerkenfeldt"
131374,55.6477,12.083,"landmark","Sankt Ibs Kirke (Roskilde Kommune)"
131450,55.6412,12.0801,"landmark","Sankt Laurentii Kirkeruin"
147922,51.5942,11.4547,"city","Mansfeld"
148203,17.75,-64.75,"city","Christiansted"
30415,57.5,18.55,"isle","Gotland"
116397,54.7186,9.67194,"city","Sørup (Slesvig)"
148257,54.8019,11.8108,"landmark","Pandebjerg"
131581,55.0333,10.2389,"waterbody","Hovedsø"
148273,54.76,11.9522,"landmark","Orupgård"
30497,51.2667,30.2167,"city","Tjernobyl"
131624,55.2511,9.47733,"landmark","Sankt Severin Kirke"
30716,51.5139,-0.0983333,"landmark","Saint Paul's Cathedral"
131655,55.6629,12.6045,"landmark","Amager Centret"
131663,55.4874,8.48285,"landmark","AMU-Vest"
30728,51.51,-0.134444,"landmark","Piccadilly Circus"
131679,54.9167,10.0333,"landmark","Mommark"
30746,51.5331,-0.1785,"landmark","Abbey Road (vej)"
116420,54.7667,9.65,"city","Grumtoft"
148393,5.10333,-1.2425,"landmark","Carolusborg"
116436,55.3037,10.3958,"landmark","Nørre Lyndelse Kirke"
116442,54.6367,8.76639,"isle","Habel"
116443,56.0222,12.5625,"landmark","Danmarks Tekniske Museum"
116448,55.2876,10.3751,"landmark","Nørre Søby Kirke"
131692,54.9167,9.7,"city","Stenderup (Sønderborg Kommune)"
31233,55.1117,14.8893,"landmark","Rytterknægten"
131742,55.6811,12.5524,"landmark","Forum København"
116462,55.2716,10.3133,"landmark","Vejle Kirke"
31290,56.2175,9.93194,"landmark","Lyngballegård"
31308,56.1747,9.91619,"landmark","Wedelslund"
116484,55.8607,9.86083,"landmark","Danmarks Industrimuseum"
31318,55.7217,12.5432,"landmark","Danmarks Pædagogiske Universitetsskole, Aarhus Universitet"
148536,50.81,8.77083,"city","Marburg"
116486,55.7084,12.5254,"landmark","Tauba-moskeen"
148561,55.3801,10.0452,"landmark","Årup Kirke"
31348,55.7639,12.308,"airport","Flyvestation Værløse"
148564,55.3084,10.0492,"landmark","Vedtofte Kirke"
148601,54.8606,11.3517,"landmark","Knuthenlund"
31396,55.55,8.21667,"landmark","Ho (by)"
116526,54.7,8.56667,"city","Vyk"
31867,57.0489,9.91861,"landmark","Aalborg Kloster"
116720,54.9131,9.77889,"landmark","Alsion"
131779,55.8833,12.5433,"landmark","Rungstedlund"
131785,54.9069,9.75798,"landmark","Dybbøl Mølle"
32551,55.7167,12.5667,"city","Hellerup"
148714,56.475,9.36667,"forest","Undallslund Skov"
116777,54.4916,9.56428,"landmark","Hedeby"
33079,55.6628,12.5877,"landmark","Det Humanistiske Fakultet (Københavns Universitet)"
131875,47.4828,13.1884,"landmark","Burg Hohenwerfen"
116907,55.774,12.4984,"landmark","Lyngby Nordre Mølle"
132073,55.4666,12.0709,"landmark","Yderholm"
33202,56.0167,12.1833,"city","Helsinge"
116916,55.7738,12.4987,"landmark","Lyngby Søndre Mølle"
148760,49.3194,8.43111,"city","Speyer"
116959,54.6419,9.77194,"landmark","Torsbjerg Mose"
148767,54.8967,11.2678,"landmark","Pederstrup (Vesterborg Sogn)"
132078,54.8667,9.7,"landmark","Dynt"
33646,55.8878,11.5733,"landmark","Solvognen"
117023,36.8167,27.1,"isle","Kos"
148859,51.6597,9.63583,"city","Uslar"
148919,55.2833,10.0333,"landmark","Søllested (Assens Kommune)"
148988,56.7946,8.85289,"landmark","Dueholm Kloster"
117078,57.45,9.93333,"landmark","Krustrup"
149167,56.6315,9.82946,"landmark","Østerskov Efterskole"
33770,57.6333,18.3,"city","Visby"
149202,56.1502,10.2034,"landmark","Århus Stiftstidende"
117089,51.5194,-0.126944,"landmark","British Museum"
117309,55.2889,10.3708,"waterbody","Søby Sø"
117325,56.1589,10.1926,"landmark","Hvidtølsbryggeriet i Den Gamle By"
154702,57.1319,9.93222,"landmark","Julianeholm (Sulsted Sogn)"
149382,56.0383,14.1222,"landmark","Lillö slot"
154712,57.1792,9.93444,"landmark","Ny Vraa"
132132,55.2075,11.7142,"landmark","Næstved Sejlklub"
132164,55.5744,12.5764,"forest","Kongelunden"
154715,55.075,10.4608,"landmark","Vester Skerninge Kirke"
154716,57.0981,10.1994,"landmark","Vester Nejsig"
154724,57.0961,10.2231,"landmark","Øster Nejsig"
132237,55.9493,12.2577,"landmark","Brøckhouse"
154731,57.0917,10.2478,"landmark","Nørre Rottrup"
117330,52.15,9.95,"city","Hildesheim"
117337,55.6536,11.0798,"landmark","Lerchenborg"
149461,50.95,10.7167,"city","Gotha"
154733,56.7775,9.33786,"landmark","Farsø Sygehus"
149608,55.6667,11.7167,"landmark","Store Grandløse"
149617,55.65,11.6833,"landmark","Sønder Asmindrup"
117359,55.3702,10.4576,"landmark","Tornbjerg Kirke"
117392,55.6809,11.0794,"landmark","Kalundborg og Omegns Museum"
132370,54.8764,9.65592,"landmark","Cathrinesminde Teglværk"
149681,54.6963,11.4485,"landmark","Højbygaard"
132522,55.6983,12.5997,"landmark","Det genmodificerede Paradis"
155181,55.1402,9.34495,"landmark","Hærulfstenen"
155186,55.1022,10.5906,"landmark","Heldagergård"
132710,54.9,9.58333,"landmark","Alnor"
155195,55.157,9.35043,"landmark","Immervad Bro"
149739,54.6717,11.4594,"landmark","Lungholm"
117421,55.6557,12.6178,"landmark","Filips Kirke"
149740,34.0253,-6.83611,"city","Rabat (Marokko)"
117423,55.6808,11.082,"landmark","Bispegården (Kalundborg)"
155202,54.9521,9.35461,"landmark","Povls Bro"
117459,57.195,10.2919,"landmark","Knøsen (Dronninglund Sogn)"
155205,54.8929,9.36228,"landmark","Gejlå Bro"
155346,57.1089,10.1539,"landmark","Striben"
149775,55.6972,12.5612,"landmark","Danmarks Natur- og Lægevidenskabelige Bibliotek"
149827,55.5768,11.3542,"landmark","Nørager (Buerup Sogn)"
155460,55.7173,11.3094,"landmark","Algestrup (Føllenslev Sogn)"
155468,57.1228,9.92333,"landmark","Bjørum"
149862,54.6916,11.5262,"landmark","Kjærstrup"
155478,57.1419,9.93583,"landmark","Vang Hovedgård"
132835,53.925,9.51639,"city","Itzehoe"
132880,55.6743,12.5802,"landmark","Tøjhusmuseet"
150057,55.559,11.2113,"landmark","Ågård (Gørlev Sogn)"
132908,55.6667,11.1181,"landmark","Carmen Curlers"
