id,lat,lng,"type","title"
359843,51.5319,-0.178353,"landmark","ابی رود استویوز"
3280,41.3333,19.8,"country","آلبانی"
6962,42.5,1.51667,"country","آندورا"
6966,-8.83333,13.1667,"country","آنگولا"
353441,41.7167,13.4,"","آلاتری"
416736,33.415,-111.546,"city","آپاچی جانکشن، آریزونا"
451376,36.1667,51.5,"mountain","آزادکوه"
50824,43,40.9833,"country","آبخاز"
50886,41.7167,44.7833,"country","آجارستان"
534746,35.6747,139.732,"city","آکاساکا"
114572,36.5369,53.1125,"","آبندانکش"
146483,53.1,140.733,"","آمور"
218276,12.5167,-70.85,"country","آروبا"
225111,12.1167,-68.9333,"country","آنتیل هلند"
292207,28.65,-73.3167,"country","آنگویلا"
499904,35.7147,139.797,"","آساکوسا"
540941,38.7814,-107.951,"city","آستین، کلرادو"
540979,38.7424,-85.8046,"city","آستین، ایندیانا"
483402,32.7556,-99.8964,"city","آنسن، تگزاس"
238130,47.5372,4.50028,"landmark","آلزیا"
446533,64.8036,-51.0583,"","آتامیک"
13944,30.33,48.28,"","آبادان"
18800,31.18,52.67,"","آباده"
18801,30.7,49.83,"","آغاجاری"
18802,37.27,49.98,"","آستانه اشرفیه"
26364,34.55,50,"","آشتیان"
42087,38.43,48.85,"","آستارا"
91867,36.05,50.53,"","آبیک"
141809,37.09,55.16,"","آزادشهر"
509534,34.3768,47.1394,"","آبادانی و مسکن"
17358,39.95,44.55,"","آرتاشات"
58551,50.75,13.75,"","آلتنبرگ"
62615,40.2667,44.6167,"","آبوویان"
88722,41.1333,44.7667,"","آختالا"
146148,40.6167,43.9667,"","آرتیک"
179307,40.5833,44.35,"","آپاران"
201859,40.6333,45.5,"","آرتسواشن"
235854,49.4333,11.8333,"","آمبرگ"
90110,37.25,48.05,"","آقکند"
110986,32.7833,48.8167,"","آبشار شوی"
6837,52.5167,13.4,"country","آرژانتین"
429741,-6.81667,-35.75,"","آرارا"
448243,36.3333,51.4667,"","آق‌تپه (مهرشهر)"
532526,50.2167,117.1,"airport","آراباتوک"
7414,17.1167,-61.85,"country","آنتیگوا و باربودا"
6922,39.0333,32.0333,"","آنکارا"
615016,39.0586,-84.9064,"city","آرورا، ایندیانا"
3874,36.28,52.21,"","آمل"
13338,37.46,45.85,"","آذرشهر"
13944,30.21,48.17,"","آبادان"
33627,36.0667,52.8225,"","آلاشت"
42087,38.4122,48.8761,"","آستارا"
90108,39.02,47.18,"","آبش‌احمد"
90110,37.15,48.03,"","آقکند"
91983,38.2711,48.5692,"","آبی‌بیگلو"
91995,39.3492,44.1056,"","آواجیق"
122622,33.8872,58.3736,"","آیسک"
140992,37.6042,56.9119,"","آشخانه"
141142,36.9181,48.9647,"","آب‌بر"
141152,35.25,52.4961,"","آرادان"
141809,37.0831,55.0833,"","آزادشهر"
141810,37.0144,54.4572,"","آق‌قلا"
16929,31.55,51.0594,"","آلونی"
142166,35.7631,51.9656,"","آبعلی"
26364,34.525,50.0278,"","آشتیان"
331112,36.0397,51.1928,"","آسارا"
542041,-27.64,117.874,"city","آستین، استرالیای غربی"
620524,35.6958,139.785,"landmark","آساکوساباشی"
620527,35.6546,139.737,"","آزابو"
31084,40.15,44.0333,"","آرماویر (ارمنستان)"
449279,-32.6556,-70.0158,"","آکونکاگوا"
540762,35.0053,-91.9892,"city","آستین، آرکانزاس"
210155,35.8057,51.4825,"","آجودانیه"
58430,36.2949,59.6104,"","آرامگاه نادرشاه"
58428,36.4861,59.5175,"","آرامگاه فردوسی"
413674,38.0661,46.3239,"","آبرسان"
534750,35.672,139.723,"landmark","آئویاما"
538482,33.3072,-96.9839,"city","آبری، تگزاس"
501100,43.085,-79.07,"landmark","آبشار آمریکایی"
328355,35.8953,51.2056,"","آبشار سنگان"
185142,36.9725,55.0253,"landmark","آبشار شیرآباد"
501102,43.0773,-79.0756,"","آبشار نعل اسب"
238255,-17.9244,25.8567,"waterbody","آبشار ویکتوریا"
213685,39.2167,-1.53333,"city","آبنخیبره"
288494,35.535,51.374,"","آرامگاه شهدای هفتم تیر"
161914,32.6483,51.5703,"","آتشگاه اصفهان"
4778,33.445,36.3414,"","آرامگاه‌های تاریخی دمشق"
4778,33.4444,36.3408,"landmark","آرامگاه‌های تاریخی دمشق"
4778,33.5137,36.3067,"landmark","آرامگاه‌های تاریخی دمشق"
303239,29.636,52.5617,"","آرامگاه خواجوی کرمانی"
329454,29.6225,52.553,"","آرامگاه علی بن حمزه"
640067,41.5833,12.65,"","آپریلیا (لاتینا)"
640058,40.95,14.3667,"","آچرا"
635926,32.9667,130.45,"city","آرائو، کوماموتو"
635927,34.0833,135.133,"city","آریدا، واکایاما"
635931,34.5167,133.583,"city","آساکوچی، اوکایاما"
635932,33.4167,130.667,"city","آساکورا، فوکوئوکا"
635928,35.3333,134.85,"city","آساگو، هیوگو"
635936,32.9167,131.217,"city","آسو، کوماموتو"
635915,34.75,134.017,"city","آکایوا، اوکایاما"
635919,34.75,134.383,"city","آکو، هیوگو"
635918,34.6667,132.7,"city","آکیتاکاتا، هیروشیما"
635910,37.8333,139.233,"city","آگانو، نیگاتا"
640064,44.9167,8.61667,"","آلساندریا"
638960,37.9103,23.7103,"","آلیموس"
640066,41.2167,16.3,"","آندریا (ایتالیا)"
635925,36.3333,138.883,"city","آنناکا، گونما"
635939,34.0833,134.233,"city","آوا، توکوشیما"
635940,34.4333,134.917,"city","آواجی، هیوگو"
635941,36.2167,136.233,"city","آوارا، فوکوئی"
640071,40.9667,14.2,"","آورسا"
640070,40.9167,14.7833,"","آولینو"
635942,35.3,135.267,"city","آیابه، کیوتو"
635943,35.4333,139.433,"","آیاسه، کاناگاوا"
42507,35.7219,51.3372,"","آریاشهر (تهران)"
636778,49.9667,9.98333,"city","آرناشتاین"
235829,50.9761,10.3206,"city","آیزناخ"
636790,49.6833,11.6167,"city","آئرباخ این در اوبرفالز"
636788,50.5881,12.7006,"city","آئو"
636787,49.5333,10.05,"city","آئوب"
640061,37.6167,15.1667,"","آچیرئاله"
638114,50.85,13.1667,"","آئدرن"
636792,47.9542,9.63889,"city","آئولندورف"
636786,51.1167,7.9,"city","آتندورم"
636785,50.5833,8.46667,"city","آثلار"
636780,51.3667,11.3,"city","آرترن/اوناشتروت"
636781,50.0667,12.1833,"city","آرزبرگ (اوبرفرانکن)"
636779,51.6833,11.4667,"city","آرناشتاین، زاکسن-آنهالت"
636752,53.6667,10.2333,"","آرنزبورگ"
636776,54.63,9.93139,"city","آرنیس (شهر)"
636777,50.8342,10.9464,"city","آرن‌اشتات"
636774,52.6667,12,"city","آرن‌برگ"
636782,49.9667,9.15,"city","آشافنبورگ"
636783,51.75,11.4667,"city","آشرزلبن"
636761,50.7644,13.7578,"","آلتنبرگ (زاکسن)"
636762,48.2267,12.6783,"city","آلتوتیگ"
636757,50.8833,6.16667,"city","آلسدورف"
636758,50.7511,9.27111,"city","آلسفلد"
636759,51.7,11.6667,"city","آلسلبن (ساله)"
636753,51.9886,9.82694,"city","آلفلد"
636754,50.6789,8.82444,"city","آلندورف (لومدا)"
636765,49.6333,9.21667,"city","آمورباخ"
636764,50.7978,8.92306,"city","آمونبرگ"
636769,50.58,13.0022,"city","آنابرگ-بوخ‌هولز"
636771,51.7328,13.0456,"city","آنابورگ"
636766,50.4397,7.40167,"city","آندرناخ"
636772,49.2033,7.96667,"city","آنوایلار آن در تریفلز"
636789,50.5,12.4,"city","آورباخ (ووگتلند)"
636794,53.4714,7.48361,"city","آوریش"
636793,50.7,11.9,"","آوما"
636791,50.8144,13.1,"city","آگوستوسبورگ"
637152,49.7239,10.0009,"","آیبل‌اشتات"
637153,50.4956,12.5975,"city","آیبن‌اشتوک"
637158,50.9667,11.9,"city","آیزنبرگ (تورینگن)"
637157,49.5614,8.0725,"city","آیزنبرگ (فالتز)"
637161,48.6933,9.70667,"city","آیسلینگن/فلیس"
636749,48.45,11.1333,"city","آیشاخ"
637154,48.8833,11.1833,"","آیش‌استت"
637155,51.4608,12.6358,"city","آیلنبورگ"
637156,51.8167,9.86667,"city","آینبک"
205155,34.5606,50.0342,"","آهو (آشتیان)"
15271,36.8333,53.85,"","آشوراده"
233936,35.4928,60.1586,"","آغل‌کمر"
35004,26.6772,61.6733,"","آشار"
283339,38,46.5,"","آناخاتون"
285686,38.41,46.1,"","آتش‌خسرو"
154197,37.455,49.3208,"","آبکنار"
154202,37.3586,49.7989,"","آج بوزایه"
286111,37.8,46,"","آغاجری"
159060,36.9833,50.3167,"","آخوندملک"
286127,37.8,46,"","آلمالو"
286149,37.8,46,"","آقچه‌اوبه"
286444,38.16,46.3,"","آلوچه‌ملک"
288252,37.44,46.37,"","آغبلاغ (بستان‌آباد)"
288255,37.4523,46.3654,"","آیقرچمن علیا"
515724,52.5,29.1,"","آباد (تنگستان)"
640752,34.78,48.61,"","آبشینه"
91637,37.9714,23.7362,"","آکروپولیس"
213688,38.5667,-1.51667,"city","آلباتانا"
213689,39.2794,-1.39583,"","آلبرئا"
213694,38.9667,-1.21667,"city","آلپرا"
213690,38.6333,-1.98333,"city","آلکادسو"
213691,39.2,-1.43333,"city","آلکالا دل خوکار"
213692,38.6667,-2.48333,"","آلکاراس"
6868,9.63333,38.7,"","آدیس آبابا"
6600,34,-112,"adm1st","آریزونا"
7530,51.1667,71.4333,"","آستانه (قزاقستان)"
235253,37,35.3213,"","آدانا"
224463,51.7519,-1.25778,"","آکسفورد"
213687,39.1,-1.35,"city","آلاتس"
213695,38.55,-2.08333,"city","آینا"
389941,5.94528,-62.4492,"","آبشار آنجل"
58523,49.25,10.9667,"city","آبن‌برگ"
186145,40.5833,-5,"adm2nd","آبیلا (استان)"
446533,64.7833,-52.1667,"","آتامیک"
58528,47.8456,8.85167,"city","آخ (شهر)"
58527,48.6314,8.07389,"","آخرن"
483050,35.7769,139.798,"city","آداچی، توکیو"
58529,49.4047,9.38917,"city","آدلسهایم"
116805,41.7319,-49.9458,"","آرام‌اس تایتانیک"
8123,41,-1,"adm1st","آراگون"
218276,12.3167,-70.0167,"","آروبا"
6717,34.8,-92.2,"state","آرکانزاس"
200485,40.7498,-73.8461,"landmark","آزاد آمریکا (تنیس)"
221118,48.8469,2.24917,"landmark","آزاد فرانسه"
156485,40.8733,-72.8721,"","آزمایشگاه ملی بروکهیون"
394876,37.4161,-122.219,"","آزمایشگاه ملی شتاب‌دهنده اسلاک"
635929,43.7747,142.383,"city","آساهیکاوا، هوکایدو"
636784,48.9064,9.14139,"","آسپبرگ"
183381,42.8333,-2.75,"adm2nd","آلابا (استان)"
6694,33,-87,"state","آلاباما"
6672,64,-153,"state","آلاسکا"
307007,29.4169,-98.4789,"landmark","آلامودوم"
183383,38.8333,-2,"adm2nd","آلباسته (استان)"
3280,42.6653,19.7325,"landmark","آلبانی"
58538,48.2119,9.02389,"city","آلب‌اشتاد"
58539,49.3875,11.3569,"city","آلتدورف نزدیک نورنبرگ"
58531,48.5864,8.60472,"city","آلتنشتایگ"
183387,37.1667,-2.33333,"adm2nd","آلمریا (استان)"
58532,48.3461,8.40389,"city","آلپیرسباخ"
183386,38.5,-0.5,"adm2nd","آلیکانته (استان)"
7414,17.05,-61.8,"","آنتیگوا و باربودا"
152647,39.9256,32.8375,"landmark","آنت‌کابیر"
6962,42.6547,1.55111,"landmark","Pic d'Arial (Nord)"
625489,53.4308,-2.96083,"landmark","آنفیلد"
221089,52.3756,4.8844,"","آنه فرانک"
292207,18.2206,-63.0686,"landmark","آنگویلا"
179824,-15.0333,-164.65,"","آپولو ۱۰"
36114,-15.0333,-164.65,"","آپولو ۱۱"
179820,-15.7833,-165.15,"","آپولو ۱۲"
179819,-21.6333,-165.367,"","آپولو ۱۳"
179818,-27.0167,-172.65,"","آپولو ۱۴"
179816,26.2167,-158.217,"","آپولو ۱۵"
179815,-0.716667,-156.217,"","آپولو ۱۶"
179811,-17.8833,-166.117,"","آپولو ۱۷"
179838,30.1,-172.533,"","آپولو ۴"
179833,27.6667,-157.917,"","آپولو ۶"
179832,27.6333,-64.15,"","آپولو ۷"
179828,8.1,-165.017,"","آپولو ۸"
179825,23.25,-67.9333,"","آپولو ۹"
364561,41.0086,16.5128,"adm1st","آپولیا"
400445,40.9903,45.1453,"","آچاجور"
447300,5.55,95.3167,"adm1st","آچه"
116034,38.848,-77.012,"","آژانس اطلاعات دفاعی ایالات متحده آمریکا"
116041,39.1099,-76.7698,"","آژانس امنیت ملی ایالات متحده آمریکا"
532723,34.5833,32.9833,"country","آکراتاری و داکیلیا"
287283,11.6667,122.333,"adm1st","آکلان"
284177,8.5,125.833,"adm1st","آگوسان جنوبی"
284176,9.16667,125.5,"adm1st","آگوسان شمالی"
143385,33.47,-81.975,"city","آگوستا، جورجیا"
6759,45,-114,"state","آیداهو"
58530,48.6228,9.23722,"city","آیشتال"
50064,14.3478,100.561,"","آیوتایا"
6824,42,-93,"state","آیووا"
110085,37.169,69.408,"","آی‌خانم"
90097,51.5157,-0.0921,"landmark","آتش‌سوزی بزرگ لندن"
208636,55.7535,37.6196,"landmark","آرامگاه دیوار کرملین"
6837,-26.25,-53.6333,"landmark","Argentina's easternmost continental point"
7436,-25.2667,-57.6667,"","آسونسیون"
18838,54.5,-115,"country","آلبرتا"
18416,39.5524,-8.9766,"","آلکوباسا"
3990,37.1058,68.3064,"river","آمودریا"
91134,42.5,1.5,"","آندورا لاولا"
538171,33.8319,-101.845,"city","آبرناتی، تگزاس"
14136,39.8233,-89.6558,"landmark","آبراهام لینکلن"
62067,43.08,-79.071,"landmark","Niagara Falls"
58524,48.8,11.85,"city","آبنزبرگ"
51890,34.1381,58.2158,"landmark","آبگرم معدنی فردوس"
59250,9.06667,7.48333,"city","آبوجا"
214760,40.3883,-5.3875,"","آبیاندا"
22177,35.3115,46.9877,"","آبیدر"
214759,40.7833,-4.83333,"city","آبینته"
501405,31.1048,130.314,"mountain","آتش‌فشان کایمونداکه"
538205,33.1183,-94.1667,"city","آتلانتا، تگزاس"
538510,32.2028,-95.8492,"city","آتن، تگزاس"
238243,35.0603,135.753,"","Kamigamo Shrine"
250040,41.6389,42.9861,"city","آخالتسیخه"
250023,41.4056,43.4861,"city","آخالکالاکی"
112603,39.2361,20.4761,"","آخرون"
400448,40.7878,45.0506,"","آخکیخلی"
58535,53.0653,9.03417,"city","آخیم"
214751,40.9333,-4.6,"city","آدانرو"
260068,40.7833,30.4,"city","آداپازاری"
617889,41.35,-2.46667,"city","آدراداس"
347184,51.7189,-0.411389,"","آدریان چهارم"
416003,35.2744,-102.666,"city","آدریان، تگزاس"
58536,50.3833,6.93333,"city","آدناو"
24516,50.3167,12.2667,"city","آدورف"
415991,32.9578,-96.835,"city","آدیسون، تگزاس"
430070,37.9722,23.7236,"landmark","آرئوپاژ"
141152,35.2167,52.4667,"","آرادان"
194167,42.8903,-2.63917,"","آراسوا-اوباروندیا"
192248,43.054,-2.566,"city","آرامایونا"
389026,39.7769,64.4006,"landmark","آرامگاه اسماعیل سامانی"
232234,32.9433,35.0922,"landmark","آرامگاه بهاءالله"
182521,35.5906,51.4932,"","آرامگاه بی‌بی‌شهربانو"
416989,38.0746,46.3279,"","آرامگاه دوکمال"
100172,38.0836,46.3028,"landmark","آرامگاه سید حمزه"
390248,39.6631,66.9878,"landmark","آرامگاه شاه زنده"
314710,38.8791,-77.069,"","آرامگاه ملی آرلینگتون"
42490,37.0379,27.4241,"landmark","آرامگاه هالیکارناسوس"
486832,10.25,-67.6,"adm1st","آراگوآ"
194166,42.7406,-2.44611,"","آرایا-مائستو"
389052,-23.0193,-67.7532,"","آرایه میلیمتری بزرگ آتاکاما"
214758,41.0667,-4.71667,"city","آربالو"
214757,40.5864,-5.37167,"","آربالییو"
437582,48.5938,7.7662,"landmark","آرته"
194168,43.1167,-3.13333,"city","آرسنیگا"
186562,32.7023,-97.1129,"landmark","آرلینگتون، تگزاس"
527956,54.3532,-6.64997,"landmark","آرما"
170711,32.5846,35.1835,"","آرماگدون"
192272,42.7167,-2.86667,"city","آرمینین"
214756,40.2,-5.08333,"city","آرناس د سان پدرو"
236247,51.3833,8.08333,"city","آرنسبرگ"
367746,-12.7308,134.593,"","آرنهم‌لند"
492451,56.1572,10.2107,"city","آرهوس"
538150,32.2258,-95.0553,"city","آرپ، تگزاس"
538311,33.5942,-98.6264,"city","آرچر سیتی، تگزاس"
441732,48.3556,21.2526,"city","آرکا"
538652,29.5014,-95.4639,"city","آرکولا، تگزاس"
538445,33.1164,-97.1856,"city","آرگایل، تگزاس"
400444,40.9758,45.1981,"","آزاتاموت"
155957,20.0029,75.1834,"landmark","آزاد بلگرامی"
540391,-23.5678,-46.6294,"city","آزادی (سائوپائولو)"
266764,46.2356,6.05528,"landmark","آزمایش اطلس"
426710,40.3488,-74.6022,"","آزمایشگاه فیزیک پلاسما پرینستون"
156483,41.7092,-87.982,"landmark","آزمایشگاه ملی آرگون"
156489,43.5334,-112.945,"landmark","آزمایشگاه ملی آیداهو"
426713,39.7406,-105.156,"landmark","آزمایشگاه ملی انرژی تجدیدپذیر"
90263,35.9333,-84.3167,"landmark","آزمایشگاه ملی اوک ریج"
156480,35.0507,-106.543,"landmark","آزمایشگاه ملی سندیا"
219928,42.7245,-84.4737,"","آزمایشگاه ملی سیکلوترون ابررسانا"
183202,46.3432,-119.276,"landmark","آزمایشگاه ملی شمال‌غربی پاسیفیک"
156488,37.8749,-122.253,"landmark","آزمایشگاه ملی لارنس برکلی"
156478,35.8817,-106.298,"","آزمایشگاه ملی لاس آلاموس"
442837,30.4252,-84.3209,"edu","آزمایشگاه ملی میدان مغناطیسی بالا"
218523,34.2017,-118.172,"","آزمایشگاه پیشرانه جت"
211533,40.6834,-74.4007,"landmark","آزمایشگاه‌های بل"
312338,36.7944,-121.788,"landmark","آزمایشگاه‌های دریایی ماس لندینگ"
351752,35.7167,140.65,"city","آساهی، چیبا"
537882,28.3903,-96.8436,"city","آستول، تگزاس"
194170,42.8957,-2.321,"city","آسپارنا"
397141,36.8231,-5.0806,"landmark","آسکاری"
3800,40.2975,44.3617,"city","آشتاراک"
15271,36.8333,53.85,"city","آشوراده"
163309,47.6111,13.0417,"mountain","آشیانه عقاب"
400447,40.7308,45.0933,"","آغاوناوانک"
67970,35.7241,51.2739,"landmark","آفساید (فیلم)"
33627,36.0667,52.8225,"city","آلاشت"
538648,29.4828,-98.4672,"city","آلامو هایتس، تگزاس"
416222,26.185,-98.1178,"city","آلامو، تگزاس"
253558,36.55,32,"city","آلانیا"
538261,32.7919,-95.6344,"city","آلبا، تگزاس"
387648,34.2653,-86.2114,"city","آلبرتویل (آلاباما)"
214752,40.8333,-4.88333,"city","آلبرنس"
492452,57.05,9.91667,"city","آلبورگ"
149655,35.1108,-106.61,"city","آلبوکرکی"
58541,49.7517,8.11611,"city","آلتزی"
58544,50.0667,9.06667,"city","آلتسناو این اونترفرانکن"
58547,52.5667,13.7331,"city","آلتلاندسبرگ"
416661,26.2844,-98.3058,"city","آلتن (تگزاس)"
58549,51.3,7.66667,"city","آلتنا"
58557,50.985,12.4333,"city","آلتنبورگ"
58552,53.6667,13.25,"city","آلتنترپتوو"
58554,50.6872,7.64556,"city","آلتنکیرشن"
387654,34.0292,-86.3206,"","آلتونا (آلاباما)"
214754,41.05,-4.81667,"city","آلدئاسکا"
214753,40.3833,-5.41667,"city","آلدئانوئبا د سانتا کروس"
416388,32.6956,-97.6033,"city","آلدو (تگزاس)"
222040,48.5,7.5,"adm1st","آلزاس"
53391,59.3568,18.0193,"landmark","آلفرد نوبل"
325649,71.2,-51.8333,"city","آلفرد وگنر"
170371,41.4833,-2.53333,"city","آلماسان"
429111,37.35,54.5831,"waterbody","آلماگل"
58522,48.8506,10.0956,"","weather station"
482925,42.8833,-9.88333,"","آلودگی نفتی نفتکش پرستیژ"
538105,32.4064,-97.2128,"city","آلورادو، تگزاس"
18419,38.89,-9.04,"","آلورکا دو ریباتژو"
417183,29.3936,-95.2717,"city","آلوین (تگزاس)"
120531,-37,148,"mountain","آلپ استرالیا"
416610,30.3608,-103.666,"city","آلپاین (تگزاس)"
192073,42.8442,-2.51194,"","آلگریا د آلابا"
387652,33.9042,-86.5164,"city","آلگود"
416439,27.7507,-98.0705,"city","آلیس، تگزاس"
387651,33.1264,-88.1544,"city","آلیسویل"
214755,40.5667,-5.06667,"city","آمابیدا"
166913,-8.43333,179.183,"isle","آماتوکو"
486839,3.5,-66,"adm1st","آمازون (ایالت)"
538146,34.9544,-102.106,"city","آمبرگر، تگزاس"
448957,-3.705,128.17,"city","آمبون"
22266,48.1667,-100.167,"","آمریکای شمالی"
143462,39.0204,31.2891,"landmark","آموران"
192125,43.05,-3,"city","آموریو"
418760,33.3503,-96.5508,"city","آنا (تگزاس)"
8212,39,32,"","آناتولی"
417191,29.7686,-94.6792,"city","آناهاک (تگزاس)"
186567,33.8362,-117.89,"city","آناهایم"
152926,38.9729,-76.5012,"city","آناپولیس"
2586,-18.9333,47.5167,"city","آنتاناناریوو"
415896,33.8114,-102.162,"city","آنتون، تگزاس"
359355,40.7357,-73.9872,"landmark","آنتونین دورژاک"
387655,31.3081,-86.4825,"city","آندالوسیا (آلاباما)"
487369,10.0667,-64.7167,"adm1st","آنزوآتگویی"
235836,49.3,10.5833,"city","آنسباخ"
537928,32.71,-94.1219,"city","آنسرتن، تگزاس"
483270,36.1286,-115.164,"landmark","آنکور لاس وگاس"
481789,14.5889,100.455,"adm1st","آنگ تونگ"
418067,31.9889,-96.4244,"city","آنگوس (تگزاس)"
542077,41.6369,-85.0008,"","آنگولا، ایندیانا"
192145,42.8011,-2.985,"","آنیانا"
387657,33.6628,-85.8264,"city","آنیستون (آلاباما)"
12311,31.8333,117,"adm1st","آن‌هوئی"
58546,52.0667,7,"city","آهاوس"
537852,29.9639,-97.795,"city","آهلند، تگزاس"
93616,-21.2,-159.767,"city","آواروآ"
387714,32.5978,-85.4808,"city","آوبرن (آلاباما)"
91871,35.5833,49.2167,"city","آوج"
186573,39.6958,-104.808,"city","آورورا (شهر)"
387717,31.1894,-85.2792,"city","آوون (آلاباما)"
216622,29.935,52.89,"","آپادانا"
315539,36.9064,-82.7856,"city","آپالاچیا"
485561,7.9,-67.4667,"adm1st","آپوره"
179839,28.5218,-80.5613,"landmark","آپولو ۱"
7496,-13.8333,-171.767,"city","آپیا"
400446,41.0358,45.085,"","آچارکوت"
212994,-2.33333,-44.4,"","آژانس فضایی برزیل"
385366,59.3253,18.0706,"","آکادمی سوئد"
312327,38.0694,-122.23,"edu","آکادمی ماریتایم کالیفرنیا"
150739,38.9903,-104.858,"","آکادمی نیروی هوایی ایالات متحده آمریکا"
58537,51.85,12.05,"city","آکن"
313657,-33.8694,151.202,"landmark","آکواریوم سیدنی"
445244,40.1563,-83.1184,"landmark","آکواریوم و باغ وحش کلمبوس"
537932,31.8522,-97.2192,"city","آکویلا، تگزاس"
1819,38.8667,46.2,"","آگاراک"
18412,38.7678,-9.29944,"","آگوئالوا-کاسم"
538004,27.7831,-97.91,"city","آگوا دولسه، شهرستان نویسس، تگزاس"
156164,44.3236,-69.7653,"city","آگوستا"
194171,43.0833,-3.06306,"","آیالا/آیارا"
185247,31.05,-7.13333,"city","آیت بن حدو"
228020,35.7072,51.4255,"","آیت‌الله طالقانی (ایستگاه مترو)"
185499,37.8444,27.8458,"city","آیدین (شهر)"
422999,30.9136,-101.899,"city","آیران، تگزاس"
351668,35.15,136.733,"city","آیسای، آیچی"
59617,61.0913,9.00418,"","آینانگ"
481793,14.3494,100.559,"adm1st","آیوتتایا"
537833,33.9536,-98.6711,"city","آیووا پارک، تگزاس"
641167,47.0833,8.3,"city","آمن، سوئیس"
641195,47.55,9.3,"city","آمری ویل"
647888,51.5092,-0.139444,"landmark","آکادمی سلطنتی هنر"
648978,37.3167,126.833,"city","آنسان"
648974,36.5667,128.717,"","آندونگ"
648980,37,127.267,"city","آنسئونگ"
648884,36.1656,58.817,"","آرامگاه حیدر یغما"
58429,36.1676,58.8071,"","آرامگاه کمال‌الملک"
93103,36.1671,58.807,"","آرامگاه عطار نیشابوری"
92171,28.0799,51.7692,"","آبدان"
92171,28.0799,51.7692,"city","آبدان"
311222,34.6488,50.9089,"edu","آموزشکده فنی پسران قم"
684702,54.35,-6.65462,"city","آرماگ"
538285,27.9019,-97.1394,"city","آرنزاس پس، تگزاس"
714768,1.95,35.42,"","آنگلوگیتات"
715287,-1,36.37,"","آکیلا رنچ"
715475,-0.3,35.28,"","آیناموی"
715482,0.37,36.55,"","آیام"
715864,-0.63,34.58,"","آکلو"
715865,0.18,34.27,"","آمبیرا"
715866,-0.18,34.8,"","آمیموز"
715868,-0.52,34.7,"","آندیوو"
715869,-0.95,34.15,"","آنکو"
715871,0.23,34.27,"","آنیکا"
715873,-0.33,35,"","آساوا"
715876,-0.48,34.62,"","آواچ تند"
715877,-0.17,35.07,"","آواسی"
715878,-0.55,34.43,"","آوینو"
8124,43.3333,-6,"adm1st","آستوریاس"
716402,-0.73,34.58,"","آیوگیس"
502784,28.1579,51.5281,"","آبکش (دیر)"
502784,28.158,51.5281,"","آبکش (دیر)"
141142,36.924,48.9621,"","آب‌بر"
18813,29.8089,53.7269,"","آباده طشک"
90108,39.0415,47.3159,"","آبش‌احمد"
90144,35.6507,52.0138,"","آبسرد (تهران)"
91983,38.2834,48.5529,"","آبی‌بیگلو"
52936,34.0702,51.4785,"","آران و بیدگل (شهر)"
141658,35.931,45.7963,"","آرمرده"
142181,33.3318,59.2369,"","آرین‌شهر"
141810,37.0118,54.454,"","آق‌قلا"
729904,52.3061,4.84295,"landmark","آمستل‌فین"
729909,52.35,6.66667,"city","آلملو"
729899,52.632,4.751,"","آلکمار"
731308,-13.5833,49.5,"","آنسیرانانا (استان)"
731310,-18.75,46.75,"","آنتاناناریوو (استان)"
281058,38.3212,48.7287,"landmark","آبشار لاتون"
11116,32.6382,51.6847,"","آرتور پوپ"
731445,36.0833,66.85,"landmark","آق‌کپرک"
422249,36.2562,50.0048,"","آب‌انبار سردار بزرگ"
479861,36.2648,49.9915,"","آب‌انبار سردار کوچک"
171891,17,78,"","آندرا پرادش"
172013,26.2333,92.2833,"","آسام"
172012,27.06,93.37,"","آروناچال پرادش"
418327,33.9697,51.4166,"","آرامگاه ابولؤلؤ"
229482,35.701,51.3321,"landmark","آزادی (ایستگاه مترو)"
360792,30.2614,120.224,"waterbody","آبراه بزرگ چین"
439768,37.0167,54,"","آبسکون"
536824,35.6808,139.604,"","آب‌راه تاماگاوا"
7895,-34.929,138.601,"city","آدلاید"
712875,57.3564,61.8711,"","آرتیوموفسکی، اوبلاست سوردلوفسک"
735629,39.9667,32.6167,"city","آریامان"
28199,-34.6456,150.119,"landmark","Paddy's River"
617736,-23.86,326.73,"","آزمایشگاه علمی مریخ"
648981,37.3833,126.933,"city","آنیانگ، گیونگگی"
734792,45.472,9.1879,"","آکادمی بررا"
728698,47.5013,19.0463,"","آکادمی علوم مجارستان"
142320,39.1833,48.1833,"","آقاحسن بیگلو"
154198,37.2686,49.51,"","آتشگاه (رشت)"
159058,36.95,50.3167,"","آجه"
159059,37.2083,50.0975,"","آخوندمحله"
92051,36.1659,58.8223,"","آرامگاه خیام"
154183,5.55,-0.2,"","آکرا"
756049,47.6,8.21667,"river","آر (رود)"
7560,52.3731,4.89222,"","آمستردام"
756382,22.0217,-102.356,"adm1st","آگوئاسکالینتس"
329043,29.2732,53.2205,"","آرامگاه شیخ یوسف سروستانی"
1556,45,41.1167,"city","آرماویر"
22466,46.3333,48.0167,"city","آستراخان"
23022,64.55,40.5333,"city","آرخانگلسک"
201863,53.7167,91.4167,"city","آباکان"
515372,52.5667,103.917,"city","آنگارسک"
351719,40.8167,140.75,"city","آئوموری"
483081,32.4633,139.766,"city","آئوگاشیما"
515724,29.0283,51.2492,"city","آباد (تنگستان)"
635909,44.0167,144.267,"city","آباشیری، هوکایدو"
284172,17.5833,120.75,"adm1st","آبرا"
18411,39.4644,-8.19778,"city","آبرانتس"
214467,37.1333,-2.78333,"","آبروسنا"
214466,37.1333,-2.76667,"","آبلا"
638962,40.65,22.9167,"city","آبلوکیپی"
225713,-57.3,175.2,"landmark","آبه (دهانه)"
7495,5.31667,-4.03333,"city","آبیجان"
186205,40.65,-4.68333,"city","آبیلا"
214667,43.5561,-5.90833,"city","آبیلس"
351740,35.8667,140.033,"city","آبیکو، چیبا"
635937,35.1,139.067,"city","آتامی، شیزوئوکا"
635938,35.4333,139.367,"city","آتسوگی، کاناگاوا"
143372,33.755,-84.39,"city","آتلانتا"
19733,37.9667,23.7167,"city","آتن"
50886,41.65,42,"country","آجارستان"
638926,38.0833,23.7333,"city","آخرنس"
24665,50.7753,6.08278,"city","آخن"
214468,36.75,-3.01667,"","آدرا"
214151,38.8469,0.151944,"","آدسوبیا"
19829,44.65,40,"adm1st","آدیغیه"
13338,37.7583,45.975,"city","آذرشهر"
413580,31.7204,35.2025,"landmark","آرامگاه راحل"
430801,41.8,-2.26667,"city","آرانکون"
483044,35.7333,139.783,"city","آراکاوا، توکیو"
35803,40.5333,44.2,"mountain","آراگاتس"
214481,37.35,-2.06667,"","آربلئاس"
639036,39.15,20.9833,"city","آرتا (یونان)"
638995,37.9667,24,"city","آرتمیسا"
540470,44.6667,4.41667,"adm2nd","آردش"
540475,49.5,4.66667,"adm2nd","آردن"
441737,48.1728,20.2599,"city","آرلو"
349550,51.9833,5.91667,"","آرنهم"
284174,15.8833,121.55,"adm2nd","آرورا (فیلیپین)"
734864,37.5833,22.25,"","آرکادیا"
236097,44.6528,-1.16919,"city","آرکاشون"
644112,52.7941,-6.1649,"","آرکلو"
638986,37.6167,22.7167,"city","آرگوس (شهر)"
388071,10.6167,-61.2667,"city","آریما"
638966,37.9,23.75,"city","آرییروپولی"
540494,43,1.5,"adm2nd","آرییژ"
156487,37.686,-121.71,"","آزمایشگاه ملی لارنس لیورمور"
635944,36.2833,137.917,"city","آزومینو، ناگانو"
441738,48.2212,20.9606,"city","آسالو"
635930,35.8,139.6,"city","آساکا، سایتاما"
89050,30.25,-97.75,"city","آستین، تگزاس"
541501,43.6666,-92.9749,"city","آستین، مینه‌سوتا"
262934,41.8662,-87.6067,"landmark","آسمان‌نمای ادلر"
729916,53,6.55,"city","آسن"
638964,38.0667,23.5833,"city","آسپروپیرگوس"
214171,38.3456,-0.768889,"","آسپه"
632008,43.0758,12.6175,"","آسیزی"
635935,34.7333,135.3,"city","آشیا، هیوگو"
635934,36.3333,139.45,"city","آشیکاگا، توچیگی"
635933,43.5167,142.183,"city","آشی‌بتسو، هوکایدو"
177716,39.7217,43.0567,"city","آغری"
200738,36.9114,66.1858,"city","آقچه"
214156,38.1786,-0.868056,"city","آلباترا"
214471,37.2833,-2.16667,"","آلبانچس"
416228,32.7269,-99.2944,"city","آلبانی، تگزاس"
287284,13.2333,123.633,"","آلبای"
214170,38.5986,-0.0519444,"city","آلتئا"
58550,51.8028,10.4456,"city","آلتناو"
355868,82.5014,-62.3389,"city","آلرت"
214479,37,-2.58333,"","آلسدوکس"
18418,41.1497,-8.61,"","آلمیریم"
214163,38.7725,-0.556111,"city","آلفافارا"
729910,52.13,4.65,"city","آلفن آن درین"
2399,52.5167,13.3833,"country","آلمان"
213693,38.85,-1.08333,"city","آلمانسا"
185521,36.8333,-2.45,"city","آلمریا"
214169,38.7611,-0.354444,"city","آلموداینا"
214167,38.1097,-0.789444,"city","آلمورادی"
729883,52.3667,5.21667,"city","آلمیره"
416440,33.0997,-96.6631,"city","آلن (تگزاس)"
730567,44.4197,34.0431,"city","آلوپکا"
18420,41.1497,-8.61,"","آمادورا"
19741,45.8336,6.865,"mountain","آلپ"
540462,44,6.16667,"adm2nd","آلپ-دو-اوت-پرووانس"
540466,43.8333,7.16667,"adm2nd","آلپ-ماریتیم"
214158,38.7494,0.0416667,"","آلکالالی"
214472,36.9667,-2.95,"city","آلکلئا"
214161,38.6831,-0.333056,"city","آلکولخا"
214162,38.6983,-0.473611,"city","آلکوی"
214165,38.3378,-1.00361,"","آلگوئنیا"
214164,38.0858,-0.804722,"city","آلگورفا"
540461,46.3333,3.16667,"adm2nd","آلیه"
704273,38.3453,-0.483056,"city","آلیکانته"
214477,36.9667,-2.6,"","آلیکون"
636756,51.4,11.3833,"city","آل‌اشتد"
18421,41.2667,-8.06667,"adm3rd","آمارانته"
183210,35.1992,-101.845,"","آماریلو، تگزاس"
330248,-5,-63,"adm1st","آمازوناس"
639001,37.8,21.35,"city","آمالادا"
635923,28.3167,129.45,"city","آمامی، کاگوشیما"
417572,1.38333,-51.8167,"adm1st","آماپا"
635922,32.4667,130.2,"city","آماکوسا، کوماموتو"
635921,34.7333,135.4,"city","آماگاساکی، هیوگو"
729889,52.15,5.38,"city","آمرسفورت"
643028,48.1167,14.8667,"city","آمشتتن"
5588,40.8167,23.85,"city","آمفیپولیس"
214666,43.2333,-5.06667,"city","آمیبا"
644208,50.6667,5.51667,"city","آن (بلژیک)"
729934,40.4408,-8.435,"city","آنادیا"
635924,33.9167,134.667,"city","آنان، توکوشیما"
644210,50.5667,3.45,"city","آنتئان"
214480,37.2333,-1.91667,"","آنتاس"
158535,36.8618,-111.374,"landmark","آنتلوپ کنیون"
166383,51.2167,4.4,"city","آنتورپ"
635505,48.7539,2.2975,"city","آنتونی، او-دو-سن"
635504,43.5808,7.12389,"city","آنتیب"
644209,50.4833,5.51667,"city","آنتیزن"
287286,11.2333,122.1,"adm2nd","آنتیک (استان)"
351651,34.9667,137.083,"","آنجو، آیچی"
107474,-32.6528,-70.0111,"mountain","آند (رشته‌کوه)"
644206,50.4,4.26667,"city","آندرلو"
730683,42.73,19.79,"","آندرییفیتسا"
644204,50.4833,5.1,"city","آندن"
643029,48.2083,14.2889,"city","آنزفلدن"
644211,50.8333,3.46667,"city","آنزوژم"
644412,50.4333,3.66667,"city","آنسی"
221823,41.1167,122.983,"city","آنشان (چین)"
638978,38.0833,23.7,"city","آنو لیوسیا"
644337,50.5833,5.41667,"city","آنژی"
636768,53.85,13.6833,"city","آنکلام"
636767,53.0333,14,"city","آنگرمونده"
635503,43.485,-1.5183,"city","آنگله"
6966,-8.83333,13.3333,"country","آنگولا"
635502,45.6489,0.160847,"city","آنگولم"
644336,50.7,4.03333,"city","آنگیین ''(ادنژان)''"
91995,39.3322,44.1539,"city","آواجیق"
7450,-36.8404,174.74,"city","آوکلند"
155564,40.6333,-8.65,"adm3rd","آویرو"
540514,44.25,2.7,"adm2nd","آویرون"
287285,17.75,121.25,"adm1st","آپایو"
58525,51.0167,11.5167,"city","آپلدا"
729885,52.2167,5.96667,"city","آپلدورن"
362238,41.9267,8.73694,"city","آژاکسیو"
638935,37.9333,23.7333,"city","آژیوس دیمیتریوس"
635914,43.55,142.05,"city","آکابیرا، هوکایدو"
635916,34.65,135,"city","آکاشی، هیوگو"
434592,42.0772,-71.63,"city","آکس‌بریج، ماساچوست"
635920,32.0167,130.217,"city","آکونه، کاگوشیما"
635917,33.5,133.9,"city","آکی، کوچی"
351699,39.7167,140.1,"city","آکیتا (شهر)"
486692,35.7289,139.294,"city","آکیرونو، توکیو"
483410,35.7,139.35,"city","آکیشیما، توکیو"
214154,38.7797,-0.516111,"","آگرس"
638958,38.6167,21.4,"city","آگرینیو"
635911,35.9833,139.6,"city","آگه‌ئو، سایتاما"
18413,40.5745,-8.44801,"city","آگوئدا"
59309,34.1533,-118.762,"city","آگورا هیلز"
214664,43.2667,-6.61667,"city","آیانده"
214665,43.1,-5.58333,"city","آیر"
637159,52.145,14.6728,"city","آیزنهوتن‌اشتات"
635119,47.85,16.5167,"city","آیزن‌اشتات"
635913,37.3,139.55,"city","آیزوواکاماتسو، فوکوشیما"
638940,38,23.8167,"city","آیه باراسکوی"
538019,30.6719,-94.4036,"city","آیوانهو، شهرستان تایلر، تگزاس"
639017,37.9667,23.6667,"city","آیوس یوانیس ارنتیس"
234569,41.6558,-91.525,"city","آیووا سیتی"
635912,34.8,134.467,"city","آیویی، هیوگو"
538439,32.404,-96.77,"city","آیک، تگزاس"
729779,47.1006,17.5522,"city","آیکا"
214155,38.4989,-0.362778,"city","آیگوئس"
638965,38.0333,23.7167,"city","آیی انارگیری"
638971,38,23.65,"city","آییا واروارا"
259003,35.9231,46.6461,"city","آب‌باره"
438695,33.8386,49.0489,"city","آب‌بخشان"
208473,29.8828,52.1594,"city","آب‌پرده"
300421,38.5153,46.5281,"city","آبخواره"
286847,34.2597,48.4789,"city","آبدار"
164877,33.7014,48.7986,"city","آبدر"
217613,36.5436,52.4725,"city","آبدنگ‌سر"
523844,30.4508,51.0444,"city","آبده‌گاه"
296235,38.0044,47.5089,"city","آبرس"
256750,37.0903,58.7033,"city","آبشوری"
110955,28.6519,53.0106,"city","آبشیخ"
640752,34.7819,48.6147,"city","آبشینه"
432350,36.2611,53.2881,"city","آبکسر"
154197,37.4606,49.3339,"city","آبکنار"
488181,36.6419,53.3239,"city","آبلو"
217201,36.7144,53.0978,"city","آبمال"
412340,36.4358,50.6253,"city","آتان"
288266,37.8864,46.8544,"city","آتباتان"
312046,37.4358,46.6558,"city","آتش‌بیگ"
285686,38.5719,46.1731,"city","آتش‌خسرو"
488159,36.7269,53.3408,"city","آجند"
5820,37.3986,47.7964,"city","آچاچی"
307434,37.0231,46.9511,"city","آخساخلار"
429183,36.5833,53.0225,"city","آخورسر"
159059,36.7883,50.8056,"city","آخوندمحله"
340269,38.5261,46.9378,"city","آذغان"
34534,36.0208,50.7825,"city","آردهه"
329405,34.7581,49.6569,"city","آرزومند"
310089,37.7833,47.9875,"city","آرموداق"
224288,35.8686,49.2269,"city","آزادده"
487937,36.5986,52.2444,"city","آزادمون"
348271,38.6803,47.1422,"city","آس جدید"
348272,38.6972,47.1161,"city","آس قدیم"
209731,30.6431,52.3975,"city","آسپاس"
363209,36.6628,52.9044,"city","آستانه‌سر"
168942,35.0844,47.7508,"city","آصف‌آباد"
282225,37.5731,46.7336,"city","آغ‌دره"
307536,37.1236,46.7678,"city","آغ‌زیارت"
283337,38.3033,46.4008,"city","آغاج‌اوغلی"
310951,37.1767,46.5428,"city","آغبلاغ علیا"
311727,37.4497,47.5039,"city","آغچه‌دربند"
282295,37.3189,47.7844,"city","آغچه‌قشلاق"
296194,37.805,47.2475,"city","آغچه‌کند"
302936,37.5156,46.8069,"city","آغچه‌کندی"
310907,37.6233,46.9564,"city","آغچه‌کهل"
307709,38.2939,46.4275,"city","آغداش"
282396,38.6169,45.025,"city","آغشلو"
516795,34.7336,50.3236,"city","آغلک"
221242,37.9739,47.6467,"city","آغمیون"
288204,37.7442,46.8108,"city","آغورآباد"
288593,39.0089,47.39,"city","آق‌براز"
348275,38.6142,47.15,"city","آق‌درق جدید"
348276,38.6289,47.1472,"city","آق‌درق قدیم"
340345,38.5103,47.2108,"city","آق‌دیوار"
499451,37.015,54.3853,"city","آق‌قبر"
257012,37.1492,58.5844,"city","آق‌کاریز"
286589,34.9928,48.3339,"city","آق‌کهریز"
300387,38.6269,46.7628,"city","آقاباباسنگ"
300423,38.5228,46.5447,"city","آقابابافرامرزی"
142320,39.1769,48.1828,"city","آقاحسن بیگلو"
340270,38.5333,46.8175,"city","آقاکندی"
485390,36.4619,52.5622,"city","آقاملک"
312589,37.7689,48.1525,"city","آقامیرلو"
312530,37.1858,55.1306,"city","آقچلی سفلی"
304970,37.5064,47.2947,"city","آلاتیمور"
312085,37.3933,46.8006,"city","آلاقیه"
325300,38.4372,47.1611,"city","آلپاوت"
310921,37.4292,46.5158,"city","آلماچوان"
286127,37.6494,46.6464,"city","آلمالو"
286444,38.405,46.2447,"city","آلوچه‌ملک"
307711,37.0031,47.1986,"city","آنابلاغی"
283339,38.1525,46.2578,"city","آناخاتون"
346236,38.695,46.4419,"city","آوانسر"
244148,34.7939,50.4256,"city","آوه"
437316,36.3383,52.8469,"city","آهنگرکلا"
513803,29.2742,56.7381,"city","آهوئیه"
429140,36.5314,53.0711,"city","آهی‌دشت"
487943,36.6081,52.3217,"city","آهی‌محله"
289248,37.2447,47.9167,"city","آیدمیر"
288674,38.6667,47.3136,"city","آیدین‌لو"
288254,37.7567,46.6147,"city","آیقرچمن سفلی"
288255,37.7678,46.6083,"city","آیقرچمن علیا"
205155,34.2556,47.3931,"city","آهو (آشتیان)"
657008,36.4813,52.355,"landmark","آتشکده آمل"
657805,35.5873,51.4308,"landmark","آرامگاه جوانمرد قصاب"
671499,36.1822,59.6663,"landmark","آرامگاه خواجه"
391569,37.2018,50.0464,"landmark","آرامگاه شیخ زاهد گیلانی"
657260,32.6475,51.6515,"landmark","آرامگاه صائب"
663823,35.5873,51.4308,"landmark","آرامگاه عباس علی"
672422,35.5873,51.4308,"landmark","آرامگاه علی"
668731,35.5873,51.4308,"landmark","آرامگاه مدرس"
657609,37.1963,50.0165,"landmark","آرامگاه کاشف السلطنه"
657144,37.4858,57.3258,"landmark","آئینه‌خانه مفخم"
676606,31.9213,54.321,"landmark","آب‌انبار افشار"
665971,34.65,50.8833,"landmark","آب‌انبار البرز"
674123,36.3079,50.1964,"landmark","آب‌انبار امامزاده اباذر"
665959,32.8739,59.1429,"landmark","آب‌انبار امیر آباد"
661268,35.5723,53.396,"landmark","آب‌انبار بالا زاوقان"
660814,35.5723,53.396,"landmark","آب‌انبار تدین"
660704,35.5723,53.396,"landmark","آب‌انبار توکلی"
663883,35.5723,53.396,"landmark","آب‌انبار حاج ملاعلی حکیم الهی"
664326,33.983,51.4499,"landmark","آب‌انبار درب زنجیر"
663959,31.585,54.4189,"landmark","آب‌انبار دروازه مهریز"
666720,34.65,50.8833,"landmark","آب‌انبار راهجرود"
668955,34.65,50.8833,"landmark","آب‌انبار روستای آغلک"
666818,34.8111,51.1416,"landmark","آب‌انبار روستای کاج"
663847,34.65,50.8833,"landmark","آب‌انبار سراجه"
659958,35.4597,53.2153,"landmark","آب‌انبار سرخه"
661323,35.5723,53.396,"landmark","آب‌انبار سنادره"
658197,31.9084,54.3403,"landmark","آب‌انبار سید صحرا"
673699,34.65,50.8833,"landmark","آب‌انبار شادقلی خان"
666730,34.65,50.8833,"landmark","آب‌انبار صدرآباد"
663846,34.65,50.8833,"landmark","آب‌انبار طلاب"
665928,34.65,50.8833,"landmark","آب‌انبار طیب و طاهر"
672881,34.65,50.8833,"landmark","آب‌انبار عربستان"
660808,35.5723,53.396,"landmark","آب‌انبار فامیلی"
663784,31.8596,54.3561,"landmark","آب‌انبار قاسم آباد"
661294,35.5723,53.396,"landmark","آب‌انبار قاضی (کدیور)"
658185,31.9082,54.3473,"landmark","آب‌انبار قندهاری"
665989,34.65,50.8833,"landmark","آب‌انبار لب چال"
666305,26.9514,56.2644,"landmark","آب‌انبار مجموعه ۲۷ واحدی قشم"
660819,35.5723,53.396,"landmark","آب‌انبار ناسار"
659978,35.6829,51.3867,"landmark","آب‌انبار پامنار"
675176,33.5966,56.9358,"landmark","آب‌انبار پهن کوچه"
676894,35.7557,51.3988,"landmark","آب‌انبار کاروانسرای شاه عباسی"
661267,35.5723,53.396,"landmark","آب‌انبار کاشفی"
661286,35.5723,53.396,"landmark","آب‌انبار کوشمغان"
666857,34.7973,51.186,"landmark","آب‌انبار کوه سفید"
12041,27.1989,54.3665,"landmark","آب‌انبارها در غرب هرمزگان"
656388,34.65,50.8833,"landmark","آتشکده نویس"
659653,30.2803,57.067,"landmark","آتشکده کرمان"
664686,36.3,59.6,"landmark","آرامگاه ابوعلی فارمدی"
671774,30.4781,56.6051,"landmark","آرامگاه امامزاده بی بی حیات"
660822,35.5723,53.396,"landmark","آرامگاه امامزاده سید جلال"
661416,36.3,59.6,"landmark","آرامگاه امامزاده سید نورالله"
660757,35.5723,53.396,"landmark","آرامگاه امامزاده شاه محمد زید"
662220,36.3,59.6,"landmark","آرامگاه امامزاده عبدالعزیز"
666860,34.65,50.8833,"landmark","آرامگاه امامزاده عبدالله فوجرد"
656606,36.3,59.6,"landmark","آرامگاه امامزاده محمد"
665671,34.65,50.8833,"landmark","آرامگاه امامزاده هادی جمزقان"
666530,36.3,59.6,"landmark","آرامگاه امامزاده یحیی"
662251,36.3,59.6,"landmark","آرامگاه امامزادگان هاشم و محتشم"
656411,33.9843,51.4444,"landmark","آرامگاه بابا افضل"
661641,36.3,59.6,"landmark","آرامگاه بابا لنگر"
665453,32.6342,51.694,"landmark","آرامگاه بابا پیر محمد بن انصاری"
657693,34.8065,48.5162,"landmark","آرامگاه باباطاهر (همدان)"
662219,36.3,59.6,"landmark","آرامگاه باباپیر"
672196,28.922,50.8331,"landmark","آرامگاه بی بی زلیخا"
665675,34.65,50.8833,"landmark","آرامگاه بی بی شریفه خاتون نویس"
664211,32.6475,51.6515,"landmark","آرامگاه بید آبادی"
664390,36.3,59.6,"landmark","آرامگاه تپه خشتی"
656379,36.264,50.0111,"landmark","آرامگاه حمدالله مستوفی"
669326,37.9083,46.1417,"landmark","آرامگاه سلطان اسامه ابن فرقد کندوان"
660325,34.65,50.8833,"landmark","آرامگاه سلطان محمود صرم"
664805,36.6709,48.4851,"landmark","آرامگاه سید ابوالقاسم مجتهد میرزایی"
675897,35.5723,53.396,"landmark","آرامگاه سید زین العابدین"
663881,32.3731,48.4002,"landmark","آرامگاه سید صبور"
673771,28.922,50.8331,"landmark","آرامگاه سید عبدالجبار"
662454,32.3775,48.4035,"landmark","آرامگاه سید محمود"
663286,31.909,54.3688,"landmark","آرامگاه سید گلسرخ"
663874,32.3644,48.3951,"landmark","آرامگاه شاه خراسان"
659931,34.65,50.8833,"landmark","آرامگاه شاهزاده ذکریا"
660461,34.65,50.8833,"landmark","آرامگاه شاهزاده هادی"
671935,35.7796,51.4516,"landmark","آرامگاه شاهزاده گرجی"
657988,36.2909,50.0174,"landmark","آرامگاه شهید ثالث"
658085,34.65,50.8833,"landmark","آرامگاه شیخ اباصلت"
656243,38.277,48.2977,"landmark","آرامگاه شیخ جبرائیل"
659399,34.65,50.8833,"landmark","آرامگاه علی بن بابویه قمی"
658086,34.65,50.8833,"landmark","آرامگاه متبرکه امامزاده خمره"
658414,34.65,50.8833,"landmark","آرامگاه متبرکه امامزاده طیب و طاهر"
658226,34.65,50.8833,"landmark","آرامگاه متبرکه خدیجه خاتون"
658232,34.65,50.8833,"landmark","آرامگاه متبرکه سکینه خاتون"
657884,35.6046,51.4138,"landmark","آرامگاه مرحوم سید محمد طباطبایی"
663838,32.3681,48.3834,"landmark","آرامگاه مقام علی"
658275,34.3082,47.0573,"landmark","آرامگاه ملا عباسعلی"
656184,36.5709,53.0634,"landmark","آرامگاه ملا مجدالدین"
661431,36.3,59.6,"landmark","آرامگاه میرزا ابراهیم رضوی"
658039,35.5723,53.396,"landmark","آرامگاه پیر نجم الدین"
657286,36.3,59.6,"landmark","آرامگاه پیر پالاندوز"
659955,35.5723,53.396,"landmark","آرامگاه پیغمبران"
661692,36.3,59.6,"landmark","آرامگاه چلاقد (چهارطاقی چلاقد)"
660816,35.5723,53.396,"landmark","آسیاب اول زاوقان"
661288,35.5723,53.396,"landmark","آسیاب دوم کدوور (کدیور)"
672662,36.3,59.6,"landmark","آسیاب سلطان‌آباد"
658300,35.5723,53.396,"landmark","آسیاب طاووس"
673337,36.3,59.6,"landmark","آسیاب کنه بیست"
661766,30.4183,57.7062,"landmark","آسیاب‌آبی شهداد"
662389,34.65,50.8833,"landmark","آق تپه البرز (محوطه ۳۲)"
661934,36.6709,48.4851,"landmark","آق تپه بهرام بیگ"
660021,34.65,50.8833,"landmark","آق تپه قشلاق"
417572,-1.38333,-51.8167,"","آماپا"
440079,55.2667,23.6333,"","آریوگالا"
7436,25.2667,-57.6667,"","آسونسیون"
776639,38.9162,-6.33772,"","آکوئدوکتو ده لوس میلاگروس"
220433,35.5492,51.3665,"landmark","آرامگاه سید روح‌الله خمینی"
291158,48.3667,10.9,"city","آوگسبورگ"
447300,-5.55,95.3167,"","آچه"
299390,31.6544,51.3756,"city","آقداش (تبریز)"
244148,34.53,50.27,"","آوه"
791743,34.9317,50.2203,"city","آسیابک بند"
791743,34.55,50.13,"","آسیابک بند"
201859,40.6461,45.5156,"","آرتسواشن"
793186,34.995,49.4956,"city","آقچه‌قلعه"
793186,34.59,49.29,"","آقچه‌قلعه"
259113,11.5833,165.333,"","آب‌سنگ حلقوی بیکینی"
793288,39.9367,46.8328,"","آسکران (شهر)"
24256,40.2103,46.8092,"","آسکران"
793447,34.2003,49.1717,"city","آقداش (ساوه)"
793447,35.14,49.1,"","آقداش (ساوه)"
166913,-8.43333,-179.183,"","آماتوکو"
640065,40.8167,16.55,"","آلتامورا"
803751,41.0592,14.4017,"","آب‌گذر وانویتلی"
183681,38.9956,-1.85583,"","آلباسته"
804917,33.4997,-86.8389,"","آرلینگتون آنتبلوم"
797220,36.2454,46.2753,"","آلکلو"
852775,42.46,13.57,"mountain","آزمایش اپرا"
448957,-3.7,128.167,"","آمبون"
799282,28.7769,51.3036,"city","آب‌بویی"
3874,36.43,52.4,"","آمل"
668899,29.6167,52.5333,"landmark","آب رکنی"
676089,35.0094,48.7906,"landmark","آلا تپه شرقی"
855401,14.12,-89.73,"mountain","آتشفشان چینگو"
862535,-30.1833,-53.0333,"","آبشار کاراکول"
663030,31.9018,54.3481,"landmark","آب‌انبار دولت‌آباد"
660813,35.5723,53.396,"landmark","آرامگاه امامزاده سیدکاظم پرور (سمنان)"
863351,40.948,-4.1177,"","آب‌گذر سگوبیا"
863851,41.9417,12.5018,"landmark","آنینه"
262394,37.8175,55.4706,"city","آی‌تمر"
658606,28.922,50.8331,"landmark","آرامگاه شیخ حسین چاهکوتاهی"
658666,36.6709,48.4851,"landmark","آرامگاه مجتهدی"
670088,34.65,50.8833,"landmark","آب‌انبار پاسنگان ۲"
670090,34.65,50.8833,"landmark","آب‌انبار یزدی ها"
670091,34.65,50.8833,"landmark","آب‌انبار وادی السلام"
670093,34.65,50.8833,"landmark","آب‌انبار امامزاده حمزه"
658791,29.5743,52.6034,"landmark","آرامگاه سیبویه"
670661,34.65,50.8833,"landmark","آب‌انبار پاسنگان ۱"
670662,34.65,50.8833,"landmark","آب‌انبار چهاربرج"
658944,34.65,50.8833,"landmark","آرامگاه شاهزاده اسماعیل"
476261,8.91667,119.917,"isle","آب‌سنگ مرجانی توباتا"
262706,37.3967,55.2258,"city","آبادان‌تپه"
668625,31.9062,54.3603,"landmark","آب‌انبار محمودآباد (یزد)"
252129,30.7033,52.4833,"city","آب باریک"
262352,37.6642,55.1797,"city","آق‌بند"
262688,37.3111,55.2475,"city","آق‌آباد"
253638,36.6483,53.0775,"city","آهنگرمحله"
865970,14.756,-91.552,"mountain","آتشفشان سانتا ماریا"
519172,31.9169,35.2611,"landmark","آی (عهد عتیق)"
526305,38.0667,46.2833,"","آرامیان (تبریز)"
532833,37.787,-122.4,"","آزمایشگاه‌های ویکی‌مدیا"
396163,35.5857,51.4344,"","آرامگاه رضا شاه"
635919,34.7517,134.393,"city","آکو، هیوگو"
635910,37.8314,139.229,"city","آگانو، نیگاتا"
635918,34.6631,132.706,"city","آکیتاکاتا، هیروشیما"
635926,32.9833,130.435,"city","آرائو، کوماموتو"
635929,43.7667,142.367,"city","آساهیکاوا، هوکایدو"
635936,32.9483,131.124,"city","آسو، کوماموتو"
635939,34.0789,134.238,"city","آوا، توکوشیما"
883837,35.1833,136.783,"city","آما، آیچی"
235929,43.6169,13.5167,"city","آنکونا"
208242,43.4733,11.87,"city","آرتزو"
640062,40.9167,14.3167,"","آفراگولا"
640063,37.3167,13.5833,"","آگریجنتو"
640069,44.8989,8.20778,"city","آسته"
797435,40.7833,17.2333,"city","آلبروبلو"
486377,36.8022,50.8103,"city","آقامقیم‌محله"
703044,49.5,2.83333,"","آزور"
712877,57,61.4667,"city","آسبست"
296190,37.8161,47.3108,"city","آناقیز"
506595,30.1939,53.1672,"","آرامگاه کورش بزرگ"
677428,36.6538,57.5629,"landmark","آسیاب بالا"
712538,52.65,90.0833,"city","آبازا (شهر)"
712559,53.6833,53.65,"city","آبدولینو"
712560,44.8667,38.1667,"city","آبینسک"
712561,56.2667,90.5,"city","آچینسک"
712562,44.8833,39.1833,"city","آدیگیسک"
712563,55.9,53.9333,"city","آگیدل"
712565,56.5167,53,"city","آگریز"
712566,51.1667,90.6,"city","آک-دوووراک"
712568,48.3,46.15,"city","آختوبینسک"
712569,47.2667,39.8667,"city","آکسای، استان روستوف"
712845,43.0333,44.2167,"city","آلاگیر"
712846,57.85,61.7,"city","آلاپیوسک"
712847,54.85,46.5833,"city","آلاتیر (شهر)"
712848,58.6167,125.4,"city","آلدان، روسیه"
712849,54.5,37.0667,"city","آلکسین"
712854,52.5,82.7833,"city","آلیسک"
712855,54.9,52.3,"city","آلماتیفسک"
712856,55.55,98.6667,"city","آلزامای"
712857,50.2299,136.913,"city","آمورسک"
712858,64.7333,177.517,"city","آنادیر (شهر)"
712859,44.8833,37.3167,"city","آناپا"
712860,56.65,32.2667,"city","آندریپول"
712861,46.7167,142.517,"city","آنیوا"
712862,56.0833,86.0333,"city","آنژرو-سودژنسک"
712863,67.5667,33.4,"city","آپاتیتی"
712864,55.55,37.0667,"city","آپرلفکا"
712865,44.4667,39.7167,"city","آبشرونسک"
712866,56.7,60.8333,"city","آرامیل"
712867,54.85,46.2333,"city","آرداتوف، موردوویا"
712868,43.1667,44.2833,"city","آردون، اوستیای شمالی-آلانیا"
712869,43.3,45.8667,"city","آرگون (شهر)"
712870,51.9333,43.5,"city","آرکاداک"
712871,44.1667,133.267,"city","آرسنیف"
712872,56.0833,49.8833,"city","آرسک"
712873,43.35,132.183,"city","آرتیوم، روسیه"
712874,54.35,93.4333,"city","آرتیوموفسک"
712876,55.4,43.8167,"city","آرزاماس"
712878,55,57.25,"city","آشا (شهر)"
712879,57,86.15,"city","آسینو"
712880,51.8667,45,"city","آتکارسک"
712881,54.85,53.0667,"city","آزناکایفو"
712882,47.1,39.4167,"city","آزوف"
717431,36.2053,57.8116,"","آرامگاه ملا هادی سبزواری"
486530,36.5942,50.8344,"city","آش‌محله"
253854,28.5933,77.2506,"landmark","آرامگاه همایون"
168036,32.106,35.1879,"city","آریل (شهر)"
889067,6.38333,-162.417,"isle","آب‌سنگ کینگمن"
147905,16.8256,96.1503,"landmark","آنگ سان سو چی"
729854,47.25,19.6167,"city","آلبرتیرشا"
730607,48.5167,38.5833,"","آلمازنا"
729932,41.2667,-8.08333,"city","آمارانته، پرتغال"
730472,47.79,38.48,"city","آموروسیئیفکا"
729606,34.95,33.5833,"city","آرادیپو"
730564,48.4403,38.7422,"","آرتمیفسک، استان لوهانسک"
730598,48.6167,38.4667,"city","آرتموفه"
729620,35.0667,33.5333,"city","آتیه‌نو"
729527,38.7167,69.7167,"city","آب‌گرم (تاجیکستان)"
730270,48.1192,39.09,"","آنتراتسیت"
492408,35.6608,139.738,"","آزادراه‌های توکیو"
495606,35.6973,139.772,"","آکیهابارا"
754614,38.0086,-121.771,"landmark","آدم‌ربایی جیسی دوگارد"
494475,36.9953,54.7014,"city","آزادتپه"
5354,27.0867,54.4906,"city","آسو (شهرستان بستک)"
5354,27.0853,54.4964,"","آسو (شهرستان بستک)"
494368,33.6433,49.4072,"city","آشورآباد"
254146,37.3633,55.6111,"city","آق‌قمیش"
259282,36.1677,54.3528,"","آرامگاه پیرعلمدار"
903046,21.8808,-102.296,"","آگوئاسکالینتس (شهر)"
541543,49.9503,-98.9361,"city","آستین، مانیتوبا"
18422,38.6167,-9.11667,"","آمورا، پرتغال"
172880,27.6861,54.3344,"","آرامگاه مادر نادرشاه"
658849,34.8152,60.3452,"","آثار تاریخی سوران"
171725,28.1489,53.5278,"","آتشکده کاریان"
92157,33,47.4167,"city","آبدانان"
203605,36.6338,55.0693,"","آرامگاه شیخ ابوالحسن خرقانی"
90527,38.2483,48.2915,"","آرامگاه شیخ صفی‌الدین اردبیلی"
792307,40.2533,116.217,"landmark","آرامگاه دودمان مینگ"
644599,51.3167,4.98333,"city","آود-تورنهاوت"
920119,36.9366,60.3759,"","آرامگاه ابوسعید ابوالخیر (ترکمنستان)"
650338,34.9892,58.8489,"","آرامگاه منسوب به ابوسعید ابوالخیر"
92017,29.3597,51.0728,"","آب‌پخش"
142156,33.8613,46.453,"","آسمان‌آباد"
142156,33.8612,46.4529,"","آسمان‌آباد"
92017,29.359,51.072,"","آب‌پخش"
307538,37.0944,46.6964,"city","آلاچیق (روستا)"
656259,36.5604,61.1568,"landmark","آرامگاه بابا لقمان"
186567,33.8361,-117.89,"","آناهایم"
434744,33.4837,-48.3516,"","آرامگاه باباطاهر (خرم‌آباد)"
387646,33.2311,-86.8239,"city","آلاباستر، آلاباما"
702610,25.1309,55.1172,"landmark","آتلانتیس، دبی"
938448,29.9886,52.8719,"","آرامگاه خشایارشا"
938486,29.9886,52.8719,"","آرامگاه اردشیر یکم"
938518,29.9886,52.8719,"","آرامگاه داریوش دوم"
940801,52.6269,59.5611,"landmark","آرکائیم"
943498,19.8542,-155.152,"landmark","آبشار آکاکا"
943521,44.2417,-110.944,"","Iris Falls"
943509,35.2934,-82.7971,"","آبشار اسلیک راگ"
943481,64.023,-16.975,"","آبشار اسوارتیفوس"
943463,51.7333,-120.017,"","آبشار اسپاهاتس کریک"
943480,63.5297,-19.5139,"waterbody","آبشار اسکگوافوس"
943479,64.2664,-21.1217,"waterbody","آبشار اوکسارارفوس"
943449,42.7275,25.0256,"","آبشار بابسکو پراسکالو"
943487,28.1333,-108.25,"landmark","Basaseachic Falls"
943450,43.1531,23.505,"waterbody","آبشار براو کامک"
943440,-24.8437,30.8425,"landmark","آبشار برلین"
943505,35.0722,-83.229,"","آبشار بریدال ویل"
943438,37.7168,-119.647,"landmark","آبشار بریدال ویل (آمریکا)"
943496,37.9192,-107.77,"landmark","آبشار بریدال ویل (تلورید)"
943536,-37.9083,174.896,"landmark","آبشار بریدال ویل (نیوزلند)"
943515,47.7895,-121.569,"","آبشار بریدال ویل (واشنگتن)"
943462,45.9006,-82.2556,"landmark","آبشار بریدال ویل (کانادا)"
943527,-18.2238,145.54,"landmark","آبشار بلنکو"
943519,44.8936,-110.387,"","آبشار تاور"
943504,42.545,-76.606,"waterbody","Taughannock Falls"
943497,34.5961,-83.36,"","آبشار توکئوا"
943510,43.2632,-122.431,"landmark","آبشار توکتی"
943474,60.1367,6.75444,"landmark","آبشار تیسس ترنگن"
943446,14.229,74.8122,"","آبشار جاگ"
943526,-13.2725,132.84,"waterbody","آبشار جیم جیم"
943523,-30.34,152.712,"city","Dorrigo"
943506,35.7265,-82.3796,"","آبشار داگلاس"
943489,34.55,-85.59,"","آبشار دتسوتو"
943513,35.1056,-82.6608,"","آبشار راون کلیف (کارولینای جنوبی)"
943038,47.6794,8.61639,"waterbody","آبشار راین"
943494,37.7358,-119.648,"","آبشار ریبون"
943499,19.7192,-155.109,"landmark","آبشار رینبو"
943535,-35.2146,173.942,"","آبشار رینبو (نیوزلند)"
943476,59.8669,8.47917,"waterbody","آبشار ریوکان فوسن"
943482,63.6158,-19.9928,"waterbody","آبشار سلیالاندفوس"
943032,45.6494,-120.978,"landmark","آبشار سلیلو"
943468,51.7967,-3.66321,"","آبشار سگود هنرهید"
943430,1.33778,34.3794,"landmark","آبشار سیپی"
943457,2.91667,98.5333,"","آبشار سیپی‌سوپیسو"
943453,36.5753,137.523,"landmark","آبشار شومیو"
943472,52.5342,-3.6624,"landmark","آبشار فرود فاور"
943538,-12.6028,-41.4478,"","آبشار فوماچا"
943492,39.6429,-121.274,"","آبشار فیئدر"
943525,-34.65,150.483,"city","آبشار فیتزوری"
943483,10.4409,-84.6764,"waterbody","آبشار لا فرتونا"
943484,10.2017,-84.1615,"waterbody","آبشار لا پاز"
943451,6.9,80.5,"landmark","آبشار لاکزاپانا"
943507,35.2963,-82.7684,"","آبشار لوکینگ گلاس"
943442,24.6392,92.2211,"city","آبشار مادهابکوندا"
943478,62.4711,8.12,"waterbody","آبشار ماردولافوسن"
943477,58.8438,6.3685,"","آبشار مانافوسن"
943471,51.7014,-3.7008,"landmark","آبشار ملینکورت"
943508,35.3115,-82.7774,"","آبشار مور کاو"
943522,44.1522,-110.672,"","Moose Falls"
943439,-25.0003,30.8164,"landmark","آبشار مک-مک"
943493,36.1586,-121.672,"","آبشار مک‌وی"
943454,33.672,135.891,"","آبشار ناچی"
943490,34.0415,-86.0213,"","آبشار نوکالولا"
943473,54.3211,-2.20222,"","آبشار هاردرو فورس"
943456,36.5753,137.523,"landmark","آبشار هانوکی"
943532,-38.6572,143.58,"waterbody","آبشار هاپتون"
943464,51.9541,-120.177,"waterbody","Helmcken Falls"
943465,52.275,-125.771,"","آبشار هونلن"
943511,43.2415,-122.39,"landmark","آبشار واتسون"
943447,59.4439,27.3353,"","آبشار والاست"
943531,-18.5922,145.802,"waterbody","آبشار والامن"
943537,-37.734,175.88,"landmark","آبشار وایرر"
943495,37.7274,-119.544,"","آبشار ورنال"
943035,45.3524,-122.618,"landmark","آبشار ویلامت"
943516,46.6636,-118.224,"","آبشار پالئوس"
943467,52.1817,-117.056,"","Panther Falls"
943459,69.2008,21.2794,"waterbody","آبشار پیتسوس‌کانگاس"
943517,46.8016,-121.799,"","آبشار پیرل"
943470,52.855,-3.37854,"landmark","آبشار پیستیل رایدر"
943460,49.7139,-57.6647,"","آبشار پیسینگ مار"
943485,16.0456,-61.6522,"","آبشار کاربت"
943441,-8.59639,31.2403,"waterbody","آبشار کالامبو"
943461,48.4029,-89.6256,"","آبشار کاکابکا"
943033,48.6393,-118.109,"","آبشار کتل"
943514,35.6664,-85.3566,"waterbody","آبشار کریک"
943540,5.51667,-61.9333,"airport","آبشار کوکوئنان"
943529,-28.34,152.373,"waterbody","آبشار کوین ماری"
943455,36.7381,139.503,"waterbody","آبشار کگون"
943024,-24.0731,-54.2836,"landmark","آبشار گئوائیرا"
943520,44.7128,-110.5,"","آبشار یلو استون"
943518,47.5419,-121.837,"waterbody","آبشاراسنوکوالیم"
943469,53.1098,-4.03534,"landmark","آبشار دویل آپندیکس"
614069,41.3656,-85.0564,"","آبرن، ایندیانا"
615016,39.0586,-84.9036,"","آرورا، ایندیانا"
540979,38.7333,-85.8,"","آستین، ایندیانا"
943528,-17.4956,145.61,"landmark","آبشار میلا میلا"
387651,21.376,-26.6178,"","آلیسویل"
387713,34.0097,-86.0983,"","آتالا"
387712,31.0231,-87.4919,"","آتمور"
387712,41.7383,-82.8812,"","آتمور"
387652,15.1033,-86.9313,"","آلگود"
387650,12.8009,-148.248,"city","آلکساندریا (آلاباما)"
387650,33.7658,-85.8842,"","آلکساندریا (آلاباما)"
387649,15.5846,-156.851,"","آلکساندر سیتی"
387649,32.9331,-85.9361,"","آلکساندر سیتی"
387654,52.165,-54.3078,"","آلتونا (آلاباما)"
387654,34.0292,-86.2386,"","آلتونا (آلاباما)"
387698,13.194,-162.431,"","آتن (آلاباما)"
387698,34.7897,-86.9694,"","آتن (آلاباما)"
387716,72.3883,-109.755,"","آتوگاویل"
387716,32.4325,-86.6533,"","آتوگاویل"
387713,19.7633,-172.622,"city","آتالا"
387623,9.87318,-159.054,"","آدامزویل (آلاباما)"
387623,33.5903,-86.9492,"","آدامزویل (آلاباما)"
387644,33.6803,-30.5118,"","آدیسون (آلاباما)"
387644,34.2,-87.1778,"","آدیسون (آلاباما)"
387686,16.4849,-141.398,"","آردمور (آلاباما)"
387686,34.9869,-86.8433,"","آردمور (آلاباما)"
387689,13.9232,-35.998,"","آرلی"
387689,34.0814,-87.2108,"","آرلی"
387687,11.7032,-86.2528,"","آرگو (آلاباما)"
387687,33.7003,-86.5122,"","آرگو (آلاباما)"
387688,10.0011,-120.644,"","آریتون"
387688,31.5983,-85.7189,"","آریتون"
946080,36.4009,-80.2595,"","آبشار ویندو (هانگینگ راک)"
944613,35.2997,138.352,"","آبشار آب گریت"
946087,6.95,80.5,"landmark","آبشار آبردین (سری‌لانکا)"
944615,34.9107,-83.4116,"waterbody","آبشار آداهای"
944694,53.0658,-118.897,"","آبشار آرک تومیس"
944698,48.1867,-121.575,"","آبشار آسبستوس"
944697,48.1917,-121.581,"","آبشار آسبستوس کریک"
944699,49.9336,-123.359,"","آبشار آشلو"
944655,37.9536,-122.783,"waterbody","آبشار آلامر"
943868,50.2167,-123.983,"","آبشار آلفرد کریک"
944659,46.3929,-86.6472,"landmark","Alger Falls"
944688,34.9834,-83.2668,"waterbody","آبشار آمونس کریک"
944687,34.564,-84.2396,"waterbody","آبشار آمیکالولا"
944692,34.7576,-83.7102,"waterbody","آبشار آنا روبی"
944690,51.5167,-116.5,"","آبشار آنجل استیرکیس"
944689,43.24,-79.9631,"landmark","آبشار آنکاستر"
944691,-38.7422,177.162,"","آبشار آنیوانیوا"
945825,46.7972,-121.707,"","آبشار آپر استیونز کریک"
945826,47.4452,-121.694,"waterbody","آبشار آپر توین"
945821,44.1878,-111.33,"","آبشار آپر مزا"
945828,35.0358,-83.0175,"waterbody","آبشار آپر وایت واتر"
945827,47.4332,-121.645,"landmark","آبشار آپر ویکز"
945819,46.7994,-121.778,"","آبشار آپر کامت"
944693,-31.0502,151.77,"landmark","آبشار آپسلی"
944616,46.4808,-89.091,"waterbody","Agate Falls"
944618,11.17,78.4,"landmark","آبشار آگایا گانگای"
944701,-28.5914,20.3408,"landmark","آبشار آیوگرابیس"
944844,-30.4023,152.342,"waterbody","آبشار ابور"
944853,42.8242,24.0386,"","آبشار اتروپول"
946218,41.1174,-75.01,"landmark","آبشار بوشکیل"
946045,48.1,20.6333,"city","آبشار لیلافورد"
946220,41.2306,-74.8867,"","آبشار سیلورترد"
943040,65.8219,-16.3882,"","آبشار دتیفوس"
944738,49.0378,-118.707,"","آبشار باندری (بریتیش کلمبیا)"
955824,25.1952,55.2751,"","آب‌نمای دبی"
957171,37.7561,47.4459,"","آغ داغ"
252474,35.2473,60.6295,"landmark","آرامگاه شیخ‌احمد جامی"
958093,41.7833,-2.76667,"city","آبخار"
233447,39.8833,30.7,"","آنتالیا"
961370,-2.4,35.5,"city","آرش (تانزانیا)"
961388,-3.35,35.55,"city","آلدینی"
22200,-3.37236,36.6945,"landmark","Arusha Clocktower"
22200,3.37236,36.6945,"","آروشا (شهر)"
202598,51.4333,5.46667,"","آیندهوون"
52936,34.0578,51.4842,"","آران و بیدگل (شهر)"
970184,50.5686,-2.45333,"landmark","آکادمی ملی قایقرانی بادبانی ویموت و پورتلند"
970499,41.5203,48.6964,"","آلکساندرفکا، خاچماز"
671845,35.5873,51.4308,"landmark","آرامگاه عباس‌آباد"
979745,27.2283,-75.8833,"","Freedom 7"
978821,29.3381,56.7283,"landmark","آبشار بنگان"
152926,38.9729,-76.5012,"","آناپولیس"
26268,48.2356,16.4142,"landmark","آژانس بین‌المللی انرژی اتمی"
361882,29.1,51.1231,"city","آبطویل"
1007863,-1.46917,-78.8175,"mountain","آتشفشان چیمبورازو"
1046529,13.813,-89.633,"mountain","آتشفشان ایزالکو"
946072,36.255,-112.698,"","آبشار هاواسو"
257246,38.2194,48.0532,"city","آتشگاه (اردبیل)"
957015,30.1364,52.1554,"city","آب‌نو"
957038,37.3071,49.3325,"city","آق‌مهدی"
957049,35.3759,58.0363,"city","آهوبم"
446641,31.9006,51.1144,"city","آق‌بلاغ (بروجن)"
386041,48.8381,2.32694,"landmark","آلفرد درفو"
1057070,39.0669,48.0758,"city","آرانچی"
1057210,38.4393,47.7277,"city","آلنی"
1056972,35.7513,51.2278,"city","آل‌هاشم علیا"
753484,28.5195,52.8189,"city","آب بیدک"
753674,29.2997,52.8561,"city","آب شیخک"
1059582,10.438,-84.687,"mountain","Chatito volcano"
288236,37.785,46.9044,"city","آلانق"
288236,38,46.42,"","آلانق"
1060035,21.9833,-79.0333,"isle","آنتیل بزرگ"
1060053,14.2333,-61.35,"isle","آنتیل کوچک"
665970,34.65,50.8833,"landmark","آب‌انبار مبارک‌آباد"
1056529,42.9317,-76.5647,"city","آبورن، نیویورک"
1055588,37.4586,-122.2,"city","آترتون، کالیفرنیا"
1055567,34.5761,-117.433,"city","آدلانتو، کالیفرنیا"
1055585,33.8672,-118.081,"city","آرتسیا، کالیفرنیا"
1058232,30.2915,-87.562,"","آرنج بیچ، آلاباما"
1055584,35.1208,-120.587,"city","آرویو گراند، کالیفرنیا"
1055594,34.1306,-117.907,"city","آزوسا، کالیفرنیا"
1055574,41.4872,-120.543,"","آلتوراس، کالیفرنیا"
1055573,33.575,-117.726,"city","آلیسو ویجو، کالیفرنیا"
1055580,38.005,-121.806,"city","آنتیوچ، کالیفرنیا"
1055579,38.0683,-120.54,"city","آنجلس کمپ، کالیفرنیا"
1055578,40.4521,-122.297,"city","آندرسون، کالیفرنیا"
1055592,33.4047,-118.416,"","آوالون، کالیفرنیا"
1055590,38.8987,-121.074,"city","آوبرن، کالیفرنیا"
1055593,36.0042,-120.121,"city","آونال، کالیفرنیا"
1062532,42.81,74.38,"","آق‌سو، قرقیزستان"
1058233,32.3056,-87.2453,"","آویل، آلاباما"
1056416,34.0999,-117.647,"","آپ لند، کالیفرنیا"
1058231,31.2831,-86.2547,"","آپ، آلاباما"
1058235,33.5971,-80.8389,"city","آکسفورد، آلاباما"
1058136,33.5319,-86.6868,"","آیرندیل، آلاباما"
1056185,34.1125,-117.964,"city","آیرویندل، کالیفرنیا"
1056186,38.1619,-121.609,"city","آیسلتون، کالیفرنیا"
1056184,38.3528,-120.933,"city","آیون، کالیفرنیا"
803469,14.465,-90.7431,"mountain","آتشفشان آگوا"
1064589,35.4583,50.4597,"city","آغذی‌گنگ"
1064589,35.27,50.27,"","آغذی‌گنگ"
1064594,35.26,50.1231,"city","آزادگین"
1064594,35.15,50.07,"","آزادگین"
1064614,35.3769,49.9533,"city","آجان"
1064614,35.22,49.57,"","آجان"
1064893,53.255,158.83,"mountain","آواچینسکی"
1056529,42.9333,-76.5667,"city","آبورن، نیویورک"
1056416,34.1,-117.65,"","آپ لند، کالیفرنیا"
1055587,35.4842,-120.673,"city","آتاسکادرو، کالیفرنیا"
1055588,37.4586,-122.2,"","آترتون، کالیفرنیا"
1055589,37.3478,-120.609,"","آتواتر، کالیفرنیا"
1055583,40.8664,-124.083,"","آرکاتا، کالیفرنیا"
1055582,34.1328,-118.036,"","آرکادیا، کالیفرنیا"
1057607,48.1811,-122.139,"city","آرلینگتون، واشینگتن"
1055586,35.2092,-118.828,"","آروین، کالیفرنیا"
1055568,37.7561,-122.274,"","آلامدا، کالیفرنیا"
1055572,34.0819,-118.135,"city","آلهامبرا، کالیفرنیا"
1055578,40.4522,-122.297,"","آندرسون، کالیفرنیا"
1055592,33.3408,-118.328,"landmark","آوالون، کالیفرنیا"
1055590,38.8986,-121.074,"","آوبرن، کالیفرنیا"
1055593,36.0042,-120.129,"","آونال، کالیفرنیا"
542429,36.1653,58.8213,"","آرامگاه و مسجد محمد محروق"
1058136,33.5319,-86.6869,"","آیرندیل، آلاباما"
1058235,33.5971,-85.8389,"","آکسفورد، آلاباما"
58522,48.8333,10.1,"city","آلن (شهر)"
235854,49.4444,11.8483,"city","آمبرگ"
636784,48.9,9.13333,"city","آسپبرگ"
636789,50.5094,12.4,"city","آورباخ (ووگتلند)"
637152,49.7236,10.0008,"city","آیبل‌اشتات"
637154,48.8919,11.1839,"city","آیش‌استت"
638114,50.8617,13.1672,"city","آئدرن"
1068886,39.8197,46.7789,"","آفاتلو"
1068887,40.4708,50.3217,"","آرتیوم"
1068888,39.4444,45.2786,"","آزنابیورت"
1068909,39.1103,45.9139,"","آغ‌دره (نخجوان)"
1069902,14.3078,-89.9919,"mountain","آتشفشان فلورس"
1070097,14.4828,-90.8828,"mountain","آتشفشان فوئگو"
1068924,43.65,51.15,"","آقتائو، قزاقستان"
1068925,50.2833,57.1667,"","آقتوبه، قزاقستان"
1068926,50.2481,66.9278,"city","آرقالیق، قزاقستان"
1068927,47.1167,51.8833,"","آتیرائو، قزاقستان"
934226,29.9889,52.8747,"","آرامگاه داریوش بزرگ"
1072014,42.6242,-73.1181,"","آدمز، ماساچوست"
1072017,42.2356,-73.4139,"","آلفورد، ماساچوست"
1072019,42.8583,-70.9306,"","آمسبری، ماساچوست"
1072022,41.3344,-70.7958,"city","آکوینا، ماساچوست"
1072023,42.4153,-71.1569,"city","آرلینگتون، ماساچوست"
1072034,42.1306,-71.0417,"","آون، ماساچوست"
1072035,42.5611,-71.5903,"","آیر، ماساچوست"
1072249,42.7008,-73.1092,"","آدمز شمالی، ماساچوست"
1072267,42.1167,-71.8653,"","آکسفورد، ماساچوست"
1076982,18.15,-15.9667,"country","آزاواد"
1072346,42.1744,-71.6028,"","آپتون، ماساچوست"
205903,27.18,78.02,"city","آگره"
648039,13.12,80.1,"city","آوادی"
648036,14.68,77.6,"city","آنانتاپور"
648037,25.34,84.4,"city","آرا"
648033,19.209,73.186,"city","آمبارنات"
729605,35.1833,33.3333,"city","آگیوس دومتیوس"
729608,34.7089,33.0439,"city","آگیوس آثاناسیوس"
729623,35.0356,33.8392,"city","آوگورو"
1077263,43.9572,-89.8175,"city","آدمز، ویسکانسین"
1077265,44.6083,-87.4422,"","آلگوما، ویسکانسین"
1077266,44.34,-91.9244,"","آلما، ویسکانسین"
1077267,44.8042,-91.4422,"city","آلتونا، ویسکانسین"
1077268,45.3097,-92.3628,"city","آمری، ویسکانسین"
1077271,44.2519,-91.495,"city","آرکادیا، ویسکانسین"
1077272,46.59,-90.88,"","آشلند، ویسکانسین"
1077273,44.6797,-91.1228,"city","آگوستا، ویسکانسین"
1077453,43.0081,-88.0183,"city","آلیس غربی، ویسکانسین"
648038,23.68,86.98,"landmark","آسانسول"
150770,41.3927,-73.9584,"edu","آکادمی نظامی وست‌پوینت"
156484,41.8319,-88.2572,"landmark","آزمایشگاه فرمی"
156851,-30,25,"country","آفریقای جنوبی"
156851,0.316667,32.5833,"country","آفریقای جنوبی"
158290,42.6598,-73.7813,"city","آلبانی، نیویورک"
158290,42.6526,-73.7573,"","آلبانی، نیویورک"
666695,34.8028,50.5071,"landmark","آب‌انبار روستای باقرآباد"
288095,31.238,51,"","آبشار آتشگاه"
1097759,-36.0833,146.917,"city","آلبری"
58527,48.6333,8.06667,"city","آخرن"
636752,53.6747,10.2411,"city","آرنزبورگ"
1100982,40.7333,70.4333,"city","آشابه"
943500,22.0378,-159.382,"","آبشار وایلوا"
1101377,-22.57,17.0836,"","آفریقای جنوب باختری آلمان"
1072448,-27.4,-56.9,"city","آیولاس"
1072450,-25.2953,-57.4147,"","آرگوآ"
1102542,37.6689,-121.874,"edu","آمادور ولی (دبیرستان)"
1069370,-36.7833,-59.85,"","آسول"
1069393,-31.6667,-64.4333,"city","آلتا گراسیا"
1069404,-34.65,-58.6,"","آئدو"
1069426,-27.4333,-65.6167,"city","آییلارس"
91871,35.5534,49.2352,"","آوج"
91866,35.7548,49.2984,"","آبگرم (شهر)"
1109261,40.4278,69.3047,"","آب‌بردان"
1111829,28.6614,-81.3919,"","آلتامونت اسپرینگز، فلوریدا"
1111834,30.5717,-85.1275,"city","آلثا، فلوریدا"
1111838,27.5303,-82.7344,"","آنا ماریا، فلوریدا"
1111839,29.7253,-84.9925,"","آپالاچیکولا، فلوریدا"
1111840,28.6761,-81.5106,"","آپوپکا، فلوریدا"
1111841,27.2167,-81.8667,"","آرکادیا، فلوریدا"
1109690,1.37017,103.846,"city","آنگ مو کیو"
1115169,43.9457,12.4185,"","آکووا ویوا (سن مارینو)"
1115077,46.3728,96.2572,"","آلتای، مغولستان"
8075,43.2775,76.8958,"","آلماآتی"
668746,35.12,57.54,"","آب‌انبار باب الحکم"
668749,35.09,58.02,"","آب‌انبار رکن‌آباد"
668760,35.09,57.56,"","آب‌انبار خرم آباد"
662244,35.0933,57.5622,"","آب‌انبار کوشه"
666538,35.15,57.57,"","آب‌انبار سید باقر"
1117390,42.0167,24.8667,"","آسنوفگراد"
1117405,42.7,27.25,"","آیتوس"
1117462,41.5833,25.1333,"","آردینو"
1117480,43.25,27.8167,"","آکساکووو"
635504,43.5808,7.1239,"city","آنتیب"
635505,48.7539,2.2975,"city","آنتونی، او-دو-سن"
635502,45.6489,0.1608,"city","آنگولم"
1169929,40.1564,-76.2039,"city","آکرون، پنسیلوانیا"
1172236,2.32,-76.4,"mountain","آتشفشان پوراسه"
1172508,0.949,-77.888,"mountain","آتشفشان کومبال"
1056528,42.9433,-74.1903,"","آمستردام، نیویورک"
1173139,2.108,-76.592,"mountain","آتشفشان سوتارا"
1179396,8.808,-82.543,"mountain","آتشفشان بارو"
657652,31.8861,54.3744,"","آب‌انبار رستم گیو"
1219904,1.08333,-77.6833,"mountain","آسوفرال"
1222538,-24.2872,-67.7928,"mountain","آراکار"
1223320,46.7136,8.18306,"waterbody","آبشار رایشنباخ"
1223715,52.0242,-116.37,"","آبشار سفلر"
1223709,50.8678,-114.779,"river","Elbow Falls"
1237449,29.3231,51.9458,"city","آقچه کهریز"
729824,47.1894,20.0097,"","آبنی"
206781,13.4333,103.833,"","آنگکور"
292245,33.1344,53.3167,"city","آبچوئیه"
292245,32.685,52.79,"","آبچوئیه"
730711,46.1667,21.3167,"","آراد (رومانی)"
1251541,5.206,-75.364,"mountain","آتشفشان رومرال"
1223656,35.8928,14.4383,"city","آتارد"
233447,38.758,30.5387,"","آنتالیا"
214469,37.0333,-2.61667,"","آلبولودوی"
214470,37.3833,-2.13333,"","آلبوکس"
214473,37.2333,-2.26667,"","آلکودیا د مونتئاگود"
214474,37.3333,-2.58333,"","آلکونتار"
214475,36.9833,-2.58333,"","آلابیا"
214476,36.95,-2.56667,"","آلاما د آلمریا"
214478,37,-2.78333,"","آلموسیتا"
1259492,14.5833,-91.1861,"mountain","آتشفشان آتیتلان"
214482,37.35,-2.4,"","آرمونیا د آلمانسورا"
1260566,15.1325,-92.1086,"mountain","آتشفشان تاکانا"
1260161,14.03,-90.1,"mountain","آتشفشان مویوتا"
1259841,14.6133,-91.1894,"mountain","آتشفشان تولیمان"
854776,14.55,-89.63,"mountain","آتشفشان ایپالا"
1261332,50.0617,19.9433,"landmark","آکادمی موسیقی در کراکوف"
1261627,12.55,-86.75,"mountain","آتشفشان روتا"
1261584,12.602,-86.843,"mountain","آتشفشان تلیکا"
224641,33,48,"","آبشار بیشه"
644205,50.8333,4.33333,"city","آندرلشت"
1262855,55.7536,37.6197,"landmark","آرامگاه لنین"
1262988,36.5643,-121.943,"","آلن شپارد"
236104,47.4736,-0.5542,"city","آنژه"
236104,47.4736,-0.554167,"city","آنژه"
1265494,14.5008,-90.8758,"mountain","آکاتنانگو"
1266775,15.0436,-91.9033,"mountain","آتشفشان تاخومولکو"
1267238,38.0833,21.8333,"","آخا"
314230,29.6298,52.5614,"","آرامگاه شاه‌شجاع"
329153,29.3776,52.1509,"","آبشار کوهمره سرخی"
214159,38.7944,-0.4025,"city","آلکوسر د پلانس"
1268718,13.595,-88.8369,"mountain","آتشفشان سن ویسنته"
1269095,13.275,-87.845,"mountain","آتشفشان کونچاگوا"
416961,36.6032,47.236,"","آتشکده آذرگشنسب"
1269503,13.8531,-89.63,"mountain","آتشفشان سانتا آنا"
1269907,40.6833,37.4,"","آی‌باستی"
1269966,41.3333,41.3,"","آرهاوی"
1269967,41.1833,41.8181,"","آرتوین"
1269974,38.3667,34.0333,"","آق‌سرای"
1269977,40.65,35.8333,"","آماسیه (شهر)"
1270018,37.8833,28.2167,"","آتچه"
1270037,39.5823,26.7393,"","آلتینولوک"
1270039,39.3194,26.6944,"","آیوالیک"
1270077,41.0167,39.55,"","آقچه‌آباد"
1270131,39.6,26.4,"","آیواجیک"
1270138,40.1683,34.8425,"","آلاجه"
1270191,41.1833,40.8167,"","آردشن"
1270196,41.1833,31.3833,"","آلاپلی"
1270205,41.6,35.5833,"","آلاچام"
1270222,41.95,34.5833,"","آیانجیک"
1270234,36.711,38.948,"","آک‌چاکاله"
1270249,37.4247,37.6928,"","آرابان"
1270269,37.5764,36.3506,"","آندیرلین"
1270287,38.35,31.4167,"","آق‌شهر"
1270341,38.9167,27.8333,"","آق‌حصار"
1270354,36.0167,32.8,"","آنامور"
1270364,38.345,37.9686,"","آقچه‌داغ"
1270397,38.7167,34.85,"","آوانوس"
1270415,39.6667,35.8833,"","آقداغ‌معدنی"
1268791,13.434,-88.269,"mountain","آتشفشان سان میگل"
1273181,37.1,57.5,"","آقچ"
1273181,37.0733,57.5072,"","آقچ"
1068390,34.3,35.8,"city","أمیون، لبنان"
802,34.5167,69.1333,"country","افغانستان"
963,41.2667,69.2167,"country","ازبکستان"
1521,40.1833,44.5167,"country","ارمنستان"
2209,41.9,12.4833,"country","ایتالیا"
6752,52.5167,13.4,"country","اسپانیا"
6836,9.01667,38.7333,"country","اتیوپی"
6840,-0.15,-78.35,"country","اکوادور"
6841,13.6667,-89.1667,"country","السالوادور"
6959,55.95,-3.2,"country","اسکاتلند"
6963,17.9667,102.6,"country","اندونزی"
6969,50.45,30.5,"country","اوکراین"
6974,53.3333,-18.0667,"country","ایرلند"
7057,48.15,17.1167,"country","اسلواکی"
7059,59.4167,24.75,"country","استونی"
7060,59.35,18.0667,"country","اسلوونی"
7099,0.316667,32.5833,"country","اوگاندا"
7282,6.91667,158.15,"country","ایالات فدرال میکرونزی"
350569,42.3833,-2.53333,"city","انترنا"
395917,-34.8833,-58.1667,"country","اروگوئه"
407143,41.25,74.8,"","الگو:روی نقشه قرقیزستان"
407163,41.25,74.8,"","الگو:Location map Kyrgyzstan"
407798,43.4833,-79.3833,"","الگو:Coord/توضیحات"
407798,35,105,"","الگو:Coord/توضیحات"
407798,52.4667,-1.91667,"city","الگو:Coord/توضیحات"
407800,0,-90,"","الگو:Coord-doc-dim"
407800,40.5,-82.5,"","الگو:Coord-doc-dim"
407800,51.033,13.73,"","الگو:Coord-doc-dim"
407800,40.6892,-74.0445,"","الگو:Coord-doc-dim"
407800,45.5162,-122.673,"","الگو:Coord-doc-dim"
407802,46.9524,7.4396,"","الگو:Coord-doc-region"
407802,52.5164,13.3775,"","الگو:Coord-doc-region"
442774,39,35.2,"","الگو:Location map Turkey"
483275,-36.95,-71.5,"","الگو:Location map Chile"
8250,15.3333,38.9167,"country","اریتره"
18837,42.6833,23.3167,"country","انتاریو"
50918,43.9667,42.2333,"country","اوستیای جنوبی"
112834,2.33333,1.66667,"country","الجزایر"
144962,31.7167,35.8,"","استان مادبا"
161963,2.33333,1.66667,"country","ایرلند شمالی"
221536,36.2,36.15,"","انطاکیه"
224378,14.1167,38.7333,"city","اکسوم"
251333,48.7,44.5167,"city","الگو:شهرهای روسیه/توضیحات"
251334,48.7,44.5167,"city","الگو:شهرهای روسیه"
296120,0,0,"landmark","الگو:جعبه پل"
317450,48.2,16.35,"country","اتریش"
346637,37.2,126.933,"city","اوسان"
531830,35.6282,139.739,"","ایستگاه شیناگاوا"
528014,35.7155,139.774,"","اوئنو"
498347,35.6651,139.712,"","اوموته‌ساندو"
499207,35.63,139.775,"","اودایبا"
541196,43.4833,-79.3833,"","الگو:Coord/display/inline,title/Print"
541196,35,105,"","الگو:Coord/display/inline,title/Print"
541196,52.4667,-1.91667,"city","الگو:Coord/display/inline,title/Print"
530942,-23.5414,-46.7733,"","اوزاسکو"
541196,43.4844,-79.3833,"","الگو:Coord/display/inline,title/Print"
541196,43.4846,-79.3835,"","الگو:Coord/display/inline,title/Print"
541196,-22.9083,-43.2436,"","الگو:Coord/display/inline,title/Print"
542898,40.2631,-85.6764,"city","الگزندریا، ایندیانا"
230795,51.5567,-0.00527778,"landmark","ایستگاه مترو لیتون"
232965,51.5133,-0.0886111,"landmark","ایستگاه بانک"
232966,51.5174,-0.120111,"landmark","ایستگاه هولبرن"
481364,49.4544,2.11278,"airport","الگو:Infobox airport"
481364,-34.394,-72.0177,"","الگو:Infobox airport"
481364,52.1658,20.9672,"airport","Warsaw Frederic Chopin Airport"
481364,40.08,116.584,"airport","Beijing Capital International Airport"
481364,32.8969,-97.0381,"airport","الگو:Infobox airport"
481364,32.8969,-97.0381,"airport","Dallas-Fort Worth International Airport"
481364,39.8261,-84.0483,"airport","الگو:Infobox airport"
481365,49.4544,2.11278,"airport","الگو:Infobox airport/توضیحات"
481365,-34.394,-72.0177,"","الگو:Infobox airport/توضیحات"
481365,52.1658,20.9672,"airport","Warsaw Frederic Chopin Airport"
481365,40.08,116.584,"airport","Beijing Capital International Airport"
481365,32.8969,-97.0381,"airport","الگو:Infobox airport/توضیحات"
481365,32.8969,-97.0381,"airport","Dallas-Fort Worth International Airport"
481365,39.8261,-84.0483,"airport","الگو:Infobox airport/توضیحات"
481367,49.4544,2.11278,"airport","الگو:جعبه اطلاعات فرودگاه"
481367,-34.394,-72.0177,"","الگو:جعبه اطلاعات فرودگاه"
481367,52.1658,20.9672,"airport","Warsaw Frederic Chopin Airport"
481367,40.08,116.584,"airport","Beijing Capital International Airport"
481367,32.8969,-97.0381,"airport","الگو:جعبه اطلاعات فرودگاه"
481367,32.8969,-97.0381,"airport","Dallas-Fort Worth International Airport"
481367,39.8261,-84.0483,"airport","الگو:جعبه اطلاعات فرودگاه"
232967,51.5422,-0.00333333,"landmark","ایستگاه استراتفورد"
481368,49.4544,2.11278,"airport","الگو:جعبه اطلاعات فرودگاه/توضیحات"
481368,-34.394,-72.0177,"","الگو:جعبه اطلاعات فرودگاه/توضیحات"
481368,52.1658,20.9672,"airport","Warsaw Frederic Chopin Airport"
481368,40.08,116.584,"airport","Beijing Capital International Airport"
481368,32.8969,-97.0381,"airport","الگو:جعبه اطلاعات فرودگاه/توضیحات"
481368,32.8969,-97.0381,"airport","Dallas-Fort Worth International Airport"
481368,39.8261,-84.0483,"airport","الگو:جعبه اطلاعات فرودگاه/توضیحات"
488459,35.6808,139.767,"landmark","ایستگاه توکیو"
232968,51.5272,-0.0555556,"landmark","ایستگاه مترو بثنال گرین"
234637,51.5175,-0.122778,"landmark","ایستگاه مترو موزه بریتانیا"
234638,51.5136,-0.158333,"landmark","ایستگاه مترو ماربل آرچ"
234640,51.5117,-0.175472,"landmark","ایستگاه لانکستر گیت"
234642,51.5104,-0.187222,"landmark","ایستگاه مترو کوئینزوی"
140317,37.3707,-121.964,"landmark","ان‌ویدیا"
407798,43.4844,-79.3833,"","الگو:Coord/توضیحات"
407798,43.4846,-79.3835,"","الگو:Coord/توضیحات"
407798,-22.9083,-43.2436,"","الگو:Coord/توضیحات"
310357,-33.651,151.201,"landmark","الگو:منطقه حفاظت شده"
310357,51.7833,10.5667,"landmark","الگو:منطقه حفاظت شده"
310357,51.9361,-112.961,"landmark","الگو:منطقه حفاظت شده"
347294,-33.651,151.201,"landmark","الگو:منطقه حفاظت شده/توضیحات"
347294,51.7833,10.5667,"landmark","الگو:منطقه حفاظت شده/توضیحات"
347294,51.9361,-112.961,"landmark","الگو:منطقه حفاظت شده/توضیحات"
348519,40.7242,-73.9983,"landmark","اسکلاستیک"
227902,51.5636,-0.279444,"landmark","ایستگاه پارک ومبلی"
227904,51.5542,-0.250278,"landmark","ایستگاه نیدسون"
228383,51.5492,-0.221667,"landmark","ایستگاه ویلسدن گرین"
229111,51.5469,-0.190556,"landmark","ایستگاه همستد غربی"
229112,51.5472,-0.180278,"landmark","ایستگاه فینچلی"
229611,51.5347,-0.174167,"landmark","ایستگاه خیابان جانز وود"
230275,51.4944,-0.0997222,"landmark","ایستگاه قلعه و فیل"
230679,51.7089,0.242778,"landmark","ایستگاه راه آهن آنگار"
230682,51.6717,0.103333,"landmark","ایستگاه مترو تیدون بویز"
230683,51.6453,0.0838889,"landmark","ایستگاه مترو دبدن"
230684,51.6414,0.0552778,"landmark","ایستگاه مترو لاوتون"
230685,51.6267,0.0469444,"landmark","ایستگاه مترو باکهرست هیل"
230687,51.6169,0.0438889,"landmark","ایستگاه مترو رودینگ ولی"
230688,51.6133,0.0922222,"landmark","ایستگاه مترو گرانج هیل"
230785,51.5917,0.0275,"landmark","ایستگاه مترو ساوث وودفورد"
230788,51.5767,0.0661111,"landmark","ایستگاه گرانتس هیل"
230790,51.5808,0.0216667,"landmark","ایستگاه مترو اسنیرزبروک"
230793,51.5756,0.0288889,"landmark","ایستگاه ونستید"
230794,51.5683,0.00833333,"landmark","ایستگاه مترو لیتون‌استون"
407798,43.6512,-79.3833,"","الگو:Coord/توضیحات"
407798,43.65,-79.38,"","الگو:Coord/توضیحات"
407798,55.7522,37.6156,"","الگو:Coord/توضیحات"
407798,39.0981,-94.5873,"","الگو:Coord/توضیحات"
407798,-33.9167,18.4167,"","الگو:Coord/توضیحات"
407798,-22,-43,"","الگو:Coord/توضیحات"
407798,0,-90,"","الگو:Coord/توضیحات"
407798,40.5,-82.5,"","الگو:Coord/توضیحات"
407798,51.033,13.73,"","الگو:Coord/توضیحات"
407798,40.6892,-74.0445,"","الگو:Coord/توضیحات"
407798,45.5162,-122.673,"","الگو:Coord/توضیحات"
407798,46.9524,7.4396,"","الگو:Coord/توضیحات"
407798,52.5164,13.3775,"","الگو:Coord/توضیحات"
407798,0.4,-334.6,"","الگو:Coord/توضیحات"
407798,48.269,-225.99,"","الگو:Coord/توضیحات"
407798,8,-190.5,"","الگو:Coord/توضیحات"
407798,0.674081,23.473,"","الگو:Coord/توضیحات"
407798,14,-65.4,"","الگو:Coord/توضیحات"
407798,-7.5,303,"","الگو:Coord/توضیحات"
407798,1,-49,"","الگو:Coord/توضیحات"
541196,43.6512,-79.3833,"","الگو:Coord/display/inline,title/Print"
541196,43.65,-79.38,"","الگو:Coord/display/inline,title/Print"
541196,55.7522,37.6156,"","الگو:Coord/display/inline,title/Print"
541196,39.0981,-94.5873,"","الگو:Coord/display/inline,title/Print"
541196,-33.9167,18.4167,"","الگو:Coord/display/inline,title/Print"
541196,-22,-43,"","الگو:Coord/display/inline,title/Print"
541196,0,-90,"","الگو:Coord/display/inline,title/Print"
541196,40.5,-82.5,"","الگو:Coord/display/inline,title/Print"
541196,51.033,13.73,"","الگو:Coord/display/inline,title/Print"
541196,40.6892,-74.0445,"","الگو:Coord/display/inline,title/Print"
541196,45.5162,-122.673,"","الگو:Coord/display/inline,title/Print"
541196,46.9524,7.4396,"","الگو:Coord/display/inline,title/Print"
541196,52.5164,13.3775,"","الگو:Coord/display/inline,title/Print"
541196,0.4,-334.6,"","الگو:Coord/display/inline,title/Print"
541196,48.269,-225.99,"","الگو:Coord/display/inline,title/Print"
541196,8,-190.5,"","الگو:Coord/display/inline,title/Print"
541196,0.674081,23.473,"","الگو:Coord/display/inline,title/Print"
541196,14,-65.4,"","الگو:Coord/display/inline,title/Print"
541196,-7.5,303,"","الگو:Coord/display/inline,title/Print"
541196,1,-49,"","الگو:Coord/display/inline,title/Print"
407801,0.4,-334.6,"","الگو:Coord-doc-globe"
407801,48.269,-225.99,"","الگو:Coord-doc-globe"
407801,8,-190.5,"","الگو:Coord-doc-globe"
407801,0.674081,23.473,"","الگو:Coord-doc-globe"
407801,14,-65.4,"","الگو:Coord-doc-globe"
407801,-7.5,303,"","الگو:Coord-doc-globe"
407801,1,-49,"","الگو:Coord-doc-globe"
541196,55.7522,37.6156,"","Moscow"
407798,55.7522,37.6156,"","Moscow"
2679,33.45,49.45,"","ازنا"
3367,35.6517,51.4926,"","افسریه"
6487,33.45,48.35,"","اندیمشک"
7772,37.53,45,"","ارومیه"
11451,31.01,52.71,"","اقلید"
25646,30.75,49.71,"","امیدیه"
57184,35.54,51.2,"","اسلام‌شهر"
91744,30.2621,51.9832,"","اردکان (فارس)"
91869,35.3,51.54,"","اقبالیه"
158866,34.79,48.11,"","اسدآباد (همدان)"
424455,25.2972,60.6039,"","اسکله شهید بهشتی"
7593,0,0,"","اسلام‌آباد"
159278,40.8333,44.2667,"","اسپیتاک"
194182,42.5167,-2.61667,"","السیگو"
217503,47.4333,19.3167,"","اچر"
234976,5,101.117,"","ایپوه"
57113,38.4667,47.0667,"","اهر"
2169,32.65,51.6667,"","اصفهان"
3248,33.4,49.6833,"","الیگودرز"
3260,31.95,35.9333,"country","اردن"
194181,42.5167,-2.61667,"","البورگو/بورخلو"
7100,64.1333,-21.9333,"country","ایسلند"
532225,41.3833,2.18333,"","الگو:جعبه اطلاعات شهر بارسلون"
16047,38.25,48.2833,"","اردبیل"
18804,33.38,52.37,"","اردستان"
40575,33.87,48.25,"","الشتر"
543556,40.1,-85.6815,"city","اندرسون، ایندیانا"
252364,59.9087,10.7478,"landmark","الگو:جعبه بورس/توضیحات"
252363,59.9087,10.7478,"landmark","الگو:جعبه بورس"
238213,35.9939,50.4733,"","احمدآباد (نظرآباد)"
434393,36,53,"","امامزاده عباس"
519134,20.58,29,"","الگو:جعبه اطلاعات زمین‌لرزه/توضیحات"
220391,20.58,29,"","الگو:جعبه اطلاعات زمین‌لرزه"
559843,40.2903,-87.2469,"city","اتیکا، ایندیانا"
560435,49.4544,2.11278,"airport","الگو:جعبه فرودگاه/توضیحات"
560435,40.08,116.584,"airport","Beijing Capital International Airport"
560435,32.8969,-97.0381,"airport","الگو:جعبه فرودگاه/توضیحات"
560435,39.8261,-84.0483,"airport","الگو:جعبه فرودگاه/توضیحات"
596619,33.5833,130.4,"","الگو:Location map Japan"
596619,26.2,127.683,"","الگو:Location map Japan"
607017,9.1,40.5,"","الگو:Location map Ethiopia relief"
607167,11.785,41.025,"","الگو:Location map Ethiopia Afar Region"
607170,9.1,40.5,"","الگو:Location map Ethiopia"
607173,58.8,24.95,"","الگو:Location map Estonia Viljandi County"
607176,58.8,24.95,"","الگو:Location map Estonia Valga County"
349004,0,0,"","الگو:Latlongmap"
614125,51.65,-4.09,"","الگو:Location map Wales Swansea"
614116,48.5,18.5,"","الگو:Location map Western Europe"
614122,51.4049,-3.2703,"","الگو:Location map Wales Vale of Glamorgan Barry"
614132,51.655,-3.735,"","الگو:Location map Wales Neath Port Talbot"
614147,52.4,-4,"","الگو:Location map Wales"
614207,40.1592,-87.2644,"","الگو:Location map USA Indiana Fountain County"
614243,32.6,35.375,"","الگو:Location map Upper Galilee"
614396,62.115,16.7,"","الگو:Location map SwedenCIAx"
614458,46.15,15,"","الگو:Location map Slovenia"
614397,57.98,15.1335,"","الگو:Location map Sweden, 40south"
349007,0,0,"","الگو:Location map Earth"
614746,26.7,30.75,"","الگو:Location map Egypt"
614106,66.2,-90.1,"","الگو:Location map CanadaGeo"
614105,44.45,16.5,"","الگو:Location map Croatia"
614903,45,-45,"","الگو:Location map 270-0-360-90"
614902,33.9,67.65,"","الگو:Location map Afghanistan"
614894,45.625,10.75,"","الگو:Location map Alps"
614784,35,105,"","الگو:Location map China (equirectangular)"
614768,43.2785,16.764,"","الگو:Location map Croatia Central Dalmatia"
614767,45.094,14.6155,"","الگو:Location map Croatia Krk"
614766,43.998,15.154,"","الگو:Location map Croatia Northern Dalmatia"
614764,21.5,-79.5,"","الگو:Location map Cuba"
614763,21.581,-79.5925,"","الگو:Location map Cuba1"
614892,-12.9,-170.5,"","الگو:Location map American Samoa"
614841,42.356,-71.0724,"","الگو:Location map Boston"
614677,-41.15,172.6,"","الگو:Location map New Zealand transparent"
614758,56.1,11.6,"","الگو:Location map Denmark"
615348,57.3063,-4.45908,"","الگو:آموزش سریع الگو coord"
615348,44.112,-87.913,"","الگو:آموزش سریع الگو coord"
407798,57.3063,-4.45908,"","الگو:Coord/توضیحات"
407798,44.112,-87.913,"","الگو:Coord/توضیحات"
541196,57.3063,-4.45908,"","الگو:Coord/display/inline,title/Print"
541196,44.112,-87.913,"","الگو:Coord/display/inline,title/Print"
2718,32.3556,50.8274,"","استان‌های ایران"
2718,32.8462,59.2911,"","استان‌های ایران"
2718,36.3,59.6,"","استان‌های ایران"
2718,37.4524,57.3235,"","استان‌های ایران"
2718,31.5317,49.8803,"","استان‌های ایران"
2718,36.6709,48.4851,"","استان‌های ایران"
2718,35.5723,53.396,"","استان‌های ایران"
2718,29.4546,60.8536,"","استان‌های ایران"
2718,35.6997,51.3381,"","استان‌های ایران"
2718,29.6497,52.5089,"","استان‌های ایران"
2718,36.2668,50.0038,"","استان‌های ایران"
2718,34.6437,50.8906,"","استان‌های ایران"
2718,35.3029,47.0026,"","استان‌های ایران"
2718,30.2803,57.067,"","استان‌های ایران"
2718,34.3465,46.4206,"","استان‌های ایران"
2718,30.6571,51.6003,"","استان‌های ایران"
2718,36.8634,54.4486,"","استان‌های ایران"
2718,37.2234,49.6355,"","استان‌های ایران"
2718,33.4667,48.35,"","استان‌های ایران"
2718,36.5658,53.0597,"","استان‌های ایران"
2718,34.08,49.6772,"","استان‌های ایران"
2718,27.1833,56.2667,"","استان‌های ایران"
2718,34.8065,48.5162,"","استان‌های ایران"
2718,31.8966,54.3607,"","استان‌های ایران"
2718,38.0525,46.285,"","استان‌های ایران"
2718,37.5296,45.0465,"","استان‌های ایران"
2718,38.2465,48.2951,"","استان‌های ایران"
2718,32.6514,51.6792,"","استان‌های ایران"
2718,35.8214,50.9625,"","استان‌های ایران"
2718,33.6385,46.4226,"","استان‌های ایران"
2718,28.922,50.8331,"","استان‌های ایران"
7397,12.3572,-1.53528,"","اوآگادوگو"
2679,33.4557,49.4555,"","ازنا"
3248,33.37,49.67,"","الیگودرز"
91743,31.515,52.1283,"","ایزدخواست"
91744,30.2621,51.9833,"","اردکان (فارس)"
6487,32.46,48.3592,"","اندیمشک"
12610,37.0975,50.1836,"","املش"
18804,33.3725,52.375,"","اردستان"
56985,37.7354,48.9513,"","اسالم"
57113,38.28,47.03,"","اهر"
90157,35.7208,50.3722,"","اشتهارد"
91803,32.3153,54.0112,"","اردکان (یزد)"
91868,35.9228,49.7553,"","اسفرورین"
91870,36.1833,50.05,"","الوند (شهر)"
5615,29.9142,53.3075,"","ارسنجان"
92173,28.8803,51.2728,"","اهرم (شهر)"
93584,30.3306,56.9239,"","اختیارآباد"
141682,30.2403,57.7658,"","اندوهجرد"
141720,34.8053,45.8269,"","ازگله"
16315,37.0492,45.1228,"","اشنویه"
16888,31.9961,50.6564,"","اردل"
141811,36.9658,54.6186,"","انبارآلوم"
141812,37.4525,54.7194,"","اینچه‌برون"
18031,27.2293,53.6082,"","اشکنان"
142171,35.8158,52.5167,"","ارجمند (شهر)"
142182,33.6569,59.7758,"","اسفدن"
142193,35.2506,57.8103,"","انابد"
22472,35.3453,52.0631,"","ایوانکی"
25646,30.8722,49.5411,"","امیدیه"
220927,30.8508,55.3294,"","امین‌شهر"
366259,33.9617,50.0439,"","انجدان"
33382,36.0478,49.8058,"","ارداق"
34998,31.1242,61.4047,"","ادیمی (شهر)"
34999,26.8444,60.1736,"","اسپکه"
51965,33.9036,51.7842,"","ابوزیدآباد"
56984,37.1457,49.3727,"","احمدسرگوراب"
56986,37.11,50.1153,"","اطاقور"
57054,32.555,51.5731,"","ابریشم (شهر)"
57055,32.4406,52.3786,"","اژیه"
57184,35.56,51.26,"","اسلام‌شهر"
411385,18.4314,-64.6231,"","الگو:Navboxes"
411387,18.4314,-64.6231,"","الگو:Navboxes/توضیحات"
432545,29.6172,52.5434,"","الگو:جعبه اطلاعات شهر ایران/توضیحات"
146512,29.6172,52.5434,"","الگو:جعبه اطلاعات شهر ایران"
620826,35.6871,139.738,"","ایچیگایا"
621456,35.5667,139.733,"","اوموری"
7055,-35.3,149.133,"country","استرالیا"
614444,-26,28.125,"","الگو:Location map South Africa Gauteng"
614445,-28.75,27.125,"","الگو:Location map South Africa Free State"
614446,-32.125,26.5,"","الگو:Location map South Africa Eastern Cape"
614447,-28.5,24.6,"","الگو:Location map South Africa"
614448,9.6605,46.006,"","الگو:Location map Somaliland"
614449,5.175,46.2,"","الگو:Location map Somalia"
614450,-8.9,162.4,"","الگو:Location map Solomon Islands"
614451,45.6645,13.94,"","الگو:Location map Slovenia South West"
614452,45.6915,14.9875,"","الگو:Location map Slovenia South East"
614453,46.5115,16.1715,"","الگو:Location map Slovenia Pomurska"
614454,46.4455,15.6225,"","الگو:Location map Slovenia Podravska"
614455,46.0835,13.941,"","الگو:Location map Slovenia North West"
614456,45.691,14.2605,"","الگو:Location map Slovenia Inner Carniola-Karst"
614457,46.0895,14.525,"","الگو:Location map Slovenia Central"
614459,48.7,19.8,"","الگو:Location map Slovakia relief/sandbox"
614460,48.7,19.8,"","الگو:Location map Slovakia relief"
614461,48.7,19.8,"","الگو:Location map Slovakia"
614462,45.75,17,"","الگو:Location map Slohokej League"
614464,18.0688,-63.0625,"","الگو:Location map Sint Maarten"
614465,1.363,104,"","الگو:Location map Singapore"
614466,26.18,68.835,"","الگو:Location map Sindh"
614467,8.5,-11.8,"","الگو:Location map Sierra Leone"
614468,-25.0623,112.209,"","الگو:Location map Shark Bay"
614469,-8.15,51.45,"","الگو:Location map Seychelles"
614470,44,20.95,"","الگو:Location map Serbia"
614471,14.45,-14.45,"","الگو:Location map Senegal"
614472,57.7393,-4.1948,"","الگو:Location map Scotland2"
614473,55.9,-3.61,"","الگو:Location map Scotland West Lothian"
614474,55.99,-4.515,"","الگو:Location map Scotland West Dunbartonshire"
614475,56.265,-4.33,"","الگو:Location map Scotland Stirling"
614476,55.55,-3.85,"","الگو:Location map Scotland South Lanarkshire"
614477,55.3,-4.79,"","الگو:Location map Scotland South Ayrshire"
614478,60.19,-1.425,"","الگو:Location map Scotland Shetland"
614479,55.55,-2.775,"","الگو:Location map Scotland Scottish Borders"
614480,55.86,-4.565,"","الگو:Location map Scotland Renfrewshire"
614481,56.55,-3.875,"","الگو:Location map Scotland Perth and Kinross"
614482,57.65,-7.4,"","الگو:Location map Scotland Outer Hebrides"
614483,59.01,-2.925,"","الگو:Location map Scotland Orkney"
614484,55.895,-3.95,"","الگو:Location map Scotland North Lanarkshire"
614485,55.625,-4.95,"","الگو:Location map Scotland North Ayrshire"
614486,57.4,-3.175,"","الگو:Location map Scotland Moray"
614487,55.85,-3.105,"","الگو:Location map Scotland Midlothian"
614488,61.693,-4.70381,"","الگو:Location map Scotland mainland"
614489,55.885,-4.75,"","الگو:Location map Scotland Inverclyde"
614490,57.6,-4.9,"","الگو:Location map Scotland Highland"
614491,55.861,-4.25585,"","الگو:Location map Scotland Glasgow Central"
614492,55.835,-4.23,"","الگو:Location map Scotland Glasgow"
614493,56.2,-3.15,"","الگو:Location map Scotland Fife"
614494,56.03,-3.765,"","الگو:Location map Scotland Falkirk"
614495,55.9477,-3.1884,"","الگو:Location map Scotland Edinburgh Central"
614496,55.9454,-3.2005,"","الگو:Location map Scotland Edinburgh"
614497,55.73,-4.385,"","الگو:Location map Scotland East Renfrewshire"
614498,55.975,-2.725,"","الگو:Location map Scotland East Lothian"
614499,55.98,-4.225,"","الگو:Location map Scotland East Dunbartonshire"
614500,55.45,-4.3,"","الگو:Location map Scotland East Ayrshire"
614501,56.455,-2.96,"","الگو:Location map Scotland Dundee"
614502,55,-4,"","الگو:Location map Scotland Dumfries and Galloway"
614503,56.14,-3.715,"","الگو:Location map Scotland Clackmannanshire"
614504,56,-5.85,"","الگو:Location map Scotland Argyll and Bute"
614505,56.7,-2.95,"","الگو:Location map Scotland Angus"
614506,57.225,-2.775,"","الگو:Location map Scotland Aberdeenshire"
614507,57.1435,-2.09765,"","الگو:Location map Scotland Aberdeen Central"
614508,57.155,-2.215,"","الگو:Location map Scotland Aberdeen"
614509,57.75,-4.6,"","الگو:Location map Scotland"
614510,62.55,18.05,"","الگو:Location map Scandinavia"
614511,24.25,45.1,"","الگو:Location map Saudi Arabia"
614513,0.85,6.95,"","الگو:Location map Sao Tome and Principe"
614514,0.2225,6.6175,"","الگو:Location map Sao Tome"
614515,43.9423,12.4653,"","الگو:Location map San Marino"
614516,33.01,-116.84,"","الگو:Location map San Diego County, California"
614517,-12.9,-170.5,"","الگو:Location map Samoa"
614518,18.0688,-63.0625,"","الگو:Location map Saint-Martin"
614519,-1.95,29.9,"","الگو:Location map Rwanda"
614520,53.79,114.96,"","الگو:Location map Russia Zabaykalsky Krai"
614521,57.73,39.255,"","الگو:Location map Russia Yaroslavl Oblast"
614522,67.995,73.785,"","الگو:Location map Russia Yamalo-Nenets Autonomous Okrug"
614523,58.3,37.555,"","الگو:Location map Russia Western"
614524,50.85,40.6,"","الگو:Location map Russia Voronezh Oblast"
614525,51.6948,39.3328,"","الگو:Location map Russia Voronezh"
614526,60.45,44.6,"","الگو:Location map Russia Vologda Oblast Nyuksensky District"
614527,60,41,"","الگو:Location map Russia Vologda Oblast"
614529,55.965,40.625,"","الگو:Location map Russia Vladimir Oblast"
614530,53.7124,48.0237,"","الگو:Location map Russia Ulyanovsk Oblast"
614531,57.2137,52.7798,"","الگو:Location map Russia Udmurtia"
614532,57.2385,34.6264,"","الگو:Location map Russia Tver Oblast"
614533,53.91,37.425,"","الگو:Location map Russia Tula Oblast"
614534,58.3559,82.2182,"","الگو:Location map Russia Tomsk Oblast"
614535,55.35,50.75,"","الگو:Location map Russia Tatarstan"
614537,59,62,"","الگو:Location map Russia Sverdlovsk Oblast"
614538,44.95,43.25,"","الگو:Location map Russia Stavropol Krai"
614539,46.3834,42.8508,"","الگو:Location map Russia Southern Federal District"
614540,54.7412,33.0696,"","الگو:Location map Russia Smolensk Oblast"
614541,51.37,46.595,"","الگو:Location map Russia Saratov Oblast"
614542,53.2,50.2,"","الگو:Location map Russia Samara Oblast"
614543,49,149,"","الگو:Location map Russia Sakhalin Oblast"
614544,50,143.25,"","الگو:Location map Russia Sakhalin"
614546,59.9378,30.1087,"","الگو:Location map Russia Saint Petersburg"
614547,54.4,40.65,"","الگو:Location map Russia Ryazan Oblast"
614548,48.085,41.275,"","الگو:Location map Russia Rostov Oblast"
614550,57.3,29.4,"","الگو:Location map Russia Pskov Oblast"
614551,45.384,134.759,"","الگو:Location map Russia Primorsky Krai"
614552,59,55.5,"","الگو:Location map Russia Perm Krai"
614553,53.165,44.525,"","الگو:Location map Russia Penza Oblast"
614554,52.801,36.4117,"","الگو:Location map Russia Oryol Oblast"
614555,56.01,73.325,"","الگو:Location map Russia Omsk Oblast"
614556,55.25,80.05,"","الگو:Location map Russia Novosibirsk Oblast"
614557,58.15,33,"","الگو:Location map Russia Novgorod Oblast"
614559,43.2,44.2,"","الگو:Location map Russia North Ossetia-Alania"
614560,56.288,44.7695,"","الگو:Location map Russia Nizhny Novgorod Oblast"
614561,68,35,"","الگو:Location map Russia Murmansk Oblast"
614562,55.1083,38.8583,"","الگو:Location map Russia Moscow Oblast Kolomna Rayon"
614563,55.6084,37.6735,"","الگو:Location map Russia Moscow Oblast"
614564,55.7656,37.531,"","الگو:Location map Russia Moscow"
614565,54.5,44.5,"","الگو:Location map Russia Mordovia"
614566,56.5885,47.9121,"","الگو:Location map Russia Mari El"
614567,62.3968,153.396,"","الگو:Location map Russia Magadan Oblast"
614568,52.7,39.2,"","الگو:Location map Russia Lipetsk Oblast"
614569,59.85,31.3,"","الگو:Location map Russia Leningrad Oblast"
614570,51.6479,36.3616,"","الگو:Location map Russia Kursk Oblast"
614571,55.5,65.3,"","الگو:Location map Russia Kurgan Oblast"
614573,45,39,"","الگو:Location map Russia Krasnodar Krai"
614574,58.5379,44.1074,"","الگو:Location map Russia Kostroma Oblast"
614575,63.815,55.825,"","الگو:Location map Russia Komi Republic"
614576,58.5579,50.0894,"","الگو:Location map Russia Kirov Oblast"
614577,62,72.5,"","الگو:Location map Russia Khanty-Mansi Autonomous Okrug"
614578,53.4,89.85,"","الگو:Location map Russia Khakassia"
614579,54.5,87,"","الگو:Location map Russia Kemerovo Oblast"
614580,63.7,33.55,"","الگو:Location map Russia Karelia"
614581,43.8549,41.7064,"","الگو:Location map Russia Karachay-Cherkessia"
614582,54.3096,35.3657,"","الگو:Location map Russia Kaluga Oblast"
614583,46.5,44.75,"","الگو:Location map Russia Kalmykia"
614584,54.8,21.15,"","الگو:Location map Russia Kaliningrad Oblast"
614585,43.4418,43.4448,"","الگو:Location map Russia Kabardino-Balkaria"
614586,57.05,41.4,"","الگو:Location map Russia Ivanovo Oblast"
614587,57.6388,107.231,"","الگو:Location map Russia Irkutsk Oblast"
614588,43.1,44.9,"","الگو:Location map Russia Ingushetia"
614591,43.1,46.85,"","الگو:Location map Russia Dagestan"
614592,55.48,47.165,"","الگو:Location map Russia Chuvashia"
614594,54.185,60.25,"","الگو:Location map Russia Chelyabinsk Oblast"
614595,43.25,46.225,"","الگو:Location map Russia Chechnya"
614596,54.855,39.175,"","الگو:Location map Russia Central Federal District"
614597,53.5,107.5,"","الگو:Location map Russia Buryatia"
614598,52.9303,33.2869,"","الگو:Location map Russia Bryansk Oblast"
614599,54.055,56.55,"","الگو:Location map Russia Bashkortostan"
614600,47.17,47.105,"","الگو:Location map Russia Astrakhan Oblast"
614601,63.5824,43.1974,"","الگو:Location map Russia Arkhangelsk Oblast"
614604,52.5,82.5,"","الگو:Location map Russia Altai Krai"
614605,44.4889,39.6798,"","الگو:Location map Russia Adygea"
614608,45.95,25,"","الگو:Location map Romania"
614609,-21.125,55.525,"","الگو:Location map Réunion"
614610,-1.012,14.708,"","الگو:Location map Republic of the Congo"
614611,41.6,21.75,"","الگو:Location map Republic of Macedonia relief"
614612,41.6,21.75,"","الگو:Location map Republic of Macedonia"
614613,25.35,51.4,"","الگو:Location map Qatar"
614614,42.51,0.495,"","الگو:Location map Pyrenees topography"
614615,42.51,0.495,"","الگو:Location map Pyrenees"
614616,1.6015,7.40205,"","الگو:Location map Principe"
614617,32.759,-16.9655,"","الگو:Location map Portugal Madeira Island"
614618,32.77,-16.77,"","الگو:Location map Portugal Madeira"
614619,38.7211,-27.217,"","الگو:Location map Portugal Azores Terceira"
614620,38.3,-28.15,"","الگو:Location map Portugal Azores"
614621,39.5,-7.9,"","الگو:Location map Portugal"
614624,51.95,19.15,"","الگو:Location map Poland"
614625,40.4405,-79.9785,"","الگو:Location map Pittsburgh"
614626,12.75,120.7,"","الگو:Location map Philippines"
614627,-9,-75,"","الگو:Location map Peru Natural"
614628,-12.0928,-77.0642,"","الگو:Location map Peru Lima"
614629,-9.315,-75,"","الگو:Location map Peru"
614630,27,52.5,"","الگو:Location map Persian Gulf"
614632,-3.95,142.025,"","الگو:Location map Papua New Guinea Sandaun Province"
614633,-3.935,150.795,"","الگو:Location map Papua New Guinea New Britain and Ireland"
614634,-7.515,144.755,"","الگو:Location map Papua New Guinea Gulf Province"
614635,-6.11,155.35,"","الگو:Location map Papua New Guinea Bougainville Island"
614636,-6.4,150.05,"","الگو:Location map Papua New Guinea"
614637,46.75,19.25,"","الگو:Location map Pannonian Basin"
614638,8.535,-80.1,"","الگو:Location map Panama relief"
614639,8.535,-80.1,"","الگو:Location map Panama"
614641,31.8025,34.897,"","الگو:Location map Palestinian territories"
614643,30.35,70.5,"","الگو:Location map Pakistan"
614645,21.55,55.95,"","الگو:Location map Oman"
614646,55,-2.5,"","الگو:Location map Oceans around British Isles"
614649,59.465,8.465,"","الگو:Location map Norway Telemark"
614650,61.45,6.45,"","الگو:Location map Norway Sogn og Fjordane"
614651,59.07,6.08,"","الگو:Location map Norway Rogaland"
614652,59.9174,10.7411,"","الگو:Location map Norway Oslo Central"
614653,59.9132,10.7481,"","الگو:Location map Norway Oslo"
614654,61.25,9.28,"","الگو:Location map Norway Oppland"
614655,69.98,24.8785,"","الگو:Location map Norway North"
614656,67.1,14.25,"","الگو:Location map Norway Nordland"
614657,60.25,6.15,"","الگو:Location map Norway Hordaland"
614658,61.29,11.25,"","الگو:Location map Norway Hedmark"
614659,60.25,9.1,"","الگو:Location map Norway Buskerud"
614660,58.875,8.075,"","الگو:Location map Norway Aust-Agder"
614661,64.55,17.85,"","الگو:Location map Norway"
614662,54.65,-6.8,"","الگو:Location map Northern Ireland2"
614663,54.664,-6.7615,"","الگو:Location map Northern Ireland"
614664,23.885,-102.52,"","الگو:Location map Northern Central America"
614665,56.5,4,"","الگو:Location map North Sea"
614666,40.35,127.5,"","الگو:Location map North Korea"
614669,-19.053,-169.867,"","الگو:Location map Niue"
614670,8.677,8.569,"","الگو:Location map Nigeria relief"
614671,6.498,3.38285,"","الگو:Location map Nigeria Lagos"
614672,9,8.5,"","الگو:Location map Nigeria"
614673,17.5,8,"","الگو:Location map Niger"
614674,12.9,-85.2,"","الگو:Location map Nicaragua"
614675,-42.56,170.47,"","الگو:Location map New Zealand West Coast"
614676,-41.267,174.885,"","الگو:Location map New Zealand Wellington"
614108,-19,29.2,"","الگو:Location map Zimbabwe"
614109,-13.05,27.75,"","الگو:Location map Zambia"
614678,-38.985,174.43,"","الگو:Location map New Zealand Taranaki"
614110,43.915,18.2,"","الگو:Location map Yugoslavia"
614679,-43.95,170.315,"","الگو:Location map New Zealand South Island"
614680,-41.15,172.6,"","الگو:Location map New Zealand relief"
614111,15.45,48.25,"","الگو:Location map Yemen"
614681,-35.455,173.775,"","الگو:Location map New Zealand Northland"
614112,0,0,"","الگو:Location map World"
614682,-38,175.65,"","الگو:Location map New Zealand North Island"
614113,46.25,2.2,"","الگو:Location map Winnipeg"
614683,-41.455,173.24,"","الگو:Location map New Zealand Marlborough"
614114,24.45,-12.85,"","الگو:Location map Western Sahara"
614115,32.6,35.375,"","الگو:Location map Western Galilee"
614684,-45.8719,170.518,"","الگو:Location map New Zealand Dunedin"
614685,-43.525,172.66,"","الگو:Location map New Zealand Christchurch"
614117,-24.35,121,"","الگو:Location map Western Australia"
614686,-36.65,174.615,"","الگو:Location map New Zealand Auckland"
614687,-41.15,172.6,"","الگو:Location map New Zealand"
614118,31.8025,34.897,"","الگو:Location map West Bank"
614688,40.5726,-74.1546,"","الگو:Location map New York Staten Island"
614119,52.4,-4,"","الگو:Location map Wales3"
614689,51.905,4.42,"","الگو:Location map Netherlands Rotterdam"
614120,52.405,-3.98,"","الگو:Location map Wales2"
614121,53,-3.05,"","الگو:Location map Wales Wrexham"
614690,52.0065,4.3755,"","الگو:Location map Netherlands RandstadRail station"
614691,52.0015,4.42,"","الگو:Location map Netherlands Randstad ZW"
614123,51.45,-3.405,"","الگو:Location map Wales Vale of Glamorgan"
614692,52.2085,5.17,"","الگو:Location map Netherlands Randstad NO"
614124,51.7,-3.05,"","الگو:Location map Wales Torfaen"
614693,52.4585,4.7765,"","الگو:Location map Netherlands Randstad N"
614694,51.55,5.1,"","الگو:Location map Netherlands North Brabant"
614127,51.67,-3.4,"","الگو:Location map Wales Rhondda Cynon Taf"
614695,52.3821,4.63705,"","الگو:Location map Netherlands Haarlem"
614128,52.32,-3.52,"","الگو:Location map Wales Powys"
614696,53.2,6.7,"","الگو:Location map Netherlands Groningen"
614129,51.85,-5.075,"","الگو:Location map Wales Pembrokeshire"
614697,52.15,5.265,"","الگو:Location map Netherlands Dutch railway station"
614130,51.57,-2.965,"","الگو:Location map Wales Newport 2"
614698,17.775,-63.1,"","الگو:Location map Netherlands Antilles"
614131,51.57,-2.965,"","الگو:Location map Wales Newport"
614699,52.3385,4.9015,"","الگو:Location map Netherlands Amsterdam metro station"
614700,52.3715,4.912,"","الگو:Location map Netherlands Amsterdam Greater"
614133,51.75,-2.9,"","الگو:Location map Wales Monmouthshire"
614701,52.3709,4.90155,"","الگو:Location map Netherlands Amsterdam Central"
614134,51.745,-3.375,"","الگو:Location map Wales Merthyr Tydfil"
614702,52.3836,4.90595,"","الگو:Location map Netherlands Amsterdam"
614135,52.95,-4.135,"","الگو:Location map Wales Gwynedd"
614703,12.34,-69.1,"","الگو:Location map Netherlands ABC islands (Lesser Antilles)"
614136,53.225,-3.16,"","الگو:Location map Wales Flintshire"
614704,52.15,5.3,"","الگو:Location map Netherlands"
614137,53.125,-3.35,"","الگو:Location map Wales Denbighshire"
614705,28.5,84.25,"","الگو:Location map Nepal relief"
614138,53.125,-3.815,"","الگو:Location map Wales Conwy"
614706,28.5,84.25,"","الگو:Location map Nepal"
614139,52.29,-4.195,"","الگو:Location map Wales Ceredigion"
614140,51.865,-4.165,"","الگو:Location map Wales Carmarthenshire"
614707,-23,18.4,"","الگو:Location map Namibia"
614141,51.4789,-3.17311,"","الگو:Location map Wales Cardiff Central"
614708,39.7284,46.501,"","الگو:Location map Nagorno-Karabakh Republic"
614142,51.47,-3.2,"","الگو:Location map Wales Cardiff"
614143,51.675,-3.225,"","الگو:Location map Wales Caerphilly"
614709,-18.8,35.8,"","الگو:Location map Mozambique"
614144,51.565,-3.635,"","الگو:Location map Wales Bridgend"
614710,34.59,-5.305,"","الگو:Location map Morocco Northern Morocco"
614145,51.75,-3.225,"","الگو:Location map Wales Blaenau Gwent"
614711,31.775,-7.075,"","الگو:Location map Morocco"
614712,0,0,"","الگو:Location map Moon"
614713,42.75,19.4,"","الگو:Location map Montenegro"
614714,47,104,"","الگو:Location map Mongolia"
614715,43.7374,7.42425,"","الگو:Location map Monaco"
614716,47.3416,29.2481,"","الگو:Location map Moldova Transnistria"
614717,46.9,28.35,"","الگو:Location map Moldova"
614718,28.8,41,"","الگو:Location map Middle East2"
614719,27,38.25,"","الگو:Location map Middle East"
614721,17.95,-92.35,"","الگو:Location map Mexico Tabasco"
614722,23.75,-102.4,"","الگو:Location map Mexico relief"
614723,19.76,-87.99,"","الگو:Location map Mexico Quintana Roo"
614724,16.915,-96.25,"","الگو:Location map Mexico Oaxaca"
614725,19.4164,-99.1296,"","الگو:Location map Mexico Mexico City"
614726,19.32,-99.15,"","الگو:Location map Mexico Federal District"
614727,20.43,-86.875,"","الگو:Location map Mexico Cozumel"
614146,53.25,-4.375,"","الگو:Location map Wales Anglesey"
614728,19.05,-104,"","الگو:Location map Mexico Colima"
614729,19.2,-90.8,"","الگو:Location map Mexico Campeche"
614148,16,106.05,"","الگو:Location map Vietnam"
614730,25.5,-112.25,"","الگو:Location map Mexico Baja California Sur"
614149,16.3519,108.655,"","الگو:Location map Viet Nam"
614731,23.75,-102.4,"","الگو:Location map Mexico admin"
614732,23.75,-102.4,"","الگو:Location map Mexico"
614733,14.55,121.03,"","الگو:Location map Metro Manila"
614734,33.05,46.7,"","الگو:Location map Mesopotamia2"
614735,34.425,42.075,"","الگو:Location map Mesopotamia"
614151,58.59,7.255,"","الگو:Location map Vest-Agder"
614152,0,0,"","الگو:Location map Venus"
614736,18.35,-97.45,"","الگو:Location map Mesoamerica"
614737,38.5,17.75,"","الگو:Location map Mediterranean"
614153,6.6,-66.6,"","الگو:Location map Venezuela"
614738,-20.15,57.56,"","الگو:Location map Mauritius relief"
614154,-16.7,168.4,"","الگو:Location map Vanuatu"
614739,-20.15,57.56,"","الگو:Location map Mauritius"
614740,21,-10.95,"","الگو:Location map Mauritania"
614155,41.35,64.55,"","الگو:Location map Uzbekistan"
614741,14.65,-61.0125,"","الگو:Location map Martinique"
614742,9.25,166.6,"","الگو:Location map Marshall islands"
614744,29.55,33.65,"","الگو:Location map Egypt Sinai"
614745,26.7,30.75,"","الگو:Location map Egypt relief"
614161,38.9,-113.7,"","الگو:Location map USA West"
614747,-1.8,-78.25,"","الگو:Location map Ecuador"
614748,-8.9,125.7,"","الگو:Location map East Timor"
614749,52.4,12.5,"","الگو:Location map East Germany"
614164,18.225,-64.775,"","الگو:Location map USA Virgin Islands"
614750,24.45,54,"","الگو:Location map Dubai"
614751,18.75,-70.2,"","الگو:Location map Dominican Republic"
