id,lat,lng,"type","title"
247645,39.95,28.3167,"city","Карабунар (Вилает Бурса)"
148927,41.5056,22.5875,"city","Едрениково"
9685,53.1926,-2.8912,"city","Честър"
154525,41.2136,20.9414,"city","Речица (Община Охрид)"
247649,41.9211,27.4403,"city","Карадере (Вилает Лозенград)"
148928,41.5264,22.6267,"city","Сушево (Община Василево)"
154531,43.6433,21.8711,"city","Соко баня"
247652,41.7833,27.2,"city","Каракоч"
148929,41.4903,22.5847,"city","Седларци (Община Василево)"
154569,41.1733,20.7542,"city","Оровник (Община Дебърца)"
247657,41.4833,27.1167,"city","Карамуслия"
148931,41.5161,22.5461,"city","Требичино"
148932,41.5006,22.5289,"city","Варварица"
154571,41.1903,20.7575,"city","Горенци (Община Дебърца)"
247808,59.3972,18.0875,"city","Юршхолм"
148958,41.4825,22.6269,"city","Градошорци"
154578,41.2064,20.755,"city","Требенища"
247822,59.2833,17.8,"city","Екерьо"
148963,41.5208,22.5914,"city","Владиевци"
148965,41.5386,22.5681,"city","Радичево"
154662,41.2203,20.7406,"city","Волино"
10008,44.4333,26.1,"city","Букурещ"
148967,41.5436,22.5444,"city","Дукатино"
154664,41.2386,20.7767,"city","Мешеища"
148969,41.4825,22.6269,"city","Доброшинци"
154667,41.2561,20.7672,"city","Климещани"
148971,41.5553,22.6844,"city","Висока махала"
148974,41.5264,22.6986,"city","Нова махала (Община Василево)"
154821,38.52,35.48,"mountain","Ерджиес"
154827,41.2853,20.7914,"city","Ботун"
148977,41.5553,22.6844,"city","Чанаклия"
154835,41.2825,20.8303,"city","Злести"
148979,41.6,22.6747,"city","Нивичино"
154875,41.1411,28.4672,"city","Чаталджа"
148982,41.6167,22.6333,"city","Кушкулия"
154976,41.2778,20.8606,"city","Лешани"
149313,41.4489,21.5589,"city","Небрегово"
154982,41.2981,20.9014,"city","Велмей"
149319,41.9297,22.5025,"city","Истибаня"
154988,41.2717,20.9617,"city","Брежани (Община Дебърца)"
154991,41.2903,20.865,"city","Гърко поле"
10304,44.8186,20.4681,"city","Белград"
154993,41.295,20.845,"city","Долно Средоречие"
154995,41.3006,20.8525,"city","Горно Средоречие"
149898,40.7669,29.9169,"city","Измит"
154999,41.3028,20.8303,"city","Белчища"
150670,45.0492,20.0792,"city","Инджия"
155003,41.3097,20.8058,"city","Ново село (Община Дебърца)"
248316,44.4386,21.5381,"city","Кладурово"
155006,41.3206,20.8707,"city","Сошани"
150870,50.817,4.433,"city","Аудергем"
155007,41.3319,20.8505,"city","Оздолени"
248337,59.133,18.4,"city","Даларьо"
248338,39.9672,27.7142,"city","Коджабунар (Вилает Балъкесир)"
248340,59.15,18.133,"city","Юрдбру"
151181,50.8,4.417,"city","Ватермал - Босворде"
155019,41.3364,20.85,"city","Слатински чифлик"
248347,41.95,27.05,"city","Коджатарла"
155022,41.3364,20.8267,"city","Издеглаве"
248349,41.8667,27.25,"city","Коево"
155030,41.3264,20.7919,"city","Песочани"
248356,41.8761,27.1319,"city","Ериклер"
151194,50.817,4.317,"city","Ворст"
155032,41.3206,20.7675,"city","Цървена вода (Община Дебърца)"
248358,59.417,17.833,"city","Якобсбери"
155034,41.3706,20.8289,"city","Ърбиново"
151279,41.9831,22.5661,"city","Дулица"
248365,41.85,27.2,"city","Кадиево (Вилает Лозенград)"
155040,41.4017,20.7906,"city","Годиве (Община Дебърца)"
151282,42.0578,22.6196,"city","Косевица"
155041,41.3875,20.7964,"city","Лактине"
155042,41.3811,20.8753,"city","Мраморец"
155043,41.4056,20.845,"city","Сливово (Община Дебърца)"
151301,42.0667,22.5833,"city","Мощица"
155044,41.4136,20.8664,"city","Турие (Община Дебърца)"
151305,42.0694,22.4875,"city","Цера"
155409,41.1039,20.6331,"city","Радожда"
155411,41.1192,20.6156,"city","Мали Влай"
151308,42.1,22.55,"city","Саса"
155417,41.1453,20.6231,"city","Фрънгово"
151669,42.1873,22.3878,"city","Бъс"
155421,41.1536,20.6494,"city","Калища"
151671,42.2269,22.2417,"city","Бащево"
155429,41.1642,20.6233,"city","Радолища"
151673,42.0525,22.4172,"city","Борово (Община Крива паланка)"
155439,41.18,20.63,"city","Шум (Община Струга)"
151674,42.2089,22.3625,"city","Варовище"
155483,42.7078,22.0633,"city","Владичин хан"
151676,42.2539,22.2625,"city","Габър (Община Крива паланка)"
151678,42.3111,22.3306,"city","Голема Църцория"
10310,45.8,24.15,"city","Сибиу"
151680,42.2914,22.3511,"city","Мала Църцория"
155491,41.1914,20.6286,"city","Заграчани"
151684,42.2179,22.2621,"city","Градец (Община Крива паланка)"
155493,41.1933,20.5989,"city","Вишни"
151685,42.1986,22.2414,"city","Длъбочица (Община Крива паланка)"
151689,42.2772,22.3239,"city","Добровница (Община Крива паланка)"
155498,41.2133,20.635,"city","Долна Белица"
151721,42.1325,22.3525,"city","Дренък"
155499,41.2239,20.5544,"city","Горна Белица"
248736,41.7614,27.5628,"city","Курудере (Вилает Лозенград)"
151722,42.2294,22.3489,"city","Дрене"
155500,41.2325,20.6072,"city","Октиси"
248814,41.3319,22.4281,"city","Давидово (Община Гевгели)"
155501,41.2408,20.6439,"city","Велеща"
248817,41.3319,22.4281,"city","Кованец"
151723,42.1839,22.36,"city","Дурачка река (село)"
248820,41.2594,22.47,"city","Смоквица"
151726,42.225,22.3958,"city","Жидилово"
248821,41.1336,22.455,"city","Моин"
151734,42.2611,22.35,"city","Киселица (Община Крива паланка)"
10423,45.45,28.05,"city","Галац"
155666,41.2592,20.5958,"city","Подгорци"
248822,41.2842,22.4617,"city","Милетково"
155667,41.2686,20.5961,"city","Лабунища"
151736,42.1775,22.2892,"city","Конопница"
249030,41.2089,22.5025,"city","Пърдейци"
155670,41.2894,20.5961,"city","Боровец (Община Струга)"
151737,42.2047,22.4353,"city","Костур (Община Крива паланка)"
249031,41.1536,22.4469,"city","Ново Конско"
155677,41.3953,20.6172,"city","Буринец"
151738,42.2139,22.3942,"city","Къркля"
10425,46.7667,23.6,"city","Клуж-Напока"
155683,41.3731,20.6656,"city","Ържаново"
151741,42.1756,22.3844,"city","Станци"
155687,41.3661,20.6483,"city","Локов"
151744,42.2038,22.3581,"city","Кошари"
155690,41.35,20.6728,"city","Збъжди"
151748,42.3033,22.2997,"city","Кърстов дол"
151750,42.225,22.3319,"city","Лозаново (Община Крива паланка)"
155693,41.3306,20.6844,"city","Присовяни"
155694,41.3169,20.6428,"city","Глобочица"
151756,42.3236,22.2833,"city","Луке"
10435,45.8167,15.9833,"city","Загреб"
249252,44.035,22.4419,"city","Мали Ясеновец"
155696,41.2978,20.6731,"city","Бърчево (Община Струга)"
151758,42.3072,22.2633,"city","Подържи кон"
155697,41.3,20.6933,"city","Мислодежда"
151763,42.1894,22.3256,"city","Мартиница"
10635,53.4,-3,"city","Ливърпул"
155759,41.288,20.67,"city","Боговица"
151766,42.2817,22.2278,"city","Метежево"
155761,41.2781,20.6753,"city","Тоска (Община Струга)"
151767,42.1578,22.2539,"city","Мождивняк"
155763,41.2717,20.6394,"city","Ташмарунища"
151770,42.2894,22.1672,"city","Нерав"
155768,41.2817,20.7114,"city","Поум"
151773,42.3083,22.2083,"city","Огут"
15613,45.3167,14.4167,"city","Риека"
151774,42.25,22.3081,"city","Осиче (Община Крива паланка)"
155775,41.2505,20.66,"city","Дъбовяни"
155777,41.2603,20.6772,"city","Горно Татеши"
151782,42.1839,22.2642,"city","Тълминци"
155779,41.2586,20.6892,"city","Долно Татеши"
249520,59.433,18,"city","Шьобери"
151785,42.2639,22.3833,"city","Търново (Община Крива паланка)"
249578,62.483,16.017,"city","Юнгаверк"
155781,41.2572,20.7236,"city","Делогожди"
151786,42.2225,22.4264,"city","Узем"
155788,41.2492,20.7486,"city","Корошища"
155792,41.2381,20.6972,"city","Ново село (Община Струга)"
249588,63.683,16.9,"city","Юнселе"
151808,42.1679,22.1175,"city","Ранковце"
155795,41.23,20.6983,"city","Биджево"
249595,62.433,17.367,"city","Юханедал"
151812,42.2325,22.1958,"city","Баратлия"
155799,41.2317,20.7244,"city","Ливада (Община Струга)"
151814,42.1533,22.0842,"city","Ветуница"
249690,62.433,17.417,"city","Ви"
155804,41.2156,20.6931,"city","Драслайца"
151821,42.1533,22.0842,"city","Вражогрънци"
15682,41.0311,21.3402,"city","Битоля"
151831,42.2781,22.1033,"city","Герман (Община Ранковце)"
155811,41.2272,20.6758,"city","Лъжани"
151834,42.1881,22.1567,"city","Гиновци"
155818,41.2119,20.6644,"city","Вранище"
151837,42.2242,22.0614,"city","Гулинци (Община Ранковце)"
249736,64.15,17.35,"city","Оселе"
155823,41.2478,20.7381,"city","Джепин"
151839,42.2375,22.1392,"city","Криви камен"
249739,63.9303,19.2136,"city","Бюрхолм"
155826,41.2028,20.7,"city","Мороища"
151844,42.18,22.14,"city","Любинци"
151846,42.1972,22.1522,"city","Милутинце"
155829,41.185,20.7086,"city","Мислешево"
151850,42.15,22.1833,"city","Одрено"
155893,41.4842,20.9233,"city","Другово"
155937,46.1,27.1797,"city","Аджуд"
151855,42.1428,22.1442,"city","Опила"
156306,41.4597,20.7658,"city","Ехлоец"
151880,42.1664,22.2033,"city","Псача"
156312,41.4619,20.7917,"city","Иванчища"
151881,42.1958,22.0803,"city","Отошница"
156313,41.4597,20.8053,"city","Попоец"
151882,42.2083,22.1872,"city","Петралица"
156315,41.4775,20.8086,"city","Кленоец"
151883,42.2,22.11,"city","Радибуш"
156318,41.4597,20.81,"city","Малкоец"
151885,42.2406,22.0742,"city","Станча"
156320,41.5,20.8167,"city","Долна Душегубица"
151890,42.2561,22.0483,"city","Пъклище"
249938,64.2667,16.4167,"city","Дурутеа"
156322,41.507,20.817,"city","Горна Душегубица"
16128,39.9272,32.8644,"city","Анкара"
151908,42.2094,21.9994,"city","Алинце"
249944,64.6,18.6667,"city","Люкселе"
156324,41.478,20.82,"city","Извор (Община Другово)"
151915,42.2606,21.8169,"city","Алгуня"
249948,63.5667,19.5,"city","Нордмалинг"
156327,41.4858,20.8672,"city","Лавчани"
249950,64.9167,19.4833,"city","Норшьо"
151916,42.265,22,"city","Арбанашко"
156328,41.5194,20.8792,"city","Яворец (Община Другово)"
151919,42.2303,21.9622,"city","Байловце"
16670,57.7,11.9667,"city","Гьотеборг"
151923,42.3158,21.9706,"city","Буковляне"
156331,41.5086,20.8883,"city","Горно Добреноец"
151944,42.1586,21.8728,"city","Войник (Община Старо Нагоричане)"
151959,42.2861,21.8819,"city","Враготурце"
156333,41.4986,20.8975,"city","Долно Добреноец"
151967,42.2386,21.8786,"city","Врачевце"
151972,42.2,21.99,"city","Брешко"
156341,41.4667,20.9167,"city","Пополжани (Община Другово)"
151986,42.25,22,"city","Дейловце"
156342,41.4667,20.9,"city","Подвис (Община Другово)"
152062,43.19,21.7131,"city","Житораджа"
156347,41.4592,20.9078,"city","Видрани"
249967,41.55,27.4167,"city","Мандарица"
249972,64.2,20.85,"city","Робертсфорш"
156349,41.4467,20.9069,"city","Бърждани"
249992,64.8667,20.3833,"city","Булиден"
152138,39.917,127.533,"city","Селище в КНДР"
156351,41.4444,20.8733,"city","Юдово"
249993,64.6167,21.2,"city","Бюрео"
152139,42.2903,22.0425,"city","Длъбочица (Община Старо Нагоричане)"
156353,41.4364,20.9147,"city","Свинище (Община Другово)"
250064,64.8333,20.9833,"city","Коге"
17951,47.1667,27.6,"city","Яш"
152143,42.2203,21.8944,"city","Добрача"
156354,41.4197,20.9333,"city","Козица (Община Другово)"
250068,64.6833,21.2333,"city","Шелефтехамн"
156355,41.4406,20.9722,"city","Кладник"
250071,64.7167,21.1667,"city","Уршвикен"
152145,42.2231,21.8644,"city","Драгоманце"
156418,41.3564,20.9928,"city","Простране"
250072,65.5333,17.5333,"city","Соршеле"
17972,41.088,21.0122,"city","Ресен"
152148,42.2011,22.0308,"city","Дренок (Община Старо Нагоричане)"
250074,65.1,17.1,"city","Стурюман"
152149,42.2183,21.9272,"city","Цвиланце"
156420,41.4167,21.075,"city","Цер (Община Другово)"
152152,42.2625,21.9108,"city","Жегляне"
156421,41.3994,20.9944,"city","Големо Църско"
156423,41.4028,21.0167,"city","Мало Църско"
152153,42.2278,22.0111,"city","Желювино"
250085,63.8833,20.3167,"city","Ершмарк"
156432,41.4858,20.9497,"city","Сърбяни"
152154,42.1867,21.9192,"city","Канарево"
250088,63.7,20.3667,"city","Холмсунд"
156433,41.4719,20.9456,"city","Манастирско Доленци"
152159,42.1711,21.9528,"city","Орах"
250097,63.9167,19.75,"city","Венес"
156437,41.4614,21.0544,"city","Лисичани"
152160,42.1572,21.9067,"city","Облавце"
156440,41.4647,21.0928,"city","Дворци"
250163,64.6167,16.65,"city","Вилхелмина"
156441,41.4636,21.1208,"city","Преглово"
152162,42.1475,21.975,"city","Ругинце (Община Старо Нагоричане)"
250166,64.2,19.7167,"city","Винделн"
156443,41.4672,21.1231,"city","Пласница"
152164,42.1467,21.8892,"city","Стрезовце"
250183,65.6833,21.0167,"city","Елвсбюн"
156505,41.5314,20.9856,"city","Махмудовци"
156520,41.5347,20.9956,"city","Лазаровци"
152167,42.1792,21.8803,"city","Макреш (Община Старо Нагоричане)"
156527,41.5219,20.9161,"city","Кнежино"
152170,42.1972,21.8617,"city","Стърновец"
250243,65.5833,19.1667,"city","Арвидсяур"
156535,41.5289,20.9314,"city","Осой (Община Кичево)"
18540,46.0514,14.5056,"city","Любляна"
152171,42.2169,21.7997,"city","Никуляне"
156537,41.5392,20.9422,"city","Ращани (Община Кичево)"
250280,65.8333,21.7167,"city","Буден"
152173,42.2272,21.8264,"city","Челопек (Община Старо Нагоричане)"
156541,41.5592,20.9622,"city","Трапчин дол"
250282,65.7667,21.7333,"city","Севаст (град)"
152179,42.1703,21.8017,"city","Младо Нагоричане"
156559,41.5683,20.9553,"city","Длапкин дол"
156566,41.5722,20.9625,"city","Колибари"
250289,67.1167,20.75,"city","Йеливаре"
156569,41.6353,20.9142,"city","Колари (Община Заяс)"
250293,67.1667,20.6667,"city","Малмбериет"
156571,41.6253,20.9594,"city","Букойчани"
156572,41.6178,20.9258,"city","Мидинци"
152180,42.3383,21.9478,"city","Мъгленце"
250299,65.8333,24.1333,"city","Хапаранда"
156573,41.6053,20.9069,"city","Бачища"
152185,42.2647,21.8778,"city","Карловце"
250301,66.6167,19.8333,"city","Йокмок"
156576,41.5872,20.915,"city","Речани (Община Заяс)"
152186,42.2508,21.8589,"city","Коинце"
250305,65.85,23.1667,"city","Каликс"
156578,41.5928,20.9731,"city","Долно Строгомище"
152187,42.2606,21.9422,"city","Кокино"
156579,41.6061,20.9656,"city","Горно Строгомище"
152190,42.2272,21.8264,"city","Пелинце"
152192,42.25,21.9044,"city","Степанце"
156581,41.5714,20.9092,"city","Лешница (Община Заяс)"
152193,42.2967,22.0861,"city","Цветишница"
156582,41.575,20.9314,"city","Грешница (Община Заяс)"
152195,42.2844,21.9278,"city","Малотино"
152196,42.2278,22.0292,"city","Осиче (Община Старо Нагоричане)"
156819,41.4533,21.0392,"city","Атища"
152197,42.2778,21.9833,"city","Рамно"
156827,41.4617,21.0556,"city","Староец"
152201,42.234,21.8644,"city","Пузайка"
156829,41.4644,20.9781,"city","Карбуница"
152221,39.917,127.533,"city","Хамхън"
156836,41.4856,21,"city","Бигор Доленци"
152231,42.0464,21.6811,"city","Агино село"
156839,41.4725,21.0286,"city","Челопеци"
152235,42.0214,21.7258,"city","Студена бара"
156840,41.4836,21.0522,"city","Миокази"
152236,42.0947,21.6931,"city","Романовце"
156841,41.5036,21.0394,"city","Орланци (Община Вранещица)"
152237,42.1089,21.7328,"city","Биляновце"
156843,41.5075,21.0689,"city","Речани (Община Вранещица)"
250516,41.9525,22.2361,"city","Бунеш"
23272,41.5361,20.6938,"city","Лазарополе"
156846,41.5244,21.0517,"city","Крушица (Община Вранещица)"
152259,42.1417,21.6964,"city","Бедине"
250520,41.9289,22.1967,"city","Бучище"
156854,41.5275,21.07,"city","Световраче"
152262,42.1153,21.93,"city","Беляковци"
156858,41.5417,21.0725,"city","Дупяни"
250529,67.85,20.2167,"city","Кируна"
152266,42.1019,21.9075,"city","Довезенци"
156859,41.5442,21.0664,"city","Рабетино"
156860,41.5328,21.0897,"city","Козичино (Община Вранещица)"
152270,42.0722,21.8992,"city","Мургаш (Община Куманово)"
156861,41.5422,21.1122,"city","Патец"
152275,42.0714,21.8769,"city","Косматец"
156955,41.5772,21,"city","Осломей"
152280,40.1,124.4,"city","Синъйчжу"
250536,65.575,22.1042,"city","Беринесет"
152283,40.68,129.2,"city","Кимчхък"
156957,41.5372,21.0361,"city","Стрелци (Община Осломей)"
250537,41.8944,22.1781,"city","Гайранци"
156958,41.5372,21.0208,"city","Гарани"
152294,42.0544,21.9061,"city","Кутлибег"
250542,65.6417,22.0139,"city","Гамелстад"
156961,41.5472,21.0222,"city","Шутово"
152463,42.0428,21.9292,"city","Пезово"
250545,66.35,22.8833,"city","Йоверкаликс"
156963,41.5519,21.0347,"city","Премка"
152466,42.0289,21.9431,"city","Къшане"
250548,66.3833,23.6667,"city","Йоверторнео"
157119,41.559,20.9856,"city","Цървивци"
250549,67.1833,23.3667,"city","Паяла"
152467,42.0289,21.9431,"city","Кокошине"
157120,41.5881,21.0311,"city","Сърбица"
26443,45.7494,21.2272,"city","Тимишоара"
250554,41.8806,22.0644,"city","Буриловци"
157129,41.5869,21.0528,"city","Ново село (Община Осломей)"
152468,42.0231,21.8878,"city","Градище (Община Куманово)"
250555,65.3333,21.5,"city","Питео"
157132,41.5947,21.0244,"city","Архангел (село)"
157137,41.6194,21.0453,"city","Туин"
152471,42.0344,21.8606,"city","Кучкарево"
250557,41.8425,22.2961,"city","Бурилчево"
157138,41.6144,21.0722,"city","Поповяни"
152477,42.0172,21.8158,"city","Колицко"
157144,41.6278,21.0153,"city","Ягол Доленци"
250560,65.3,21.3833,"city","Берисвикен"
152479,42.0861,21.8569,"city","Габреш (Община Куманово)"
157146,41.6278,21.0556,"city","Ягол"
250562,41.3864,22.1369,"city","Вешие"
152480,42.0481,21.8253,"city","Скачковце"
157148,41.6417,21.0111,"city","Бериково"
250564,41.5872,22.4711,"city","Воиславци"
152484,42.0625,21.7997,"city","Орашец"
250566,41.3936,21.3736,"city","Вранче"
157156,41.6481,21.0267,"city","Папрадище (Община Осломей)"
152486,42.1039,21.8053,"city","Шупли камен"
157159,41.5869,21.0103,"city","Жубрино"
157246,41.4883,21.1692,"city","Латово"
250585,59.05,12.7,"city","Омол"
157248,41.4883,21.0858,"city","Ижище"
152490,42.0694,21.7833,"city","Дълга (Община Куманово)"
250588,59.0292,12.2264,"city","Бенгтсфорш"
250591,57.6667,12.5667,"city","Болебюгд"
157255,41.4992,21.1508,"city","Русяци"
250638,57.7167,13.0833,"city","Далшьофорш"
152492,42.0397,21.7561,"city","Пчиня (село)"
157260,41.4881,21.2275,"city","Сланско"
250643,57.8167,13.0167,"city","Фристад"
152493,42.0228,21.7469,"city","Вакъв"
250645,57.7167,12.8,"city","Сандаред"
152498,41.9944,21.7592,"city","Винце"
250650,57.7167,12.8333,"city","Шьомаркен"
152499,41.9792,21.8089,"city","Живине"
250663,57.6333,12.8333,"city","Вискафорш"
152501,42.0647,21.8539,"city","Новоселяне (Община Куманово)"
152502,42.0961,21.8358,"city","Зубовце (Община Куманово)"
157289,41.5511,21.2267,"city","Девич"
152504,42.1161,21.8572,"city","Клечевце"
157291,41.5522,21.31,"city","Крапа"
152512,42.0961,21.8831,"city","Ячинце"
157297,41.5942,21.1447,"city","Долно Круше"
152519,42.1003,21.7572,"city","Доброшане"
152529,42.1342,21.765,"city","Тромегя"
250749,58.9167,11.9167,"city","Ед"
157346,41.6025,21.2181,"city","Драгов дол"
152531,42.1242,21.7422,"city","Проевце"
250755,58.1667,13.55,"city","Фалшьопинг"
250771,58.5667,11.9833,"city","Фериеланда"
152534,42.0656,21.6758,"city","Бързак"
250786,58.5333,13.4833,"city","Йотене"
152538,42.0867,21.6253,"city","Умин дол"
250789,57.5833,11.9333,"city","Билдал"
152541,42.0958,21.6331,"city","Ново село (Община Куманово)"
250790,57.7,11.7167,"city","Ювик"
152543,42.1181,21.6611,"city","Любодраг"
250804,57.7167,11.7667,"city","Торшланда"
152556,42.1486,21.6642,"city","Лопате"
250809,57.6167,11.7833,"city","Стюршьо"
157410,41.64,21.2436,"city","Модрище"
152558,42.1578,21.6753,"city","Режановце"
157411,41.6153,21.2128,"city","Горни Манастирец"
152560,42.1239,21.6831,"city","Черкези (село)"
250929,58.3319,12.6811,"city","Гресторп"
157413,41.6269,21.2106,"city","Долни Манастирец"
152561,42.1744,21.6947,"city","Речица (Община Куманово)"
250931,58.9833,14.1167,"city","Гулспонг"
157418,41.63,21.1508,"city","Томино село"
152568,42.1698,21.7014,"city","Долно Коняре"
250933,58.85,14.2167,"city","Хува"
157421,41.6417,21.1847,"city","Инче"
250934,58.2333,11.6833,"city","Хенон"
152570,42.1817,21.7275,"city","Горно Коняре"
250935,58.0833,13.0333,"city","Херюнга"
152573,42.2147,21.7083,"city","Табановце"
157426,41.6608,21.2411,"city","Калугерец"
250941,57.5167,12.6833,"city","Шина"
152576,42.2289,21.7414,"city","Карабичане"
157621,41.6625,21.1731,"city","Ковче"
152578,42.2156,21.7628,"city","Четирце"
157623,41.6586,21.1508,"city","Зъркле"
250943,57.8667,11.9667,"city","Кунгелв"
152580,42.2461,21.7656,"city","Сушево (Община Куманово)"
157625,41.6586,21.1308,"city","Лубще"
250946,57.8833,11.5833,"city","Марщранд"
152582,42.2428,21.7306,"city","Сопот (Община Куманово)"
27958,41.0561,21.1783,"city","Цапари"
250950,58.3667,11.25,"city","Кунгсхамн"
152592,42.2333,21.665,"city","Лояне"
250952,58.4417,11.3028,"city","Хунебостранд"
157657,41.6922,21.0983,"city","Бенче"
152594,42.2061,21.6631,"city","Ваксинце"
250956,58.3611,11.2319,"city","Смьоген"
152597,42.1733,21.6278,"city","Слупчане"
250958,57.7667,12.3,"city","Лерум"
152598,42.1597,21.6564,"city","Опае"
250960,57.8167,12.3667,"city","Флуда"
29115,51.22,4.4,"city","Антверпен"
152599,42.1611,21.6183,"city","Оризари (Община Липково)"
250962,57.8333,12.2833,"city","Гробу"
157667,41.7244,21.0972,"city","Долно Ботуше"
152641,42.1564,21.5853,"city","Липково"
250981,45.05,28.6167,"city","Налбант"
157668,41.7122,21.0733,"city","Горно Ботуше"
29118,51.05,3.733,"city","Гент"
250983,45.0833,28.5833,"city","Тръстеник (Окръг Тулча)"
152642,42.1439,21.5878,"city","Отля"
157669,41.7217,21.2494,"city","Тажево"
29119,50.4,4.433,"city","Шарлероа"
152643,42.1256,21.5978,"city","Матейче"
157674,41.7589,21.1628,"city","Близанско"
152647,42.1097,21.62,"city","Ропалце"
157676,41.7586,21.1317,"city","Требовле"
152649,42.0997,21.5931,"city","Вищица"
152651,42.0806,21.5797,"city","Никущак"
251011,41.9392,27.5139,"city","Мокрешево"
157679,41.7467,21.1036,"city","Растеш"
152653,42.1564,21.5253,"city","Стрима"
251019,41.8,26.6167,"city","Муратчали"
157682,41.7544,21.0944,"city","Заград"
152654,42.1725,21.5472,"city","Рънковце"
157683,41.7458,21.0808,"city","Битово"
251025,41.2186,28.7439,"city","Имрахор"
152655,42.1861,21.5903,"city","Алашевце"
157686,41.7628,21.0717,"city","Вълче"
251030,41.8833,27.6167,"city","Мъглавит"
152656,42.2039,21.5783,"city","Извор (Община Липково)"
251040,38.7486,41.4969,"city","Муш"
152660,42.215,21.6047,"city","Ругинце (Община Липково)"
157773,41.9547,21.4275,"city","Сопище"
152663,42.2497,21.6047,"city","Стража (Община Липково)"
157778,41.9414,21.4128,"city","Ракотинци"
152668,42.2328,21.5628,"city","Белановце"
152671,42.2567,21.5492,"city","Злокукяне"
157814,41.9269,21.4039,"city","Добри дол (Община Сопище)"
251093,58.5,13.1833,"city","Лидшьопинг"
29423,43.3247,21.9033,"city","Ниш"
157819,41.9481,21.3847,"city","Горно Сълне"
152674,42.2122,21.5428,"city","Думановце"
157820,41.94,21.3778,"city","Долно Сълне"
157841,41.9483,21.3511,"city","Чифлик (Община Сопище)"
157844,41.9453,21.3439,"city","Барово (Община Сопище)"
157845,41.9411,21.3322,"city","Света Петка (Община Сопище)"
251142,43.2994,21.3372,"city","Сувая (Община Блаце)"
251144,41.4133,28.1892,"city","Странджа (Вилает Истанбул)"
152675,45.3836,20.3819,"city","Зренянин"
157848,41.9328,21.3439,"city","Говърлево"
152676,42.2261,21.5058,"city","Гошинце"
251146,45.15,29.6667,"city","Сулина"
157851,41.895,21.3308,"city","Яболци"
152677,42.1839,21.5425,"city","Глажня"
157852,41.8508,21.3478,"city","Държилово (Община Сопище)"
157856,41.8883,21.2783,"city","Нова Брезница"
152702,42.1081,21.3881,"city","Баняне"
152704,42.1103,21.3794,"city","Горняне"
157862,41.9158,21.5306,"city","Студеничани"
157863,41.9111,21.55,"city","Морани"
152715,42.1147,21.4267,"city","Побоже"
251295,41.7778,27.0989,"city","Петра (Вилает Лозенград)"
152717,42.0944,21.4064,"city","Мирковци"
157864,41.9197,21.4819,"city","Батинци"
251297,41.8289,27.0689,"city","Ескиполос"
152718,42.0861,21.3981,"city","Глуво"
251340,40.7667,26.8333,"city","Пишман (Вилает Родосто)"
29593,50.633,5.567,"city","Лиеж"
157867,41.8989,21.4081,"city","Маркова Сушица"
152726,42.0808,21.3986,"city","Бразда"
251392,58.1333,12.1333,"city","Лила Едет"
157871,41.8906,21.3714,"city","Осинчани"
251394,58.0333,12.1583,"city","Льодьосе"
157898,41.8794,21.3908,"city","Малчище"
29595,50.6,3.383,"city","Турне"
152743,42.2222,21.3797,"city","Танушевци"
158128,41.8119,21.3778,"city","Църн връх (Община Студеничани)"
29612,52.2372,-0.896028,"city","Нортхамптън"
158150,41.8031,21.4286,"city","Алдинци"
158151,41.8319,21.4583,"city","Калдирец"
152752,41.1686,20.805,"city","Горно Лакочерей"
251542,58.7,13.8167,"city","Мариестад"
29698,47.0667,21.9333,"city","Орадя"
158243,40.95,21.35,"city","Барешани"
152755,42.0736,21.1236,"city","Йегуновце"
251546,58.7,12.4667,"city","Мелеруд"
158252,40.9833,21.3667,"city","Бистрица (Община Битоля)"
251547,57.7,11.9667,"city","Мьолндал"
152757,42.0533,21.1144,"city","Янчище"
34180,50.93,4.03,"city","Алст"
158255,41.0161,21.3917,"city","Поешево"
251548,57.6,12.05,"city","Колеред"
251561,40.9,26.8,"city","Яйлакьой"
152758,40.95,126.6,"city","Канге"
158256,40.9167,21.35,"city","Велушина"
251562,40.9,26.75,"city","Яйлагьоне"
34186,50.833,4.333,"city","Андерлехт"
152762,42.0628,21.1217,"city","Подбреге"
158408,41.055,21.2614,"city","Братин дол"
251563,40.85,26.7667,"city","Теслимкьой"
152763,42.0481,21.1378,"city","Копанце"
34525,50.467,4.867,"city","Намюр"
152817,40.25,126.25,"city","Хъйчхън"
158465,51.35,4.633,"city","Брехт"
251739,57.5667,12.1,"city","Линдуме"
35345,40.7247,26.0825,"city","Енос"
152825,41.1391,126.357,"city","Манпхо"
158547,41.8414,21.3708,"city","Елово"
251745,57.6667,12.1167,"city","Мьолнлюке"
152857,41.1247,126.779,"city","Чанган"
158548,41.8581,21.4097,"city","Цветово"
251748,57.7,12.45,"city","Хиндос"
152870,41.4608,126.641,"city","Часън"
46994,50.883,4.7,"city","Льовен"
158590,41.0231,21.2853,"city","Брусник (Община Битоля)"
251749,57.6833,12.2,"city","Ландветер"
152877,42.1644,21.1761,"city","Яжинце"
158591,41.0147,21.3025,"city","Лавци (Община Битоля)"
251752,58.4833,11.6833,"city","Мункедал"
152878,42.1564,21.1569,"city","Рогачево (Община Йегуновце)"
158594,40.9833,21.3167,"city","Орехово (Община Битоля)"
251756,57.9,12.0667,"city","Ньодинге-Нол"
152880,42.1531,21.1344,"city","Старо село (Община Йегуновце)"
251759,57.95,12.1167,"city","Елвенген"
158601,40.9833,21.3333,"city","Буково (Община Битоля)"
152883,42.1406,21.1142,"city","Вратница"
251761,57.8167,12.0167,"city","Сурте"
158613,40.9833,21.35,"city","Кърстоар"
251764,58.1833,12.7167,"city","Носебру"
152886,42.1367,21.1042,"city","Беловище (Община Йегуновце)"
158790,40.9833,21.3667,"city","Кравари"
251773,57.7,11.65,"city","Йокерьо"
152889,42.13,21.1369,"city","Ораше (село)"
158792,40.9833,21.4167,"city","Оптичари"
152890,42.1067,21.1089,"city","Нераще"
251776,57.7667,11.7,"city","Хьоньо"
158793,40.9667,21.3667,"city","Олевени"
152891,42.0336,21.1,"city","Прелюбище"
251780,57.7333,12.1,"city","Партиле"
158794,40.9667,21.3167,"city","Злокукяни (Община Битоля)"
152893,42.0247,21.0797,"city","Шемшево (Община Йегуновце)"
152894,42.0164,21.095,"city","Сиричино"
251782,57.75,12.1667,"city","Юнсеред"
158797,40.95,21.3667,"city","Жабени"
47138,43.5,16.4333,"city","Сплит"
152895,42.03,21.1181,"city","Туденце"
158820,40.8833,21.3167,"city","Кишава"
152897,42.0314,21.0617,"city","Жилче"
251846,58.3833,13.4333,"city","Скара (град)"
158821,40.8833,21.35,"city","Драгош (Община Битоля)"
152898,42.0353,21.0375,"city","Ратае"
251856,58,11.55,"city","Шерхамн"
158822,40.9,21.35,"city","Градешница (Община Битоля)"
47825,51.25,3.267,"city","Даме"
152917,42.0858,21.0389,"city","Брезно"
251858,58.0833,11.8167,"city","Стенунгсунд"
158824,40.9333,21.3,"city","Острец (Община Битоля)"
152918,42.0625,21.0172,"city","Варвара (Община Теарце)"
251860,58.0167,11.8333,"city","Стура Хьога"
158826,40.9333,21.3667,"city","Породин"
152919,42.0678,21.0375,"city","Слатино (Община Теарце)"
158827,40.95,21.35,"city","Канино"
152922,42.0533,21.0192,"city","Непрощено"
158831,40.9167,21.3833,"city","Лажец"
152927,42.1008,21.0569,"city","Йелошник"
158832,40.9333,21.4333,"city","Меджитлия"
152929,42.0836,21.0614,"city","Пършовце"
158917,41.8575,21.4589,"city","Цървена вода (Община Студеничани)"
152938,42.0903,21.0639,"city","Глоги"
252071,41.9614,22.1917,"city","Неокази (Община Пробищип)"
158920,41.8639,21.5194,"city","Рамни Габер"
152943,42.1033,21.0778,"city","Доброще"
50993,41.7155,21.7755,"city","Велес"
158921,41.8681,21.4286,"city","Умово"
152944,42.1275,21.075,"city","Първце"
158922,41.8817,21.4417,"city","Драчевица (Община Студеничани)"
158924,41.88,21.4719,"city","Горно Количани"
158925,41.8864,21.4856,"city","Долно Количани"
252089,41.9097,22.2444,"city","Върбица (Община Чешиново-Облешево)"
152948,42.1275,21.075,"city","Одри"
158926,41.8856,21.4969,"city","Пагаруша"
252090,41.5644,22.3792,"city","Габревци"
158927,41.885,21.5106,"city","Въртекица"
152995,40.9713,127.13,"city","Ранрим"
158931,41.8867,21.5869,"city","Зелениково (Община Зелениково)"
252195,41.5589,22.2908,"city","Гарван (Община Конче)"
158938,41.8983,21.6114,"city","Таор"
153126,42.0828,20.925,"city","Вейце"
158942,41.8986,21.6036,"city","Орешани"
252205,41.8747,21.8769,"city","Горобинци"
153134,42.0581,20.8922,"city","Бродец (Община Тетово)"
158943,41.8733,21.6183,"city","Пакошево"
252226,41.8281,21.8761,"city","Гюземелци"
252231,41.3842,21.8744,"city","Гърбовец"
158945,41.8828,21.5578,"city","Вражале"
153155,42.0533,20.8281,"city","Бозовце"
51082,46.55,15.65,"city","Марибор"
252281,41.4597,21.8819,"city","Дебрище"
153156,42.0606,20.8469,"city","Вешала"
158961,41.8486,21.5794,"city","Градовци"
252286,41.57,22.4247,"city","Дедино (Община Конче)"
158962,41.86,21.6064,"city","Страхоядица"
153157,42.035,20.9156,"city","Шипковица (Община Тетово)"
252293,58.9333,11.1667,"city","Стрьомстад"
158969,40.9167,21.4667,"city","Кременица"
153161,42.0333,20.9242,"city","Лисец (Община Тетово)"
51644,44.0167,20.9167,"city","Крагуевац"
158971,40.9667,21.4833,"city","Средно Егри"
153163,42.0347,20.9397,"city","Селце (Община Тетово)"
252314,41.3933,22.1078,"city","Горни Дисан"
158974,40.9667,21.5,"city","Долно Егри"
153165,42.0256,20.9561,"city","Лавце"
51689,46.0833,19.65,"city","Суботица"
153168,42.0125,20.9444,"city","Гайре"
252317,41.4283,22.0956,"city","Долни Дисан"
159007,41.0297,21.4114,"city","Логоварди"
153171,41.9903,20.9458,"city","Голема речица"
51696,45.2517,19.8369,"city","Нови Сад"
252328,41.6936,22.2019,"city","Долани"
153172,41.9925,20.9578,"city","Мала речица"
159008,41.0731,21.4122,"city","Трън (Община Битоля)"
153173,42.0308,20.9925,"city","Порой (Община Тетово)"
159009,41.0503,21.3794,"city","Долно Оризари (Община Битоля)"
153174,42.0328,21,"city","Джепчище"
159069,41.8544,21.6225,"city","Ново село (Община Зелениково)"
52312,41.4375,22.6433,"city","Струмица"
153177,42.0256,20.9561,"city","Йедоарце"
159070,41.8442,21.6239,"city","Смесница"
252419,41.4683,21.5447,"city","Дреновци"
159071,41.8347,21.6019,"city","Гумалево"
153178,42.0517,20.9683,"city","Гермо"
252540,41.9675,22.1508,"city","Дренок (Община Пробищип)"
159072,41.8208,21.5394,"city","Тисовица (Община Зелениково)"
153218,41.9822,21.04,"city","Саракино"
252543,41.4531,21.8011,"city","Фариш"
153224,41.98,21.05,"city","Фалише"
252544,41.4094,21.3617,"city","Средорек (Община Долнени)"
153225,42.0547,21.0556,"city","Сетоле"
252660,41.4408,21.5219,"city","Дупячани"
252962,41.6461,21.6542,"city","Еловец"
159073,41.8269,21.4969,"city","Палиград"
153229,42.0578,21.05,"city","Отуние"
159077,41.7919,21.5667,"city","Дейковец"
153238,41.9681,20.9261,"city","Долно Палчище"
159079,41.7986,21.6083,"city","Добрино"
153242,41.9444,20.9267,"city","Каменяне (Община Боговине)"
253413,41.7053,27.7083,"city","Серген"
254260,46.3667,25.25,"city","Булгарени"
153243,41.9603,20.915,"city","Новаке"
254261,47.3333,23.15,"city","Булгари (Окръг Сълаж)"
153244,41.9594,20.8969,"city","Йеловяне"
159295,41.9389,21.615,"city","Петровец"
159305,41.945,21.6253,"city","Кьойлия"
254370,42.7215,24.8703,"","Жълтец"
153245,41.9797,20.9214,"city","Горно Палчище"
159307,41.9267,21.6331,"city","Ръжаничино"
254865,40.6161,27.1008,"city","Шаркьой"
153249,41.9453,20.8625,"city","Ново село (Община Боговине)"
53867,43.8833,25.9667,"city","Гюргево"
159311,41.9758,21.7217,"city","Горно Коняри"
153275,41.9153,20.9478,"city","Жеровяне"
255208,41.8353,22.0356,"city","Ерджелия"
159312,41.9578,21.715,"city","Средно Коняри"
153277,41.9108,20.9106,"city","Пирок"
55447,43.3633,28.4656,"","Калиакра"
159313,41.9425,21.7089,"city","Долно Коняри"
153281,41.9206,20.8994,"city","Раковец (Община Боговине)"
153282,41.9389,20.8764,"city","Селце Кеч"
153287,41.9403,20.9183,"city","Синичане"
159314,41.9269,21.7667,"city","Дивле"
153291,41.9236,20.9136,"city","Боговине"
159317,41.8989,21.7233,"city","Градманци"
57069,41.3463,21.5529,"city","Прилеп (град)"
255632,42.0306,22.2972,"city","Зеленград (Община Пробищип)"
153292,41.9108,20.9106,"city","Горно Седларце"
159319,41.8944,21.6831,"city","Катланово"
153295,41.9108,20.9106,"city","Долно Седларце"
159321,41.8714,21.665,"city","Блаце (Община Петровец)"
256020,41.8792,22.2378,"city","Жиганци"
153301,41.9672,20.9808,"city","Бървеница"
256024,41.5478,22.305,"city","Загорци (Община Конче)"
159330,41.8644,21.6881,"city","Бадар"
153303,41.9069,20.9633,"city","Радиовце"
57626,45.1667,28.8,"city","Тулча"
159332,41.8494,21.7042,"city","Летевци"
57706,43.3,22.4333,"city","Княжевац"
159335,41.8406,21.6822,"city","Кожле"
153305,41.895,20.9836,"city","Теново"
159336,41.8714,21.7258,"city","Брезница (Община Петровец)"
57754,41.7458,22.1958,"city","Щип"
153308,41.8633,21,"city","Вълковия (Община Бървеница)"
159339,41.9217,21.5831,"city","Огнянци"
153310,41.8767,21.0333,"city","Стенче"
153315,41.8458,21.1028,"city","Гургурница"
58968,43.1531,22.5861,"city","Пирот"
59928,0.0669,32.46,"city","Ентебе"
153318,41.895,21.0203,"city","Блаце (Община Бървеница)"
159359,41.9689,21.6014,"city","Кадино"
153321,41.9317,21.0133,"city","Челопек (Община Бървеница)"
153323,41.9075,21.0167,"city","Милетино"
153369,41.9826,21.0623,"city","Желино"
159360,41.9569,21.6019,"city","Мралино"
59963,50.4,4.06,"city","Бенш"
153426,42.0139,21.0706,"city","Озормище"
257217,44.4756,22.1158,"city","Долни Милановац"
159363,42.0175,21.6531,"city","Буйковци"
60312,53.7997,-1.54917,"city","Лийдс"
153427,42.0125,21.0322,"city","Требош"
257240,44.9833,20.1666,"city","Стара Пазова"
159377,42.0389,21.6497,"city","Мършевци"
153429,42.0389,21.0569,"city","Палатица"
159379,42.0333,21.6408,"city","Бучинци"
60400,53.28,-2.14,"city","Манчестър"
153431,41.9924,21.1361,"city","Церово (Община Желино)"
159383,42.015,21.6703,"city","Делядровци"
159384,42.075,21.6667,"city","Текия"
153433,41.9678,21.1303,"city","Групчин"
153434,41.9542,21.0878,"city","Добърце"
159388,41.9575,21.5375,"city","Долно Лисиче"
257370,41.4292,21.4981,"city","Забърчани"
153439,41.9514,21.1206,"city","Чифлик (Община Желино)"
61808,50.3,5.667,"city","Мане"
159453,41.9672,21.4869,"city","Горно Лисиче"
257416,41.9428,22.1478,"city","Зарепинци"
153440,41.9594,21.1386,"city","Копачин дол"
159462,41.97,21.4333,"city","Кисела вода"
153442,41.9639,21.1589,"city","Ново село (Община Желино)"
61967,50.833,3.267,"city","Кортрейк"
159472,41.9367,21.5217,"city","Драчево (Община Кисела вода)"
153443,41.9678,21.1653,"city","Рогле"
257445,41.1,36.7167,"city","Орду"
153445,41.9372,21.175,"city","Мерово"
159484,41.9608,21.5756,"city","Идризово"
153446,41.9347,21.1256,"city","Лърце"
159488,41.9672,21.5569,"city","Юрумлери"
62006,50.45,3.95,"city","Монс"
257540,41.75,27.1667,"city","Раклица (Вилает Лозенград)"
159499,41.97,21.55,"city","Гоце Делчев (село)"
257584,42.8842,22.5522,"city","Вучи дел"
62552,41.4839,22.0892,"city","Неготино"
153454,41.8831,21.1275,"city","Седларево (Община Желино)"
159529,41.9672,21.5375,"city","Трубарево"
153456,41.9281,21.0633,"city","Горна Лешница"
257603,41.7847,20.6364,"city","Реч (Реканско)"
153457,41.9567,21.0603,"city","Долна Лешница"
257608,41.7744,20.6528,"city","Стрезимир"
153458,41.9675,21.0347,"city","Стримница"
159530,41.9992,21.495,"city","Гази баба"
257609,41.7919,20.6339,"city","Щировица"
63291,41.1392,22.5025,"city","Гевгели"
159534,41.9992,21.495,"city","Маджари (квартал)"
153479,41.8339,20.8853,"city","Врабчище"
153481,41.8586,20.8881,"city","Топлица (Община Врабчище)"
159546,42.014,21.495,"city","Инджиково"
257755,41.8353,27.4708,"city","Сазара"
63602,41.525,20.5275,"city","Дебър"
153483,41.8408,20.8783,"city","Галате"
159550,42.014,21.495,"city","Сингелич"
258227,41.0764,28.2583,"city","Силиврия"
159564,42.0275,21.5131,"city","Стайковци"
153493,41.8294,20.8778,"city","Зубовце (Община Врабчище)"
258237,41.1967,28.3361,"city","Аврен (Вилает Истанбул)"
159565,42.0461,21.5322,"city","Страчинци"
153499,41.8272,20.8664,"city","Врановци"
159566,42.0342,21.5467,"city","Бърнярци"
258239,41.0936,27.9489,"city","Сеймен (Вилает Родосто)"
258458,41.6103,22.4242,"city","Инево"
153566,41.8658,20.8875,"city","Добри дол (Община Врабчище)"
159567,42.0375,21.4944,"city","Смилковци"
153578,41.8533,20.8658,"city","Пожаране"
159569,42.0508,21.5097,"city","Црешево"
64814,52.2901,-1.5423,"city","Бирмингам"
258461,41.9986,22.1903,"city","Калнище"
159571,42.0706,21.5028,"city","Булачани"
153597,41.8347,20.8672,"city","Ново село (Община Врабчище)"
153599,41.8817,20.8919,"city","Сенокос (Община Врабчище)"
159573,42.0856,21.4886,"city","Ращак"
153601,41.8978,20.8814,"city","Горяне"
65166,41.433,22.0119,"city","Кавадарци"
153604,41.8961,20.9042,"city","Градец (Община Врабчище)"
159664,42.0975,21.4717,"city","Люботен (Община Бутел)"
153621,41.8944,20.8622,"city","Гюргевище"
65290,41.178,20.6761,"city","Струга"
259054,40.6536,29.2847,"city","Ялова"
159666,42.1086,21.4547,"city","Любанци"
153622,41.8953,20.8328,"city","Ломница (Община Врабчище)"
259142,41.5547,21.6972,"city","Извор (Община Чашка)"
65546,41.6744,26.5608,"city","Одрин"
153670,41.7756,20.9356,"city","Беловище (Община Гостивар)"
159668,42.0611,21.4478,"city","Радишани"
159746,42.0364,21.4094,"city","Визбегово"
153672,41.7908,20.9381,"city","Балин дол"
153673,41.7908,20.9381,"city","Чайле"
159752,42.0308,21.4467,"city","Бутел"
153679,41.8242,20.9625,"city","Форино"
153681,41.8058,21.0267,"city","Корито (Община Гостивар)"
259805,41.33,28.4853,"city","Тарфа"
153683,41.8389,20.9758,"city","Чегране"
159759,42.04,21.425,"city","Шуто Оризари"
65627,45.6333,25.5833,"city","Брашов"
153686,41.8492,20.9419,"city","Тумчевище"
259831,41.8333,26.8833,"city","Татарлар (Вилает Одрин)"
159762,42.04,21.425,"city","Долно Оризари (Община Шуто Оризари)"
153692,41.8175,20.8806,"city","Дебреше"
259948,41.6,21.6239,"city","Крива круша (Община Чашка)"
65632,45.2667,27.9833,"city","Браила"
153699,41.7986,20.8592,"city","Лешница (Община Гостивар)"
65642,45.15,26.8333,"city","Бузъу (град)"
159769,42.06,21.4092,"city","Горно Оризари (Община Шуто Оризари)"
153703,41.7942,20.8756,"city","Здуне (Община Гостивар)"
159773,42.0153,21.4411,"city","Чаир"
153706,41.8028,20.8356,"city","Долно Йеловце"
65762,41.3689,21.2488,"city","Крушево (град)"
153711,41.8072,20.7897,"city","Горно Йеловце"
153713,41.7864,20.6864,"city","Бродец (Община Гостивар)"
153714,41.7814,20.8317,"city","Печково"
260402,41.6339,21.4889,"city","Црешнево (Община Чашка)"
159822,41.9561,21.4564,"city","Усие"
153715,41.7825,20.8569,"city","Равен (Община Гостивар)"
260405,41.5811,21.665,"city","Стари град (Община Чашка)"
153720,41.7531,20.8269,"city","Речане"
260557,64.95,21.2,"city","Бюске"
153721,41.7592,20.8764,"city","Сушица (Община Гостивар)"
159839,42,21.4333,"city","Карпош (квартал)"
260562,41.1681,21.7822,"city","Мелница (Мариово)"
153722,41.7861,20.9061,"city","Долна Баница"
153724,41.78,20.8925,"city","Горна Баница"
159841,42.015,21.3856,"city","Злокукяни (Община Карпош)"
153731,41.7464,20.9236,"city","Лакавица (Община Гостивар)"
159845,42.0269,21.3761,"city","Бардовци"
153733,41.7422,20.9533,"city","Куново (Община Гостивар)"
159848,41.1342,21.2408,"city","Габалавци"
260640,41.3375,21.2697,"city","Тръстеник (Крушевско)"
153735,41.7867,20.9358,"city","Мало Турчане"
260666,41.3,26.8333,"city","Търново (Вилает Одрин)"
153736,41.7372,20.9861,"city","Търново (Община Гостивар)"
159934,41.7006,27.6211,"city","Урумбеглия"
153738,41.7058,20.9603,"city","Сърбиново (Община Гостивар)"
153739,41.6861,20.9758,"city","Падалище"
153748,41.7036,21,"city","Железна река"
153753,41.6572,21.0203,"city","Кяфа"
153754,41.7239,21.0611,"city","Страяне"
260806,41.9522,27.6797,"city","Цикнихор"
153757,41.7789,20.8619,"city","Мердита"
260817,41.5506,27.5919,"city","Чонгара"
153758,41.7372,20.8936,"city","Митрови Кърсти"
153759,41.72,20.8814,"city","Симница"
260838,41.6589,27.4733,"city","Яна (Вилает Лозенград)"
153760,41.7169,20.9039,"city","Долна Гьоновица"
260840,41.5278,27.4233,"city","Колибите (Вилает Лозенград)"
153761,41.7086,20.9081,"city","Горна Гьоновица"
260859,42.0333,27.3167,"city","Чаглаик"
260880,41.3833,26.6667,"city","Чакмаккьой"
153813,41.7533,20.7853,"city","Дуф"
260884,41.2833,26.6,"city","Чалкьой"
153817,41.7433,20.8019,"city","Оркюше"
260889,41.2197,26.8228,"city","Чопово"
153818,41.7333,20.83,"city","Ново село (Община Маврово и Ростуша)"
260898,41.2461,28.4967,"city","Чанакчиево (Вилает Истанбул)"
153819,41.7225,20.8458,"city","Церово (Община Маврово и Ростуша)"
153821,41.705,20.8456,"city","Средково"
153833,41.695,20.7978,"city","Леуново"
153838,41.6758,20.7758,"city","Никифорово"
153840,41.6758,20.7344,"city","Маврово (Община Маврово и Ростуша)"
261048,44.0292,22.4969,"city","Шипиково"
153842,41.7006,20.7556,"city","Маврови ханове"
261069,41.1592,27.8,"city","Чорлу"
65865,38.4072,27.1503,"city","Измир"
153846,41.64,20.8586,"city","Таймище (Община Заяс)"
153849,41.7208,20.7294,"city","Върбен (Община Маврово и Ростуша)"
153866,41.6928,20.7236,"city","Кичиница"
153870,41.6939,20.6903,"city","Беличица"
65897,41.4067,27.3553,"city","Люлебургас"
261450,41.8967,22.275,"city","Соколарци (Община Чешиново-Облешево)"
153875,41.7158,20.6689,"city","Вълковия (Община Маврово и Ростуша)"
65941,43.05,22.8317,"city","Радейна"
261753,41.4333,27.3,"city","Айвалъ (Вилает Лозенград)"
153877,41.7439,20.6736,"city","Ничпур"
66002,43.0481,22.8922,"city","Бребевница"
262170,39.3208,26.6953,"city","Айвалък"
153879,41.7561,20.6939,"city","Кракорница"
262287,41.1856,28.7392,"city","Арнауткьой (Вилает Истанбул)"
66017,43.0672,22.9036,"city","Мъзгош"
153880,41.7442,20.7011,"city","Богдево"
66024,43.085,22.8503,"city","Смиловци (Община Цариброд)"
153882,41.7531,20.6247,"city","Жужне"
262760,41.8639,27.4283,"city","Едига"
66027,43.0764,22.8925,"city","Моинци"
153886,41.735,20.6361,"city","Нистрово"
262960,41.79,27.2378,"city","Корията (Вилает Лозенград)"
153888,41.7319,20.6275,"city","Бибане"
66192,43.0647,22.8717,"city","Пъртопопинци"
153889,41.7242,20.5844,"city","Грекане"
263074,41.7917,22.2167,"city","Нов Караорман"
153891,41.7203,20.6097,"city","Рибница (Община Маврово и Ростуша)"
66196,43.0636,22.7872,"city","Петърлаш"
263081,41.2375,21.9486,"city","Клиново"
263087,41.8475,21.9053,"city","Кнеже"
66964,43.1,22.8208,"city","Гуленовци"
153893,41.7306,20.5914,"city","Нивище"
66971,43.0928,22.808,"city","Височки Одоровци"
263214,41.7267,22.4722,"city","Козбунар"
153895,41.7219,20.5728,"city","Тануше"
153897,41.6836,20.6325,"city","Върбяни (Община Маврово и Ростуша)"
263298,41.2836,21.9947,"city","Куманичево (Община Кавадарци)"
153903,41.6831,20.6586,"city","Сенце (Община Маврово и Ростуша)"
263305,41.5708,21.7781,"city","Крайници (Община Чашка)"
263630,41.7872,22.105,"city","Криви дол (Община Щип)"
67227,41.4922,21.6936,"city","Смиловци (Община Чашка)"
263638,41.9153,21.8236,"city","Крушица (Община Свети Никола)"
153910,41.6575,20.6017,"city","Болетин"
263641,41.9314,22.1067,"city","Куково"
67812,44.1142,15.2278,"city","Задар"
153912,41.6283,20.5892,"city","Требище (Община Маврово и Ростуша)"
153917,41.6167,20.5883,"city","Битуше"
263802,41.7802,21.703,"city","Влахчени"
67851,41.6383,22.4647,"city","Радовиш"
153926,41.6175,20.5981,"city","Велебърдо"
153932,41.61,20.6,"city","Ростуша"
263828,42.0233,22.1461,"city","Кундино"
67860,41.9672,22.7694,"city","Царево село"
153933,41.5814,20.6103,"city","Присойница"
263833,41.5264,22.0169,"city","Курия (село)"
69188,41.155,21.111,"city","Смилево"
153937,41.5656,20.6094,"city","Скудрине"
153942,41.5869,20.6283,"city","Янче"
264316,43.7992,22.1725,"city","Леновац"
153943,40.6155,126.463,"city","Чънчхън"
69566,41.2405,20.5933,"city","Вевчани"
264386,41.9525,22.2178,"city","Глобица"
69709,40.4286,29.7211,"city","Изник"
153948,41.5611,20.7231,"city","Тресонче"
264393,42.1086,22.1833,"city","Върбица (Кратовско)"
69924,43.1339,22.8928,"city","Каменица (Община Цариброд)"
153951,41.5733,20.7128,"city","Селце (Община Маврово и Ростуша)"
264420,41.0848,20.7969,"city","Горица (Охридско)"
153953,41.5667,20.6942,"city","Росоки"
264508,41.845,22.3175,"city","Кучичино"
153954,40.603,125.306,"city","Чхосан"
153955,41.566,20.655,"city","Сушица (Община Маврово и Ростуша)"
153958,41.5294,20.6444,"city","Осой (Община Дебър)"
70621,43.1206,22.8831,"city","Изатовци"
153959,41.5306,20.6233,"city","Могорче"
153961,41.5008,20.6828,"city","Гари (Община Дебър)"
153983,41.5406,20.5853,"city","Долно Косоврасти"
265401,41.3075,22.1267,"city","Кърнево (Община Кавадарци)"
153984,41.5481,20.5758,"city","Горно Косоврасти"
265404,41.2939,22.1414,"city","Чемерско"
70635,46.0667,23.5833,"city","Алба Юлия"
153995,44.695,27.9483,"city","Хърсово (град)"
153999,41.5189,20.5881,"city","Горно Мелничани"
265406,41.3236,22.1047,"city","Страгово"
154000,41.5158,20.5736,"city","Долно Мелничани"
265415,41.5208,21.7783,"city","Кърнино"
154008,41.5286,20.5472,"city","Татар Елевци"
265440,41.9114,22.3336,"city","Баня (Община Чешиново-Облешево)"
71043,46.1833,21.3167,"city","Арад"
154010,41.5594,20.5294,"city","Банище (Община Дебър)"
265441,41.9022,22.2111,"city","Лепопелци"
71076,41.9511,20.8944,"city","Урвич (Община Боговине)"
154012,41.5517,20.5267,"city","Хаме (Република Македония)"
265546,41.9183,22.1831,"city","Лезово"
154013,41.5439,20.5247,"city","Кривци"
154015,41.5356,20.4872,"city","Селокуки"
265558,51.367,5,"city","Равелс"
154016,41.55,20.4819,"city","Спас"
71353,44.85,24.8667,"city","Питещ"
265583,41.5958,22.2439,"city","Лесковица"
154017,41.5231,20.4811,"city","Коняри"
154018,41.505,20.4803,"city","Бомово"
265643,41.5114,22.4931,"city","Горни Липовик"
71535,47.1333,24.4833,"city","Бистрица (град)"
265646,41.5042,22.4569,"city","Долни Липовик"
154020,41.5019,20.4906,"city","Търнанич"
71823,41.8828,22.5092,"city","Виница (Република Македония)"
154021,41.5158,20.5383,"city","Райчица"
266309,41.6756,21.6083,"city","Лисиче (Община Чашка)"
154022,41.4442,20.5169,"city","Отишани"
73156,41.703,22.8577,"city","Берово"
266486,41.6611,22.4125,"city","Пърналия (Община Радовиш)"
154023,41.4428,20.5328,"city","Джепище"
266488,41.68,22.4025,"city","Супурге"
73242,41.4169,22.0188,"city","Ваташа"
266490,41.6894,22.4203,"city","Коджалия"
266493,41.6803,22.4769,"city","Щурово"
154158,41.485,20.5503,"city","Баланци"
266494,41.6967,22.4797,"city","Али Лобаси"
266524,41.7075,22.5525,"city","Шаинташ"
154159,41.4956,20.5617,"city","Пареши"
154160,41.4919,20.5847,"city","Брощица"
266526,41.7247,22.5757,"city","Ново село (Община Радовиш)"
266527,41.6967,22.6053,"city","Смиланци"
154166,41.4844,20.5675,"city","Църно Боци"
266529,41.6747,22.5133,"city","Държани"
154216,41.4767,20.5444,"city","Голем Папрадник"
266531,41.67,22.4936,"city","Калаузлия (Община Радовиш)"
154218,41.4717,20.5467,"city","Мал Папрадник"
73617,44.9333,25.45,"city","Търговище (Румъния)"
154220,41.4769,20.525,"city","Власики"
266532,41.6258,22.5133,"city","Ораовица"
154223,41.4578,20.5486,"city","Праленик"
266533,41.6139,22.5421,"city","Подареш"
154227,41.4556,20.5608,"city","Осолница"
266536,41.5878,22.5619,"city","Яргулица"
154231,41.4708,20.5711,"city","Житинени"
266643,41.7481,22.4631,"city","Шипковица (Община Радовиш)"
154232,41.4814,20.5711,"city","Байрамовци"
266644,41.5728,22.5717,"city","Покрайчево"
154234,41.4628,20.5914,"city","Кочища"
266667,41.5644,22.3658,"city","Лубница"
74204,44.3667,28.0167,"city","Черна вода (град)"
154236,41.4544,20.5861,"city","Брещани"
74275,44.3833,28.3833,"city","Башкьой"
266668,41.6694,22.2433,"city","Люботен (Община Щип)"
154238,41.4453,20.6019,"city","Коджаджик"
266690,51.317,4.95,"city","Тьорнхаут"
154247,41.4206,20.6233,"city","Елевци"
266721,41.6061,22.3758,"city","Погулево"
154252,41.4231,20.5875,"city","Долгаш"
266725,41.6572,22.3783,"city","Тополница (Община Радовиш)"
266728,41.5558,22.5994,"city","Злеово"
266729,41.65,22.5667,"city","Саригьол"
74294,44.95,26.0167,"city","Плоещ"
154258,41.3997,20.6225,"city","Селци (Община Струга)"
154272,41.3914,20.5606,"city","Дренок (Община Струга)"
159935,41.4828,-71.3082,"","Международна тенис зала на славата"
154276,41.3669,20.5722,"city","Модрич"
266857,41.5825,22.4858,"city","Сулдурци"
154285,41.325,20.5331,"city","Лакавица (Община Струга)"
266858,41.5722,22.5156,"city","Калугерица (Община Радовиш)"
159979,41.12,21.1219,"city","Гопеш"
266862,41.5342,22.5017,"city","Папавница"
154288,41.3133,20.5803,"city","Ябланица (Община Струга)"
159991,41.1386,21.145,"city","Метимир"
266864,41.6667,22.5667,"city","Дурутлия"
154290,41.3397,20.6033,"city","Нерези"
159994,40.95,21.4667,"city","Горно Егри"
266865,41.6564,22.5575,"city","Худаверлия"
160110,42.015,21.3856,"city","Влае"
154292,41.3292,20.6019,"city","Безово"
266866,41.6706,22.3397,"city","Бучим"
160115,41.9975,21.3786,"city","Долно Нерези"
154294,41.3211,20.6058,"city","Пискупщина"
266867,41.6131,22.3611,"city","Дамян (Община Радовиш)"
160117,41.9789,21.3733,"city","Горно Нерези"
154299,41.3494,20.6047,"city","Луково (Община Струга)"
160139,42.0178,21.3561,"city","Гьорче Петров (квартал)"
160140,42.0178,21.3561,"city","Ново село (Община Гьорче Петров)"
154475,41.051,20.813,"city","Долно Конско"
160289,42.0178,21.3561,"city","Оризари (Община Гьорче Петров)"
266918,41.4664,22.0278,"city","Марена"
154478,41.08,20.8136,"city","Шипокно"
160290,42.0461,21.3461,"city","Волково (Община Гьорче Петров)"
266989,39.2581,38.4897,"city","Кемалие"
154479,41.1092,20.8364,"city","Рамне (Община Охрид)"
160294,42.0569,21.305,"city","Кучково"
160297,42.0669,21.3561,"city","Орман (Община Гьорче Петров)"
267047,42.025,22.1761,"city","Марчино (Община Пробищип)"
154484,41.1744,20.8356,"city","Косел"
267084,39.7522,39.4928,"city","Ерзинджан"
160298,42.0672,21.335,"city","Никищане"
74467,44.1833,28.65,"city","Кюстенджа"
154485,41.1589,20.7956,"city","Долно Лакочерей"
160299,42.0883,21.2931,"city","Грачани"
267316,41.5672,21.6539,"city","Мартолци"
267321,41.9178,22.0631,"city","Мечкуевци"
154488,41.1611,20.7522,"city","Подмоле"
267326,41.5494,21.5039,"city","Мокрени (Община Чашка)"
160309,42,21.3278,"city","Сарай (Община Сарай)"
154492,41.14,20.7844,"city","Орман (Община Охрид)"
267796,41.4139,21.4875,"city","Мало Мраморани"
160363,41.9975,21.3786,"city","Средно Нерези"
74597,44.3167,23.8,"city","Крайова"
154497,41.2017,20.8131,"city","Ливоища"
160364,41.9975,21.3786,"city","Тафталидже"
268502,41.2078,22.0222,"city","Мрежичко (Община Кавадарци)"
154502,41.1528,20.8914,"city","Скребатно (Община Охрид)"
160380,41.0511,21.3469,"city","Горно Оризари (Община Битоля)"
268507,41.4833,21.8533,"city","Мързен Ораовец"
160384,41.0531,21.3242,"city","Ращани (Община Битоля)"
268787,41.65,21.4533,"city","Нежилово (Община Чашка)"
75289,42.1322,21.7144,"city","Куманово"
154506,41.1825,20.8692,"city","Опеница"
160386,41.0511,21.2639,"city","Дихово"
268808,41.9175,22.0106,"city","Неманица"
154508,41.2044,20.8589,"city","Расино"
75292,47.8,22.8833,"city","Сату Маре"
160429,42.0983,21.1692,"city","Дворце"
154512,41.2347,20.8447,"city","Сируля"
160430,42.085,21.2106,"city","Радуша"
268822,41.7308,22.2906,"city","Никоман"
154516,41.2422,20.8906,"city","Куратица"
160432,42.0853,21.2247,"city","Рудник Радуша"
75314,41.0253,20.8136,"city","Елшани"
154520,41.1911,20.9081,"city","Завой (Община Охрид)"
160434,41.0647,21.3939,"city","Карамани (село)"
269125,41.3703,21.9097,"city","Шешково"
160439,41.1242,21.3231,"city","Църнобуки"
269157,41.49,22.0247,"city","Сопот (Община Кавадарци)"
154523,41.2031,20.9428,"city","Свинища"
160487,41.0839,21.155,"city","Доленци (Община Битоля)"
269196,41.3881,21.9781,"city","Ресава (Община Кавадарци)"
160488,41.0839,21.155,"city","Драгарино"
154524,41.2186,20.9733,"city","Плаке"
160491,41.1108,21.2928,"city","Драгожани"
269197,41.1869,21.9586,"city","Рожден (Община Кавадарци)"
160494,41.9783,21.3544,"city","Крушопек"
76399,58.5333,14.5167,"city","Карлсбори"
269200,41.4481,21.9308,"city","Шивец"
160496,41.9742,21.3108,"city","Шишево"
163832,40.95,21.6167,"city","Добровени"
76400,58.3,14.283,"city","Ю (град)"
163839,40.9667,21.65,"city","Скочивир"
160569,41.2006,21.2975,"city","Древеник"
269285,41.4242,21.8469,"city","Раец (Община Кавадарци)"
163841,41.0128,21.5858,"city","Гнилеж"
80068,46.131,24.4728,"city","Сигишоара"
269289,41.2761,22.2169,"city","Радня"
160575,42.0225,21.2506,"city","Рашче"
163842,41.0806,21.6158,"city","Полог (село)"
163858,41.0433,21.6419,"city","Ивени"
80219,45.75,22.9,"city","Дева (град в Румъния)"
269291,41.2289,21.9522,"city","Ръжаново"
163859,41.0567,21.7308,"city","Будимирци"
160579,42.0778,21.2381,"city","Копаница (Община Сарай)"
269294,41.3414,21.9339,"city","Праведник"
163860,41.0819,21.6406,"city","Бърник"
160580,41.0653,21.1472,"city","Кажани"
81554,40.9806,27.515,"city","Родосто"
269539,41.155,21.9433,"city","Майден"
163864,41.0519,21.695,"city","Грунища"
160581,42,21.1931,"city","Бояне"
163871,41.1186,21.6094,"city","Маково (Община Новаци)"
269546,41.3561,22.0153,"city","Кошани"
160588,41.0331,21.1306,"city","Маловище"
81607,50.5,5.867,"city","Спа"
164018,41.0847,21.4764,"city","Горно Агларци"
269548,41.3933,21.8322,"city","Кесендре"
160590,42.0286,21.2856,"city","Долно Свиларе"
81829,41.8497,22.9019,"city","Панчарево (Община Пехчево)"
164019,41.0925,21.4703,"city","Долно Агларци"
81967,38.6753,39.2206,"city","Елязъг"
160591,42.0442,21.2792,"city","Горно Свиларе"
164020,41.1086,21.4742,"city","Далбеговци"
164025,41.085,21.7633,"city","Градешница (Община Новаци)"
82862,41.9164,22.4128,"city","Кочани"
160592,41.0111,21.2458,"city","Нижеполе"
83126,58.533,13.85,"city","Шьовде"
164032,41.085,21.7633,"city","Старавина"
270671,43.6535,25.365,"city","Зимнич"
83134,45.05,23.2833,"city","Търгу Жиу"
160596,41.0572,21.2117,"city","Ротино"
164045,41.1031,21.6483,"city","Рапеш"
83716,42.4975,22.4686,"city","Босилеград"
164050,41.0644,21.5619,"city","Долно Орехово"
160598,41.0439,21.25,"city","Търново (Община Битоля)"
164168,41.0803,21.5275,"city","Мегленци"
271043,42.9333,19.07,"city","Мокро (Черна гора)"
160600,41.0425,21.2369,"city","Магарево"
83915,42.88,22.6744,"city","Петачинци"
164173,41.1169,21.7133,"city","Зовик"
164184,41.0278,21.7019,"city","Петалино"
84788,41.2216,21.203,"city","Демир Хисар (град в Република Македония)"
160602,41.0861,21.2114,"city","Сърбци"
164185,41.065,21.5347,"city","Суходол (Община Новаци)"
164221,41,21.5217,"city","Ново село (Община Новаци)"
160604,41.09,21.1858,"city","Рамна (Община Битоля)"
164225,41.1481,21.6128,"city","Орле"
160607,41.1017,21.1728,"city","Лера"
164229,41.2589,21.4811,"city","Алинци (Община Прилеп)"
164232,41.2478,21.3956,"city","Чепигово"
164234,41.2128,21.4831,"city","Ерековци"
164240,41.2636,21.4344,"city","Загорани"
160610,41.1369,21.1878,"city","Стрежево"
164243,41.305,21.4783,"city","Галичани"
160643,41.0956,21.3256,"city","Кукуречани"
164244,41.3067,21.4597,"city","Кадино село"
87240,44.7333,28.3667,"city","Касимча (село)"
160647,41.0739,21.3289,"city","Кърклино"
164249,41.2947,21.5356,"city","Старо Лагово"
164250,41.3431,21.4403,"city","Големо Коняри"
160650,41.1486,21.3022,"city","Лисолай"
164251,41.2103,21.5033,"city","Канатларци"
160654,41.1594,21.2539,"city","Лопатица (Община Битоля)"
164252,41.2044,21.4603,"city","Клепач (село)"
160667,41.1225,21.2653,"city","Секирани"
164253,41.2369,21.4086,"city","Тройкърсти"
164254,41.2286,21.4314,"city","Тополчани"
164255,41.2406,21.4819,"city","Шелеверци"
160707,41.0967,21.2939,"city","Старо Змирново"
160733,42.0117,21.3136,"city","Кондово (Община Сарай)"
160738,42.0139,21.3092,"city","Любин"
164256,41.2722,21.4417,"city","Веселчани"
160749,41.9775,21.2733,"city","Арнакия"
164257,41.2975,21.4964,"city","Беровци"
164262,0.6847,34.1811,"city","Тороро"
160751,41.9692,21.2861,"city","Матка (Община Сарай)"
164502,41.3464,21.5544,"city","Беловодица"
160758,41.9672,21.2608,"city","Семенище"
160783,41.1214,21.3139,"city","Ново Змирново"
89214,42.0613,21.1436,"city","Раотинце"
160785,41.1247,21.2189,"city","Облаково"
160786,41.1389,21.1583,"city","Свинище (Община Битоля)"
89467,41.1325,20.8369,"city","Велгощи"
160787,41.0672,21.2942,"city","Снегово"
160796,41.1558,21.2247,"city","Църновец"
160833,41.9614,21.2586,"city","Чайлане"
90217,37.0383,27.4292,"city","Бодрум"
160839,41.9683,21.2369,"city","Буковик (Община Сарай)"
274192,41.9397,21.9781,"city","Орел (село)"
160841,41.9719,21.2089,"city","Ласкарци"
274194,41.9675,22.0189,"city","Макреш (Община Свети Никола)"
160843,41.9431,21.2178,"city","Раович"
274252,41.6192,21.4189,"city","Ореше (Община Чашка)"
164553,44.8667,13.85,"city","Пула (град)"
160844,41.9533,21.2114,"city","Паничари"
274432,41.9983,21.9039,"city","Павлешенци"
90788,43.0142,22.7756,"city","Цариброд"
164574,41.3256,21.5731,"city","Селце (Община Прилеп)"
275054,41.5369,21.9756,"city","Паликура"
91495,42.0744,21.0525,"city","Теарце"
164577,41.3017,21.5681,"city","Волково (Община Прилеп)"
161133,41.4253,21.4547,"city","Долнени"
275055,41.5094,21.9622,"city","Рибарци (Община Росоман)"
91947,44.4833,28.65,"city","Пелетлия"
164579,41.2914,21.6303,"city","Кокре"
161140,41.2506,21.2267,"city","Бараково (Община Демир Хисар)"
275057,41.4881,21.9447,"city","Манастирец"
275059,41.475,21.9192,"city","Търстеник"
164580,41.2956,21.5856,"city","Прилепец"
275061,41.5064,21.8886,"city","Сирково"
161150,41.4358,21.4122,"city","Сарандиново"
275062,41.4792,21.8931,"city","Камен дол"
164581,41.2822,21.5694,"city","Чумово"
275064,41.5331,21.8828,"city","Крушевица (Община Росоман)"
161153,41.4686,21.29,"city","Кошино"
161156,41.4797,21.3153,"city","Дебреще"
164583,41.28,21.6717,"city","Пещани (Община Прилеп)"
275179,41.9036,22.1556,"city","Трооло"
161242,41.2994,21.0797,"city","Бабино (Община Демир Хисар)"
92191,39.0333,125.75,"city","Пхенян"
164584,41.2567,21.6453,"city","Кален (Община Прилеп)"
92796,43.2183,22.3111,"city","Бела паланка"
164585,41.2575,21.6922,"city","Дуйне"
92797,43.0597,22.4117,"city","Бабушница"
161412,50.6,5.317,"city","Верлен"
164592,41.2281,21.5969,"city","Бонче"
164601,41.1797,21.5958,"city","Лопатица (Община Прилеп)"
161526,41.5167,21.3525,"city","Зързе"
164602,41.2,21.5644,"city","Подмол"
161531,41.5369,21.3644,"city","Маргари"
276311,41.91,22.1331,"city","Пестришино"
164604,41.2289,21.5481,"city","Марул"
161534,41.5353,21.3756,"city","Долгаец"
276635,41.5747,22.2686,"city","Пиперево (Община Щип)"
93408,28.595,83.819,"","Анапурна I"
93408,28.539,84.137,"","Анапурна II"
93408,28.585,84,"","Анапурна III"
93408,28.539,84.087,"","Анапурна IV"
93408,28.606,83.965,"","Гангапурна"
93408,28.518,83.806,"","Южна Анапурна"
164606,41.2072,21.6517,"city","Крушевица (Община Прилеп)"
276643,41.5158,21.6586,"city","Поменово"
161538,41.5631,21.4106,"city","Стровия"
93694,43.75,28.5667,"city","Иланлък"
276651,41.705,22.3836,"city","Почивало"
161539,41.5542,21.4308,"city","Гостиражни"
164610,41.1653,21.6856,"city","Чанище"
95718,45.4469,20.8553,"city","Модош"
161548,41.5308,21.4156,"city","Църнилище"
164613,41.2594,21.5678,"city","Щавица"
276658,41.91,21.8525,"city","Преод"
161549,41.5017,21.4069,"city","Костинци"
164617,41.1681,21.7283,"city","Манастир (Община Прилеп)"
95719,45.2728,20.375,"city","Бело блато"
161554,41.5008,21.4517,"city","Слепче (Община Долнени)"
164621,41.1397,21.7822,"city","Бешище"
95721,44.7392,20.8575,"city","Иваново (Сърбия)"
164626,41.1083,21.3786,"city","Могила (Община Могила)"
95722,46.05,20.4833,"city","Стар Бешенов"
164682,41.1808,21.8267,"city","Витолище"
161560,41.4861,21.3639,"city","Рилево"
164693,41.2078,21.8164,"city","Живово"
161564,41.4422,21.3158,"city","Лажани"
164694,41.1486,21.8228,"city","Полчище"
164696,41.2394,21.8133,"city","Върбско"
95880,44.7647,20.9044,"city","Гюргево (Община Ковин)"
277536,41.9258,22.0494,"city","Ранчинци"
161567,41.4531,21.3808,"city","Жабяни"
164697,41.2836,21.7978,"city","Гугяково"
161569,41.4272,21.3658,"city","Дъбяни"
164699,41.27,21.7506,"city","Вепърчани"
161570,41.4503,21.3736,"city","Ропотово"
164700,41.3297,21.7789,"city","Дрен (Община Прилеп)"
96399,45.315,20.9136,"city","Канак"
164705,41.3344,21.7739,"city","Смолани"
161634,41.2947,21.155,"city","Сопотница"
161806,41.8753,22.2106,"city","Пишица"
164707,41.3564,21.7789,"city","Царевик"
162225,43.8,28.5833,"city","Мангалия"
277921,50.8,4.333,"city","Юкел"
164713,41.3786,21.8069,"city","Голем Радобил"
96838,44.7167,28.5667,"city","Бейдауд"
277922,44.1114,24.9942,"city","Рошиори де Веде"
162397,42.0306,22.1786,"city","Пробищип"
164715,41.3731,21.7981,"city","Мал Радобил"
96867,42.0638,21.0327,"city","Лешок"
162429,40.9333,21.5667,"city","Бач"
164725,41.3717,21.7392,"city","Трояци"
277923,50.867,4.317,"city","Гансхорен"
97452,45.3458,21.275,"city","Брещя"
164817,41.4006,21.7419,"city","Топлица (Община Прилеп)"
164819,41.4219,21.7497,"city","Ракле"
163607,41.0392,21.49,"city","Биляник"
277925,50.867,4.4,"city","Евере"
164821,41.4433,21.73,"city","Никодин"
163629,41.0694,21.4558,"city","Добромири"
163632,41.0397,21.49,"city","Враневци"
164824,41.4044,21.6711,"city","Кърстец"
277928,50.833,4.383,"city","Етербек"
164825,41.3692,21.6519,"city","Плетвар"
163634,41.0439,21.5844,"city","Грумази"
163635,41.0178,21.4681,"city","Рибарци (Община Новаци)"
164828,41.3603,21.6231,"city","Ленище (Община Прилеп)"
277929,50.867,4.333,"city","Йете"
163639,40.9833,21.4833,"city","Гнеотино"
98509,41.7686,20.8391,"city","Вруток"
164831,41.3881,21.635,"city","Ореовец (Община Прилеп)"
163641,41,21.5667,"city","Тепавци"
99200,43.1367,20.5122,"city","Нови пазар (Сърбия)"
163642,40.9667,21.5667,"city","Велесело"
277930,50.867,4.333,"city","Кукелберг"
164866,41.4161,21.605,"city","Присад (Община Прилеп)"
163644,40.9667,21.6,"city","Сливица"
163646,40.95,21.5667,"city","Брод (Община Новаци)"
164908,41.3981,21.5658,"city","Дабница"
277933,50.867,4.3,"city","Синт Агата - Берхем"
163658,40.9167,21.5333,"city","Гермиян"
164912,41.385,21.4986,"city","Мажучище"
164914,41.3367,21.4636,"city","Мало Коняри"
163829,40.9,21.6,"city","Живойно"
277935,50.817,4.35,"city","Синт Гилис"
164915,41.3111,21.5161,"city","Ново Лагово"
163830,40.9,21.65,"city","Сович"
164916,41.2619,21.5161,"city","Мало Рувци"
208004,34.1996,-118.175,"","Лаборатория за реактивно движение"
164960,3.0242,30.9116,"city","Аруа"
277937,50.85,4.383,"city","Синт Йост тен Ноде"
99551,43.35,21.2,"city","Крушевац"
165118,38.7567,30.5433,"city","Афионкарахисар"
165245,0.6132,33.477,"city","Иганга"
100619,37.9189,40.2106,"city","Диарбекир"
277938,50.85,4.417,"city","Синт Ламбрехтс - Волюве"
101196,44.2264,22.5308,"city","Неготин"
165250,41.3683,21.2964,"city","Алданци"
209100,41.9,22.5122,"city","Якимово (Община Виница)"
277940,50.833,4.467,"city","Синт Питерс - Волюве"
101200,52.57,-1.08,"city","Нотингам"
277942,50.85,4.333,"city","Синт Янс - Моленбек"
209584,52.1291,-1.46091,"","Радуей"
165555,57.7167,12.9333,"city","Бурос"
102388,51,3.8,"city","Меле (Белгия)"
277956,51.133,4.383,"city","Артселар"
165588,64.75,20.9833,"city","Шелефтео"
166895,13.64,16.49,"","Мусоро"
209838,41.8378,22.5781,"city","Блатец (Община Виница)"
209840,41.9358,22.6233,"city","Гърляни"
277985,51.083,4.367,"city","Бом"
167352,40.9864,21.0511,"city","Асамати"
209842,41.8417,22.5528,"city","Липец (Община Виница)"
167506,57.6333,18.2833,"city","Висбю"
277987,51.2,4.483,"city","Борсбек"
168134,41.075,20.9561,"city","Евла (Община Ресен)"
210183,41.2694,26.6861,"city","Узункьопрю"
168711,41.5775,21.9428,"city","Градско (Община Градско)"
277990,51.3,4.5,"city","Брасхат"
168723,41.5161,21.9497,"city","Росоман (Община Росоман)"
210501,44.2708,19.8842,"city","Валево"
278005,51.15,4.483,"city","Бухаут"
168730,41.6506,21.6622,"city","Чашка"
103954,45.5575,18.6796,"city","Осиек"
278008,51.233,4.533,"city","Вейнегем"
210884,41.3431,22.4428,"city","Удово"
168969,41.8542,22.4444,"city","Зърновци"
168970,41.8542,22.4444,"city","Мородвис"
210894,42.0814,21.9597,"city","Конюх"
278010,51.2,4.517,"city","Вомелгем"
168975,41.8542,22.4444,"city","Видовище"
168979,41.8167,22.2375,"city","Карбинци (Община Карбинци)"
278012,51.383,4.6,"city","Вюствезел"
169029,41.8714,22.2892,"city","Облешево"
278013,51.15,4.45,"city","Едегем"
105623,44.2,27.3333,"city","Кълъраш"
169034,41.3361,21.3331,"city","Кривогащани"
169038,41.2808,21.3453,"city","Бела църква (Община Кривогащани)"
278016,51.467,4.467,"city","Есен (Белгия)"
211009,41.2186,22.3533,"city","Серменин"
169042,40.9064,21.1592,"city","Брайчино"
107370,59.1833,17.6333,"city","Сьодертеле"
169089,40.4103,26.6708,"city","Галиполи (град в Турция)"
211011,41.1858,22.3264,"city","Конско (Община Гевгели)"
107644,44.5667,27.3667,"city","Слобозия"
278017,51.217,4.65,"city","Зандховен"
169178,41.1094,20.9722,"city","Болно"
278020,51.217,4.333,"city","Звейндрехт"
211274,41.4871,24.1256,"","Потребител беседа:Chech Explorer/Архив 2"
169303,43.4133,22.1211,"city","Свърлиг"
211353,41.6428,21.6286,"city","Голозинци"
278046,51.267,4.7,"city","Зурсел"
169652,41.0431,21.0072,"city","Царев двор"
169661,41.0586,21.0431,"city","Козяк (Община Ресен)"
110283,41.4139,22.8811,"city","Ново село (Община Ново село)"
278048,51.383,4.467,"city","Калмтхаут"
169809,40.9,20.9833,"city","Конско (Община Ресен)"
110324,41.735,22.1822,"city","Ново село (Община Щип)"
110460,46.0167,21.2,"city","Винга"
278050,51.317,4.433,"city","Капелен"
169932,40.9333,20.9167,"city","Стение"
169954,41.0206,20.9442,"city","Вълкодери"
278053,51.133,4.45,"city","Контих"
169963,41.0503,21.0281,"city","Горна Бела църква"
211365,53.9633,9.31806,"landmark","География на Германия"
211465,42.0478,22.2444,"city","Луково (Община Кратово)"
111178,43.9042,22.2847,"city","Зайчар"
169964,41.0375,21.0308,"city","Долна Бела църква"
278055,51.117,4.483,"city","Линт"
169973,40.8756,21.1197,"city","Долно Дупени"
278057,51.283,4.683,"city","Мале (Белгия)"
111888,43.9937,22.9349,"city","Калафат"
169978,40.8933,21.1072,"city","Наколец"
278059,51.167,4.467,"city","Мортсел"
170055,41.0114,20.9353,"city","Шурленци"
112163,45.35,19,"city","Вуковар"
278061,51.117,4.333,"city","Нийл"
212049,41.9936,21.9853,"city","Горно Гюгянци"
170056,40.9833,20.9167,"city","Отешево"
112206,42.3092,21.6492,"city","Прешево"
212081,41.9683,21.9578,"city","Долно Гюгянци"
170057,40.95,20.8833,"city","Лескоец (Община Ресен)"
112212,42.4592,21.7667,"city","Буяновац"
278062,51.2,4.55,"city","Ранст"
212259,41.4469,22.2006,"city","Бистренци (Община Демир Капия)"
112224,42.6906,22.1708,"city","Сурдулица"
170064,41.0142,20.9894,"city","Долно Перово"
212279,41.5931,21.4717,"city","Богомила"
170065,41.0294,20.9486,"city","Покървеник"
278065,51.083,4.417,"city","Рьомст"
112613,42.9981,21.9461,"city","Лесковац"
170066,41.0331,20.9544,"city","Прелюбе"
212374,41.6289,21.9053,"city","Ногаевци"
170068,41.0453,20.9544,"city","Лавци (Община Ресен)"
278066,51.333,4.367,"city","Стабрук"
212684,41.7167,26.85,"city","Гечкинли"
170072,41.0331,21,"city","Дърмени"
212703,41.8675,22.4811,"city","Лески"
170236,41.0622,20.9753,"city","Горно Дупени"
170237,41.0622,20.9561,"city","Стипона"
278067,51.133,4.333,"city","Схеле"
212704,41.8756,22.6292,"city","Пекляни"
278074,51.233,4.567,"city","Схилде"
170468,41.1036,20.9461,"city","Петрино (Община Ресен)"
118664,50.717,4.383,"city","Ватерло"
170473,41.085,21.0639,"city","Сопотско"
120508,43.0125,22.7211,"city","Желюша"
278075,51.25,4.5,"city","Схотен"
170474,41.1103,21.0114,"city","Янковец"
121549,41.9881,21.3303,"city","Гърчец"
170475,41.1317,21.0472,"city","Избища (Община Ресен)"
121552,41.6072,20.9383,"city","Заяс"
278076,51.15,4.35,"city","Хемиксем"
213170,41.5792,21.5719,"city","Теово (Община Чашка)"
170476,41.1403,21.0239,"city","Кривени"
122575,42.0105,20.9714,"city","Тетово"
170477,41.1586,21.0611,"city","Лева река (Община Ресен)"
170478,41.1581,20.9822,"city","Горно Круше (Община Ресен)"
170479,41.1175,21.0628,"city","Златари (Община Ресен)"
122855,40.1917,29.0611,"city","Бурса"
278078,51.15,4.467,"city","Хове"
123023,42.0792,22.1814,"city","Кратово"
213714,42.1256,22.0156,"city","Пендак"
123030,41.7594,22.8906,"city","Пехчево"
213752,41.6031,21.7489,"city","Войница (Община Чашка)"
278216,51.117,4.65,"city","Берлар"
213763,41.43,21.9247,"city","Возарци"
213805,38.5078,125.754,"city","Сариуън"
278217,51.033,4.533,"city","Бонхейден"
213810,41.9936,22.0703,"city","Горно Барбарево"
278218,51.1,4.233,"city","Борнем"
123599,41.7972,20.9083,"city","Гостивар"
123656,41.865,21.9427,"city","Свети Никола (град)"
278219,51.067,4.367,"city","Вилебрук"
213813,41.9814,22.0628,"city","Долно Барбарево"
124044,44.0833,28.2167,"city","Кобадин"
278220,51.1,4.517,"city","Дьофел"
170868,41.6245,24.0287,"waterbody","Кочанска река (България)"
170868,41.5308,24.0579,"waterbody","Кочанска река (България)"
124128,41.5942,20.6533,"city","Галичник"
171171,41.1686,21.4825,"city","Добрушево"
278221,51.117,4.583,"city","Лийр"
124705,41.9886,22.2361,"city","Злетово"
171204,41.0172,21.0533,"city","Грънчари"
171211,41.15,20.9589,"city","Илино"
125173,46.3667,14.1167,"city","Блед"
278222,51.167,4.65,"city","Нейлен"
171212,41.0281,21.0222,"city","Езерани"
127040,40.8942,21.1408,"city","Любойно"
278223,51.05,4.633,"city","Пьоте"
171230,40.9853,21.0686,"city","Курбиново"
214626,41.7072,22.2456,"city","Липов дол"
171232,40.9797,21.0617,"city","Претор (село)"
278232,51.083,4.283,"city","Пюрс"
214649,41.9228,22.4469,"city","Оризари (Община Кочани)"
127406,42.2031,22.3348,"city","Крива паланка"
171233,40.9589,21.0814,"city","Сливница (Община Ресен)"
278234,51.05,4.2,"city","Синт Амандс"
301496,51.15,3.233,"city","Осткамп"
171236,40.9394,21.1086,"city","Крани"
214711,49.68,5.82,"city","Арлон"
278235,51.067,4.533,"city","Синт Кателейне - Вавер"
171239,41.0222,21.0619,"city","Райца"
215022,41.91,22.6497,"city","Търсино (Община Виница)"
301497,51.05,3.1,"city","Торхаут"
171248,40.9436,21.1131,"city","Ървати"
278238,51.083,4.717,"city","Хейст оп ден Берг"
171251,40.9261,21.1025,"city","Щърбово"
301498,51.15,3.233,"city","Ябеке"
171253,41.3078,22.435,"city","Миравци"
127993,49.733,5.617,"city","Абе"
301512,51.017,2.717,"city","Алверингем"
171266,41.2894,21.4011,"city","Боротино"
278299,51.317,5.083,"city","Арендонк"
128350,52.6853,-1.8305,"city","Личфийлд"
215864,40.89,26.9011,"city","Малгара"
215882,41.8172,22.1189,"city","Върсаково"
301514,51.067,2.65,"city","Вьорне"
171741,51.016,4.467,"city","Мехелен"
278300,51.317,4.983,"city","Ауд Тьорнхаут"
216251,41.3572,21.5325,"city","Варош (Прилеп)"
171975,41.2664,21.0769,"city","Слоещица"
301515,51.1,2.583,"city","Де Пане"
216726,41.9494,21.8442,"city","Малино"
278320,51.45,4.933,"city","Барле Хертог"
129416,50.4792,-3.5305,"city","Торки (Англия)"
216824,41.9275,22.3806,"city","Бели"
301516,51.1,2.65,"city","Коксейде"
278321,51.083,4.917,"city","Вестерло"
216853,41.8744,22.3819,"city","Моянци (Община Кочани)"
172229,55.417,13.833,"city","Юстад"
301518,51.117,2.75,"city","Нюпорт (Белгия)"
216859,41.8744,22.3819,"city","Цървена нива"
172674,44.0218,16.1159,"city","Книн"
278323,51.317,4.883,"city","Воселар"
301519,51.033,2.867,"city","Диксмойде"
216883,41.055,28.3708,"city","Селимпаша"
216896,42.0333,22.4667,"city","Ново село (Община Кочани)"
278324,51.2,4.767,"city","Ворселар"
301520,51.033,3.033,"city","Кортемарк"
130580,42.9564,19.0964,"city","Шавник"
216906,42.0417,22.4525,"city","Речани (Община Кочани)"
301522,51.083,2.967,"city","Кукеларе"
278327,51.167,5,"city","Гел (град)"
216942,42.0458,22.4106,"city","Полаки"
301524,50.983,2.75,"city","Ло-Ренинге"
278329,51.2,4.717,"city","Гробендонк"
217182,41.8158,24.1297,"","Голям Беглик"
172975,41.1517,22.3275,"city","Хума (Община Гевгели)"
301525,50.983,2.95,"city","Хаутхьолст"
217253,41.8193,24.1314,"","Беглика (язовир)"
278333,51.233,5.117,"city","Десел"
301635,50.783,3.033,"city","Вервик"
173050,41.4958,22.385,"city","Конче (Община Конче)"
173056,41.2094,21.2233,"city","Суходол (Община Демир Хисар)"
130985,50.867,4.383,"city","Схарбек"
301636,50.933,2.733,"city","Влетерен"
278335,51.25,4.95,"city","Кастерле"
301638,50.867,2.983,"city","Зонебеке"
131337,41.5144,20.9633,"city","Кичево"
278341,51.083,5.067,"city","Лакдал"
301640,50.85,2.883,"city","Ипер"
173487,41.3014,21.1661,"city","Сухо гърло"
301641,50.917,2.917,"city","Лангемарк-Пулкапеле"
173489,41.1997,21.1814,"city","Стругово"
301642,50.767,2.9,"city","Месен"
131451,51.1,5.8,"city","Маасейк"
173601,50.417,5.367,"city","Клавие"
301648,50.85,2.733,"city","Поперинге"
131638,50.62,3.77,"city","Ат"
278389,51.233,4.833,"city","Лиле"
301649,50.767,2.817,"city","Хьовеланд"
278392,51.367,4.867,"city","Мерксплас"
301650,50.767,3.433,"city","Авелгем"
131641,50.267,4.917,"city","Динан"
278398,51.133,5.083,"city","Мерхаут"
174438,41.2333,21.175,"city","Слепче (Община Демир Хисар)"
301651,50.833,3.467,"city","Анзегем"
131642,50.65,4.133,"city","Ребек"
301652,50.883,3.417,"city","Варегем"
278400,51.15,4.85,"city","Олен"
301653,50.8,3.167,"city","Вевелгем"
131762,50.833,4.367,"city","Иксел"
278403,51.35,4.767,"city","Рейкеворсел"
301654,50.85,3.35,"city","Дерлейк"
131766,51.233,2.917,"city","Остенде"
301655,50.8,3.333,"city","Звевегем"
278404,51.267,5.067,"city","Ресий"
278406,51.183,4.833,"city","Херенталс"
301656,50.85,3.283,"city","Кьорне"
131936,51.033,4.1,"city","Дендермонде"
278409,51.15,4.767,"city","Херентхаут"
301657,50.883,3.233,"city","Ленделеде"
278420,41.9678,22.2178,"city","Ратавица"
131938,50.8,3.75,"city","Бракел"
301660,50.8,3.117,"city","Менен"
278467,51.05,4.883,"city","Херселт"
131939,40.7806,30.4033,"city","Адапазаръ"
301661,50.717,3.35,"city","Спийре-Хелкейн"
278470,51.4,4.767,"city","Хогстратен"
174820,41.4497,22.0236,"city","Глишик"
301662,50.85,3.3,"city","Харелбеке"
131940,50.533,5.217,"city","Уанз"
278471,51.083,4.783,"city","Хьолсхаут"
301663,51.183,3,"city","Ауденбюрг"
131985,50.517,5.233,"city","Юи"
301666,51.233,2.967,"city","Бредене"
132294,41.3838,22.7436,"city","Банско (Община Струмица)"
174917,11.25,75.77,"city","Кожикод"
301667,51.15,2.967,"city","Гистел"
301668,51.267,3.033,"city","Де Хан"
132327,50.717,3.833,"city","Лесин"
175291,41.4128,21.1556,"city","Пуста река"
175777,59.5917,150,"","Маската на скръбта"
301670,51.1,3,"city","Ихтегем"
132898,50.567,4.067,"city","Соани"
301671,51.183,2.817,"city","Миделкерке"
132902,50.5,4.35,"city","Понт а Сел"
301672,50.917,3.2,"city","Изегем"
132910,50.733,3.217,"city","Мускрон"
301682,50.917,3.25,"city","Ингелмьонстер"
278631,51.167,5.583,"city","Бохолт (Белгия)"
132914,50.917,4.9,"city","Тийлт-Винге"
176018,40.8558,26.6303,"city","Кешан"
301683,50.85,3.117,"city","Ледегем"
278633,51.133,5.6,"city","Бре"
176921,41.3964,21.1983,"city","Арилево"
301684,51.033,3.133,"city","Лихтервелде"
132919,50.867,5.517,"city","Билзен"
217712,38.281,69.225,"landmark","Окно"
176924,41.3344,21.2372,"city","Острилци"
217720,41.9658,22.3164,"city","Пантелей (село)"
278635,51.033,5.733,"city","Дилсен-Стокем"
301685,50.883,3.067,"city","Морследе"
217724,41.9725,22.5281,"city","Безиково"
176927,41.3892,21.1847,"city","Долно Дивяци"
133109,42.1097,21.418,"city","Кучевище"
301686,50.933,3.117,"city","Руселаре"
278637,51.15,5.75,"city","Кинрой"
134012,53.6807,-1.6888,"city","Мърфийлд"
176929,41.4156,21.1731,"city","Горно Дивяци"
176938,41.8714,22.2892,"city","Чешиново"
301687,50.983,3.017,"city","Стаден"
134846,42.9636,22.1231,"city","Власотинци"
176945,41.3722,21.1436,"city","Зашле"
135023,41.8214,27.7606,"city","Малък Самоков"
278639,51.233,5.3,"city","Ломел"
176954,41.2614,21.2469,"city","Единаковци (Община Демир Хисар)"
301689,50.983,3.083,"city","Хогледе"
135984,40.3442,26.6856,"city","Лампсак"
136888,41.0236,21.0508,"city","Подмочани"
301691,50.967,3.183,"city","Ардойе"
278640,51.1,5.517,"city","Меуен-Гройтроде"
301715,50.9,3.367,"city","Вийлсбеке"
301716,51.05,3.267,"city","Вингене"
278644,51.233,5.433,"city","Нерпелт"
136939,44.867,20.633,"city","Панчево (град)"
301718,50.95,3.417,"city","Дентергем"
136951,43.5417,21.7078,"city","Алексинац"
278645,51.217,5.417,"city","Оверпелт"
301719,50.95,3.283,"city","Мьолебеке"
137610,41.4452,21.0266,"city","Вранещица"
301720,50.917,3.333,"city","Острозебеке"
177218,13.7199,80.2301,"isle","Шрихарикота"
137712,41.0808,21.1386,"city","Гявато (Община Битоля)"
278646,51.133,5.467,"city","Пер (град)"
301721,50.983,3.267,"city","Питем"
138558,41.8408,27.5561,"city","Дупница (пещера)"
301722,51.033,3.383,"city","Ройселеде"
278648,51.25,5.55,"city","Хамонт-Ахел"
139233,41.7483,21.76,"city","Башино село"
301723,51,3.317,"city","Тийлт"
139238,41.7633,21.6983,"city","Белещевица"
177487,48.1914,16.3808,"landmark","Белведере (дворец)"
278649,51.033,5.383,"city","Хаутхален-Хелхтерен"
301731,50.533,3.717,"city","Бельой"
139239,41.7397,21.6722,"city","Бузалково"
278650,51.117,5.367,"city","Хехтел-Ексел"
301732,50.483,3.65,"city","Бернисар"
139910,41.2943,129.134,"landmark","Севернокорейски ядрен опит (2006)"
219040,41.1836,22.4847,"city","Негорци"
278663,45.1205,19.5602,"city","Сремски Карловци"
219043,41.1625,22.5072,"city","Мързенци"
301733,50.6,3.85,"city","Брюжелет"
177991,41.2878,21.1208,"city","Жван"
278860,50.867,5.3,"city","Алкен (Белгия)"
177995,41.2453,21.1997,"city","Белче"
301734,50.733,3.683,"city","Елезел"
178034,41.2667,21.2728,"city","Света (Община Демир Хисар)"
219103,50.58,5.85,"city","Вервие"
178145,41.8972,22.5994,"city","Драгобраще"
301735,50.733,3.733,"city","Флобек"
278863,50.8,5.333,"city","Борглон"
178187,41.2358,21.2425,"city","Вардино (Община Демир Хисар)"
301736,50.683,3.633,"city","Фран лез Анвен"
178188,41.3422,21.1272,"city","Брезово (Община Демир Хисар)"
219105,50.93,5.338,"city","Хаселт"
278865,50.85,5.317,"city","Велен"
178325,40.8581,26.6933,"city","Булгаркьой"
301737,50.583,3.8,"city","Шиевър"
178326,41.6764,27.0711,"city","Ениджия"
301738,50.433,3.667,"city","Анси (Белгия)"
278867,50.75,5.783,"city","Вурен"
179810,43.8167,28.2,"city","Караомер"
179961,41.2842,21.2364,"city","Журче"
301741,50.433,3.8,"city","Бусю"
179968,41.2164,21.0911,"city","Церово (Община Демир Хисар)"
278868,50.867,5.383,"city","Кортесем"
301742,50.4,3.783,"city","Дур"
141296,41.0417,21.5528,"city","Паралово (Община Новаци)"
180091,42.0139,22.2287,"city","Лесново (Община Пробищип)"
141301,41.0969,21.5267,"city","Арматуш"
180093,41.8419,22.2497,"city","Крупище"
278871,50.883,5.65,"city","Ланакен"
301743,50.533,3.933,"city","Жюрбиз"
141312,41.6353,21.7594,"city","Ораовец"
220916,37.9703,126.516,"city","Кесън"
180098,41.1406,22.5489,"city","Богородица (Община Гевгели)"
221029,42.0983,22.0756,"city","Кетеново"
141413,41.0419,21.4561,"city","Новаци"
301744,50.433,3.85,"city","Кареньон"
180102,41.3461,21.0972,"city","Велмевци"
221035,41.6806,21.5544,"city","Горно Врановци"
141421,42.0638,21.6103,"city","Айватовци"
278872,50.967,5.7,"city","Маасмехелен"
180154,61,14.533,"city","Мура (град)"
301745,50.35,3.933,"city","Кеви"
141429,41.5753,21.2758,"city","Локвица"
141438,41.0158,21.5383,"city","Балдовенци"
278873,50.8,5.6,"city","Риймст"
301746,50.4,3.683,"city","Киеврен"
181657,41.9536,22.2714,"city","Райчани"
141443,41.9578,21.7803,"city","Сушица (Община Петровец)"
301747,50.383,3.867,"city","Колфонтен"
278874,50.783,5.467,"city","Тонгерен"
181915,41.2567,21.1075,"city","Мренога"
141462,42.1981,21.8286,"city","Старо Нагоричане"
181916,41.2378,21.2206,"city","Граище"
301748,50.55,3.9,"city","Ланс (Белгия)"
278877,50.75,5.283,"city","Херс"
141468,65.8333,21.7,"city","Свартбьорнсбюн"
181919,41.2219,21.1206,"city","Лесково (Община Демир Хисар)"
181920,41.1967,21.1014,"city","Боище"
141601,41.0153,20.8108,"city","Пещани (Община Охрид)"
301749,50.35,3.717,"city","Онел"
278879,50.733,5.433,"city","Херстапе"
221780,51.317,4.867,"city","Берсе"
181923,41.2328,21.09,"city","Вирово"
141606,41.05,20.8136,"city","Конско (Община Охрид)"
181927,41.3167,21.19,"city","Ракитница (Община Демир Хисар)"
222104,41.1642,28.1897,"city","Сеймен (Вилает Истанбул)"
301750,50.45,3.817,"city","Сен Гислен"
181928,41.3286,21.1939,"city","Растойца"
141609,40.95,20.7833,"city","Търпейца"
278880,50.85,5.483,"city","Хуселт"
181930,41.3444,21.1725,"city","Кочище"
278894,41.4789,21.4125,"city","Секирци"
301751,50.4,3.9,"city","Фрамери"
181933,41.3222,21.1686,"city","Радово (Община Демир Хисар)"
141611,40.9167,20.7833,"city","Любанища"
279060,41.8114,22.2953,"city","Цървулево"
181937,41.3153,21.0975,"city","Доленци (Община Демир Хисар)"
279061,41.8383,22.1719,"city","Долно Трогерци"
222777,38.7333,125.4,"city","Нампхо"
301752,50.767,3,"city","Комин-Варнетон"
141625,41.0836,20.8278,"city","Велестово"
181941,41.2822,21.0481,"city","Базерник"
279062,41.8578,22.17,"city","Горно Трогерци"
223119,43.1178,22.9214,"city","Болев дол"
141629,41.04,20.81,"city","Лагадин"
301753,50.7,4.033,"city","Ангиан"
279093,41.8103,22.1336,"city","Сарчиево"
223123,42.99,22.6806,"city","Бански дол"
141801,59.85,17.6333,"city","Упсала"
223129,43.0117,22.8444,"city","Бачево (Община Цариброд)"
182627,51.183,5.117,"city","Мол (Белгия)"
301758,50.6,4.133,"city","Брен льо Конт"
279225,51,5.583,"city","Ас (Белгия)"
182699,41.1881,21.1961,"city","Загориче (Община Демир Хисар)"
223131,42.9561,22.7475,"city","Било (Община Цариброд)"
182702,41.1825,21.1939,"city","Утово"
141953,41.4175,20.7942,"city","Върбяни (Община Дебърца)"
301760,50.567,4.183,"city","Екосин"
223135,43.0867,22.9167,"city","Вълковия (Община Цариброд)"
182704,41.2089,21.2142,"city","Кутретино"
182759,-34.8931,-56.2454,"landmark","Естадио Олимпико (Монтевидео)"
279226,51.033,5.217,"city","Беринген"
223137,43.02,22.7136,"city","Гоин дол"
141965,44.2333,28.6167,"city","Мамая"
183055,41.3167,21.0833,"city","Големо Илино"
301763,50.467,4.183,"city","Ла Лувиер"
141978,41.9797,21.3044,"city","Глумово (Община Сарай)"
183058,41.3242,21.0633,"city","Железнец"
279232,50.967,5.5,"city","Генк"
141983,41.4031,20.9492,"city","Белица (Община Другово)"
301765,50.5,4.1,"city","Льо Рьолкс"
223157,42.9681,22.6678,"city","Поганово"
183062,41.2975,21.0369,"city","Мало Илино"
301767,50.567,3.45,"city","Антоан"
279233,50.75,5.117,"city","Гингелом"
183083,41.3119,21.2697,"city","Бирино"
224783,42.0664,22.1617,"city","Шлегово"
142571,41.4322,21.2794,"city","Борино (Община Крушево)"
301768,50.517,3.417,"city","Брюно"
183108,41.4128,21.1556,"city","Бучин"
279234,50.9,5.4,"city","Дийпенбек"
224790,42.0839,22.1511,"city","Железница (Община Кратово)"
142715,41.6858,21.7336,"city","Горно Оризари (Община Велес)"
183109,41.3053,21.1903,"city","Ново село (Община Демир Хисар)"
225282,41.5186,21.7411,"city","Владиловци"
183126,41.3117,21.3497,"city","Крушеани"
301770,50.7,3.267,"city","Естемпюи"
225283,41.4964,21.7786,"city","Попадия"
143009,41.6336,28.0944,"city","Мидия (Турция)"
279235,50.983,5.35,"city","Зонховен"
183133,41.2836,21.3394,"city","Вогяни"
225389,41.6033,21.6492,"city","Ново село (Община Чашка)"
301771,50.6,3.617,"city","Льоз ан Ено"
183146,41.4192,21.2533,"city","Селце (Община Крушево)"
225414,41.6,21.8081,"city","Скачинци"
183153,41.895,22.6222,"city","Крушево (Община Виница)"
279237,50.933,5.567,"city","Зьотендал"
225433,41.9608,22.4381,"city","Вранинци (Община Кочани)"
183179,-34.8593,-56.204,"landmark","Парке Алфредо Виктор Виера"
225435,41.9478,22.4231,"city","Припор (Община Кочани)"
301774,50.733,3.5,"city","Мон дьо л&#39;Анклюс"
183191,41.2558,21.2086,"city","Сладуево"
225438,41.8808,22.4192,"city","Гърдовци"
279239,51.117,5.25,"city","Леополдсбюрг"
225575,42.0239,22.1958,"city","Добрево (Община Пробищип)"
183194,41.3189,21.4233,"city","Мирче Ацев (село)"
301776,50.683,3.333,"city","Пек (Белгия)"
225948,52.6611,1.3023,"city","Оулд Катън"
144051,41.8228,21.705,"city","Ветерско"
183198,41.7817,22.2036,"city","Стар Караорман"
279242,50.983,5.2,"city","Льомен"
144257,41.1406,21.4389,"city","Долна Чарлия"
183208,41.2714,21.1994,"city","Прибилци"
301778,50.517,3.583,"city","Перювелз"
183211,41.6064,22.3228,"city","Брест (Община Щип)"
279250,50.867,5.2,"city","Нюеркеркен"
144381,41.6961,21.8364,"city","Горно Каласлари"
301779,50.55,3.3,"city","Рюм"
183221,41.1592,21.1594,"city","Обедник"
227876,42.0525,22.2169,"city","Близанци"
144404,41.8958,21.7911,"city","Джидимирци (Община Велес)"
183222,41.3928,21.3267,"city","Подвис (Община Кривогащани)"
227878,42.0697,22.2489,"city","Куново (Община Кратово)"
301780,50.717,3.45,"city","Сел"
279252,51.05,5.583,"city","Опглаббек"
183245,41.2744,21.3706,"city","Пашино Рувци"
144591,41.1928,20.8311,"city","Вапила"
227880,42.0633,22.0439,"city","Вакуф"
183349,41.3317,21.3892,"city","Върбяни (Община Кривогащани)"
144696,41.9083,22.8497,"city","Вирче"
301783,50.317,4.383,"city","Ам сюр Йор Налин"
279254,50.8,5.183,"city","Синт Тройден"
183383,41.3686,21.3175,"city","Годиве (Община Кривогащани)"
144762,41.6886,21.8375,"city","Долно Каласлари"
183386,41.3561,21.3253,"city","Кореница (Община Кривогащани)"
301784,50.4,4.267,"city","Андерлю"
183388,41.2822,21.3628,"city","Обършани"
228109,42.0928,22.2081,"city","Горно Кратово"
144766,41.6742,21.7489,"city","Долно Оризари (Община Велес)"
144768,41.8489,21.8203,"city","Иванковци (Община Велес)"
279256,51.067,5.083,"city","Тесендерло"
183390,41.3381,21.4067,"city","Славей (село)"
228834,41.9772,22.4106,"city","Горно Градче"
144769,41.8097,21.6536,"city","Карабунище"
301785,50.233,4.233,"city","Бомон"
228855,41.9225,22.4461,"city","Долно Градче"
144804,41.8778,21.7664,"city","Круше"
228918,41.4011,128.176,"city","Хесан"
279259,50.933,5.1,"city","Хален"
301786,50.3,4.117,"city","Еркелин"
144807,41.7772,21.8181,"city","Кумарино"
183882,46.9525,4.6344,"city","Ноле"
229330,42.903,22.4616,"city","Цървена ябука (Община Бабушница)"
144812,41.8347,21.7794,"city","Лугунци (Община Велес)"
229697,42.0603,22.0864,"city","Филиповци (Община Кратово)"
183885,47.195,5.389,"city","Осон"
279295,51.1,5.133,"city","Хам (Белгия)"
229870,41.42,22.1661,"city","Пърждево"
301787,50.4,4.1,"city","Естин"
184349,41.9656,21.3989,"city","Водно (квартал)"
144836,41.1503,20.8281,"city","Лескоец (Община Охрид)"
230009,44.3797,20.2639,"city","Лазаревац"
184473,41.3214,21.305,"city","Свето Митрани"
230250,41.7086,21.9122,"city","Кишино"
301790,50.35,4.25,"city","Лоб"
145081,41.6744,20.5858,"city","Жировница"
184477,41.3333,21.3167,"city","Върбоец"
279296,50.933,5.167,"city","Херк де Стад"
184481,41.3333,21.3167,"city","Якреново"
145129,41.7886,21.8294,"city","Мамутчево"
301791,50.317,4.167,"city","Мерб льо Шато"
145133,41.7944,21.8003,"city","Сояклари"
184488,41.1589,21.3597,"city","Беранци"
184502,41.4364,21.2525,"city","Белушино"
145135,41.7733,21.7778,"city","Отовица (село)"
279297,51.05,5.283,"city","Хьосден-Золдер"
184509,41.6497,22.1714,"city","Селце (Община Щип)"
301792,50.033,4.167,"city","Момини"
145140,41.8431,21.7569,"city","Рудник (Община Велес)"
184558,44.25,27.9333,"city","Расово (Румъния)"
231434,42.0822,22.1269,"city","Туралево"
145442,41.4761,22.5675,"city","Велюса"
279306,50.983,4.833,"city","Арсхот"
231435,42.1322,22.0778,"city","Търновац"
279315,41.5428,22.325,"city","Скоруша (село)"
145443,41.4453,22.6083,"city","Баница (Община Струмица)"
301794,50.45,4.233,"city","Морланвелз"
231437,42.0858,22.0811,"city","Тополовик"
279330,41.7094,22.1367,"city","Софилари"
145445,41.4339,22.5453,"city","Белотино"
279496,41.8828,22.0922,"city","Стануловци"
185130,41.9056,22.3086,"city","Спанчево"
231857,39.1475,127.446,"city","Уънсан"
145446,41.4494,22.5883,"city","Водоча"
301795,50.15,4.217,"city","Сиври-Ранс"
185155,41.4,21.275,"city","Норово"
279509,41.4947,21.6506,"city","Степанци (Община Чашка)"
231865,42.1211,22.1058,"city","Крилатица (Община Кратово)"
145447,41.3764,22.7953,"city","Габрово (Община Струмица)"
185159,41.4522,21.2722,"city","Саждево"
279512,41.9939,22.0111,"city","Строиманци"
232415,38.0333,125.717,"city","Хеджу"
145448,41.4236,22.6631,"city","Градско Балдовци"
301797,50.333,4.283,"city","Тюен"
185160,41.2958,21.3136,"city","Пресил"
185162,41.3089,21.3128,"city","Милошево"
279513,41.8903,21.8581,"city","Тръстеник (Община Свети Никола)"
232558,42.0961,21.9597,"city","Димонце"
301798,50.15,4.317,"city","Фроашапел"
279571,42.0114,22.0997,"city","Горни Стубол"
185339,41.1183,21.4414,"city","Радобор"
145450,41.4608,22.6525,"city","Добрейци"
232559,42.0828,22.3125,"city","Емирица"
145451,41.3386,22.6683,"city","Дорломбос"
279574,42.0111,22.1183,"city","Долни Стубол"
185340,41.1319,21.4703,"city","Трап (Община Могила)"
301800,50.05,4.317,"city","Шиме"
232560,42.0911,22.1172,"city","Живалево"
145452,41.3542,22.5739,"city","Злешево"
185343,41.1383,21.4742,"city","Будаково"
232561,42.1172,22.2853,"city","Каврак"
145453,41.3572,22.6094,"city","Костурино (Община Струмица)"
279577,50.833,4.667,"city","Ауд Хеверле"
185344,41.1528,21.4336,"city","Горна Чарлия"
232562,42.1056,22.1242,"city","Талашманце"
301801,50.417,4.567,"city","Езо-Прел"
145454,41.4053,22.6653,"city","Куклиш"
279578,50.85,4.833,"city","Баутерсем"
233057,41.5278,21.5331,"city","Ораов дол"
233059,41.6156,21.5161,"city","Бистрица (Община Чашка)"
185346,41.1731,21.4056,"city","Вашарейца"
301815,50.333,4.517,"city","Жерпин"
145455,41.3344,22.6417,"city","Мемешли"
279581,51.017,4.783,"city","Бегейнендейк"
233060,41.5489,21.8761,"city","Долно Чичево"
185353,41.1742,21.3653,"city","Долно Сърбци"
233061,41.5533,21.8617,"city","Горно Чичево"
185357,41.1164,21.4842,"city","Дедебалци"
185359,41.1247,21.54,"city","Църничани (Община Могила)"
145456,41.4153,22.7267,"city","Муртино"
301819,50.467,4.367,"city","Курсел"
233079,41.9553,22.3375,"city","Нивичани"
185372,41.1342,21.5303,"city","Путурус"
185373,41.1494,21.5667,"city","Мойно"
279582,50.95,4.967,"city","Бекеворт"
145457,41.3469,22.6492,"city","Орманли"
185374,41.1664,21.5381,"city","Мусинци"
301820,50.533,4.45,"city","Ле Бон Вийерс"
185375,41.1511,21.5053,"city","Алинци (Община Могила)"
233084,42.0583,22.4869,"city","Пресека (Община Кочани)"
145458,41.4172,22.5883,"city","Попчево"
185376,41.1828,21.4514,"city","Ношпал"
279583,50.85,4.617,"city","Бертем"
145459,41.4592,22.6822,"city","Просениково"
233108,41.8813,22.3836,"city","Горни Подлог"
301821,50.5,4.233,"city","Манаж"
185377,41.2078,21.4039,"city","Лознани"
145460,41.3972,22.6,"city","Раборци"
233114,41.8861,22.3669,"city","Долни Подлог"
185380,41.2064,21.3589,"city","Иваневци"
279584,50.833,4.767,"city","Бийрбек"
233118,42.0403,22.4881,"city","Главовица"
301822,50.383,4.383,"city","Монтини льо Тийол"
145461,41.4431,22.5186,"city","Рич"
233307,42.02,22.4469,"city","Костин дол (Община Кочани)"
185381,41.2233,21.3936,"city","Новоселани (Община Могила)"
145462,41.4208,22.7003,"city","Съчево"
185384,41.2181,21.3428,"city","Подино"
279585,50.983,4.567,"city","Бортмербек"
145463,41.3906,22.6981,"city","Свидовица"
301825,50.517,4.25,"city","Сенеф"
185439,41.2294,21.3369,"city","Свето Тодори"
145464,41.3958,22.6317,"city","Три води"
145466,41.3731,22.5481,"city","Чепели"
233729,41.59,23.95,"","Букорово"
185442,41.2514,21.3303,"city","Търновци (Община Могила)"
279586,50.883,5.117,"city","Гетбетс"
301826,50.433,4.55,"city","Фарсиен"
145831,41.4406,22.7278,"city","Босилово"
233809,41.7,24.1,"","Бърдуче"
233875,41.8,129.783,"city","Чхънджин"
145833,41.4233,22.765,"city","Бориево"
185850,-34.8621,-56.2016,"landmark","Естадио Саролди"
279588,50.983,5.05,"city","Дийст"
233888,38.75,125.633,"city","Сонрим"
145834,41.4844,22.7128,"city","Гечерлия"
186060,-34.8674,-56.252,"landmark","Монументал Луис Троколи"
233889,39.8333,127.6,"city","Хъннам"
301827,50.483,4.533,"city","Фльорюс"
279622,41.9817,22.1625,"city","Стърмош"
145835,41.5006,22.7744,"city","Дървош"
186063,-31.712,-55.992,"landmark","Естадио Раул Гойенола"
279627,41.9322,22.2072,"city","Трипатанци"
234471,41.5908,21.5528,"city","Согле"
186068,-34.8734,-56.2124,"landmark","Парке Капуро"
145836,41.4322,22.7331,"city","Еднокукево"
279633,41.8664,22.1253,"city","Судик"
301829,50.417,4.317,"city","Фонтен л&#39;Евек"
279635,41.6508,22.28,"city","Танатарци"
145837,41.4706,22.7986,"city","Иловица"
279639,41.7828,22.1867,"city","Чардаклия"
234906,45.0833,28.3167,"city","Черна (Окръг Тулча)"
301830,50.467,4.283,"city","Шапел лез Ерлемон"
145838,41.4156,22.7536,"city","Моноспитово"
279645,41.8181,21.9556,"city","Горно Църнилище"
145839,41.4706,22.7269,"city","Петралинци"
234979,41.8861,22.5597,"city","Прибачево"
279646,41.8172,21.9642,"city","Долно Църнилище"
301831,50.4,4.517,"city","Шатле"
145840,41.45,22.7658,"city","Радово (Община Босилово)"
279652,41.8589,22.2642,"city","Уларци"
235150,45.25,28.15,"city","Мачин"
301836,50.783,4.767,"city","Бовшен"
145841,41.4353,22.7072,"city","Робово (Община Босилово)"
235255,41.6333,27.8833,"city","Пенека"
235294,41.6242,27.52,"city","Бунархисар"
145842,41.4778,22.7025,"city","Сарай (Община Босилово)"
301838,50.683,4.267,"city","Брен льо Шато"
279656,41.5264,22.0569,"city","Джидимирци (Община Неготино)"
145843,41.4381,22.7939,"city","Секирник"
235398,42.0453,22.0497,"city","Сакулица"
301839,50.683,4.367,"city","Брен л&#39;Альо"
145844,41.4658,22.7483,"city","Старо Балдовци"
279706,41.635,22.0203,"city","Яношево"
186148,31.8978,34.6906,"","Палмачим (авиобаза)"
235413,42.1167,22.3,"city","Кнежево (Община Кратово)"
145845,41.4383,22.7736,"city","Турново"
301841,50.633,4.7,"city","Вален"
145846,41.4897,22.7431,"city","Хамзали"
186214,41.6414,21.4394,"city","Папрадище (Община Чашка)"
235415,42.0839,22.2797,"city","Койково"
301842,50.583,4.533,"city","Вийерс ла Вил"
235434,42.0947,22.25,"city","Мушково"
145848,41.4667,22.8167,"city","Щука (село)"
186283,41.6231,21.7039,"city","Бусилци"
280030,44.4226,21.1005,"city","Костолац"
235436,42.115,22.2333,"city","Нежилово (Община Кратово)"
301843,50.733,4.7,"city","Грез Доасо"
186305,41.7032,24.0065,"mountain","Унден"
235439,42.0603,22.1469,"city","Приковци"
301844,50.75,4.983,"city","Елесин"
186310,41.6232,24.0524,"mountain","Марашова чука"
235440,42.0336,21.9978,"city","Татомир"
280271,50.833,5.1,"city","Заутлеу"
235458,41.7167,27.1833,"city","Карахадър"
145990,41.45,22.95,"city","Бадилен"
301848,50.6,4.45,"city","Женап"
235465,41.5725,27.7658,"city","Виза (град)"
145991,41.4167,22.9333,"city","Байково (Община Ново село)"
301850,50.717,4.867,"city","Жодоан"
235521,43.7418,24.4454,"landmark","Константинов мост"
280272,51,4.617,"city","Керберген"
145992,41.4608,22.8969,"city","Барбарево"
235536,42.7164,23.333,"landmark","Централни софийски гробища"
301852,50.7,4.783,"city","Инкур"
145993,41.3833,22.8333,"city","Борисово (Община Ново село)"
188190,41.8481,22.5094,"city","Градец (Община Виница)"
235570,41.7,27.8667,"city","Ятрос"
280273,50.9,5.067,"city","Кортенакен"
301853,50.65,4.267,"city","Итър"
145994,41.3731,22.9233,"city","Дражево (Община Ново село)"
188192,41.9156,22.5636,"city","Виничка Кършла"
235852,41.9772,22.3769,"city","Лешки"
145995,41.4,22.85,"city","Зъбово"
301855,50.633,4.567,"city","Кур Сент Етиен"
235992,41.9063,22.3622,"city","Търкане"
145996,41.3833,22.8167,"city","Колешино"
235993,42.0472,22.4147,"city","Ястребник"
301856,50.683,4.483,"city","Лан"
188718,41.9581,22.59,"city","Калиманци (Община Виница)"
145997,41.375,22.8386,"city","Мокриево"
235994,42.0581,22.4614,"city","Небояни"
280636,50.883,4.533,"city","Кортенберг"
188721,41.7969,22.6694,"city","Лаки"
145998,41.3667,22.85,"city","Мокрино"
301857,50.733,4.483,"city","Ла Юлп"
235995,42,22.3667,"city","Пашаджиково"
145999,41.4,22.9333,"city","Ново Конярево"
188849,41,105,"","Шънджоу 1"
280637,50.75,5.083,"city","Ланден"
301858,50.633,4.617,"city","Мон Сен Гибер"
189097,41.6303,22.4828,"city","Раклиш"
146000,41.3742,22.9056,"city","Смолари"
146001,41.3661,22.955,"city","Старо Конярево"
280639,50.8,5.05,"city","Линтер"
301859,50.583,4.317,"city","Нивел"
146002,41.4667,22.9167,"city","Стиник"
146003,41.4372,22.8364,"city","Сушица (Община Ново село)"
280640,50.883,4.833,"city","Льоббек"
301860,50.683,4.95,"city","Орп-Жош"
190027,42.1506,22.0322,"city","Страцин (Община Кратово)"
146005,41.2981,22.6803,"city","Джумабос"
146006,41.2933,22.6778,"city","Дурутли"
190031,41.3383,22.2536,"city","Копришница"
146007,41.2564,22.6656,"city","Гьопчели"
301861,50.667,4.5,"city","Отини-Лувен ла Ньов"
190067,42.3713,22.437,"city","Бистър"
301863,50.633,4.9,"city","Рамии"
146008,41.2956,22.6944,"city","Куртамзали"
190076,42.4167,22.5,"city","Бранковци (Община Босилеград)"
236426,41.4325,27.0931,"city","Бабаески"
190078,42.4633,22.4564,"city","Брестница (Община Босилеград)"
146009,41.2628,22.7464,"city","Николич"
190079,42.458,22.4538,"city","Буцелево"
301865,50.717,4.533,"city","Риксансар"
236430,41.9283,27.1611,"city","Кофчаз"
190084,42.4833,22.5167,"city","Белут"
146010,41.2964,22.7042,"city","Органджали"
281809,50.95,4.717,"city","Ротселар"
146011,41.2856,22.68,"city","Севендекли"
190143,42.5619,22.3608,"city","Горна Лисина"
236633,41.3347,22.0381,"city","Гърниково"
146012,41.1806,22.7258,"city","Сретеново"
301867,50.683,4.2,"city","Тюбиз"
190147,42.5753,22.2822,"city","Горна Ръжана"
190160,42.4356,22.3131,"city","Дукат (Община Босилеград)"
146013,41.2406,22.6133,"city","Фурка (Община Дойран)"
190161,42.5161,22.5142,"city","Извор (Община Босилеград)"
301868,50.717,4.6,"city","Уавър"
281810,51,4.967,"city","Схерпенхьовел-Зихем"
190162,42.3989,22.3861,"city","Ярещник"
236786,50.65,3.917,"city","Сили"
146014,41.2356,22.6539,"city","Църничани (Община Дойран)"
190164,42.5381,22.4608,"city","Милевци (Община Босилеград)"
301870,50.6,4.633,"city","Шастър"
190169,42.4675,22.4828,"city","Радичевци"
281811,50.817,4.5,"city","Тервьорен"
146015,41.2667,22.6667,"city","Чаушли"
301873,50.683,4.733,"city","Шомон-Жисту"
190170,42.485,22.4728,"city","Райчиловци"
281812,50.8,4.933,"city","Тийнен"
146048,41.2031,22.5756,"city","Богданци (град)"
301874,50.117,4.967,"city","Борен"
190383,42.0728,22.0161,"city","Шопско Рудари"
237285,44.5683,20.27,"city","Балевац"
190384,42.1086,22.0381,"city","Куклица"
146052,41.1958,22.5367,"city","Гявато (Община Богданци)"
281813,50.983,4.7,"city","Тремело"
190578,42.6172,22.4025,"city","Божица"
146053,41.1556,22.5775,"city","Стояково"
190745,42.555,21.9922,"city","Вранска баня"
302009,50.383,5.25,"city","Авеланж"
281817,50.983,4.633,"city","Хахт"
146054,41.1503,22.6172,"city","Селемли"
190750,42.2903,21.5348,"city","Александровац (Община Враня)"
191028,42.5319,21.8472,"city","Дубница (Община Враня)"
146071,41.735,21.6411,"city","Ърлевци"
191085,42.7625,21.8344,"city","Лалинце (Община Враня)"
281820,50.9,4.667,"city","Херент"
302010,50.333,5.133,"city","Амоа"
146120,41.408,22.9,"city","Самоилово"
282035,45.1319,19.271,"city","Нещин"
191112,42.5875,21.9661,"city","Мощаница (Община Враня)"
237580,43.79,23.952,"city","Бекет (Румъния)"
146215,41.7547,21.7961,"city","Чалошево"
282048,45.1228,19.3629,"city","Банощор"
237588,43.76,24.85,"city","Турну Мъгуреле"
191129,42.4572,21.9352,"city","Преображение (Община Враня)"
282057,45.1132,19.4313,"city","Беочин"
191132,42.4861,21.8772,"city","Ратае (Община Враня)"
302011,50.317,4.883,"city","Ане"
146281,41.3169,22.5611,"city","Валандово"
282059,45.1314,19.5021,"city","Сремска Каменица"
191218,42.6958,22.1442,"city","Алакинце (Община Сурдулица)"
146294,41.405,22.2489,"city","Демир Капия (град)"
237675,41.7358,27.4053,"city","Скопе"
302012,50.217,4.833,"city","Астиер"
146311,42.0264,21.5619,"city","Арачиново"
146312,42.0608,21.6206,"city","Грушино"
146318,42.0475,21.5714,"city","Моянци (Община Арачиново)"
192071,41.3667,22.25,"city","Дрен (Община Демир Капия)"
302013,49.933,5.017,"city","Биевър"
146321,42.0481,21.5933,"city","Орланци (Община Арачиново)"
192088,41.3825,22.2875,"city","Клисура (Община Демир Капия)"
282099,45.1429,19.5228,"city","Петроварадин"
193220,58.0453,63.6975,"","Туринск"
237822,52.165,-1.77,"city","Уестън он Ейвън"
146324,41.7642,22.7756,"city","Будинарци"
302014,49.867,4.933,"city","Врес сюр Сьомоа"
146326,41.71,22.7928,"city","Владимирово (Община Берово)"
237950,44.5789,20.4158,"city","Бараево"
238252,44.5011,20.3756,"city","Арнаево"
302015,49.983,4.933,"city","Жедин"
146333,41.5861,22.9194,"city","Дворище (Община Берово)"
238338,44.585,20.3764,"city","Бачевац"
146335,41.7486,22.7947,"city","Мачево"
282397,44.4431,20.582,"city","Ковин"
238341,44.5144,20.4069,"city","Белина"
146338,41.7756,22.7394,"city","Митрашинци"
238520,44.5644,20.4011,"city","Бождаревац"
146341,41.6833,22.85,"city","Ратево"
238621,44.5361,20.3506,"city","Голем Борак"
302016,50.333,4.883,"city","Ивоар"
238622,44.6014,20.3261,"city","Вранич"
146343,41.6833,22.8083,"city","Русиново"
238623,44.6022,20.3994,"city","Гунцати"
146345,41.7333,22.85,"city","Смоймирово"
302018,50.25,4.833,"city","Оней"
238692,41.5881,21.9428,"city","Уланци"
193760,38.7322,35.4853,"city","Кайсери"
146352,41.8497,22.9019,"city","Църник"
238726,44.5119,20.4331,"city","Манич"
193868,40.7978,29.4306,"city","Гебзе"
238728,44.6181,20.3631,"city","Меляк"
146356,41.7833,22.8333,"city","Умлена"
238729,44.4856,20.3781,"city","Рожанци"
194229,41.9,12.483,"","Виа Салария"
238732,44.5653,20.3325,"city","Шиляковац"
146357,41.7833,22.8333,"city","Негрево"
