id,lat,lng,"type","title"
322142,51.9217,4.48111,"","Rotterdam"
295890,-29.2667,-65.0667,"","Recreo (Catamarca)"
184980,48.0167,16.9667,"","Gattendorf (Burgenland)"
296964,55.5,36.0333,"","Možajsk"
185407,49.1167,13.2,"","Bayerisch Eisenstein"
297345,50.4232,3.98744,"","Spiennes"
113306,50.6583,14.0417,"","Ústí nad Labem"
298639,37.0667,22.3833,"","Mystras"
189802,48.3,25.9333,"","Černovice (Ukrajina)"
298681,63.4297,10.3933,"","Trondheim"
193050,49.0972,19.1108,"","Magura (1 059,3 m n. m.)"
300779,62.6,25.7167,"","Äänekoski"
193109,42.3833,-2.53333,"","Entrena"
300783,62.55,24.0667,"","Ähtäri"
300928,45.1667,10.8,"","Mantova (mesto)"
301408,47.1306,37.5639,"","Mariupoľ"
301622,45.34,23.5396,"","Parângul Mare"
194015,49.1876,19.0308,"","Šablóna:Geobox"
2653,52.5167,13.4,"","Berlín"
194126,49.2464,19.1015,"","Malý Rozsutec"
194163,49.1653,19.1792,"","Šíp (vrch)"
301965,51.9072,10.43,"","Goslar"
194371,65.7333,24.5667,"","Kemi"
302042,57.1453,-2.10139,"","Aberdeen (Škótsko)"
194704,61.4833,23.5167,"","Nokia (mesto)"
196920,48.0667,17.0667,"","Kittsee"
302757,49.0971,18.8193,"","Krížava"
197463,37.0667,14.25,"","Gela"
197475,49.2136,18.9789,"","Malá Bránica (dolina)"
303136,7.61667,5.25,"","Ado Ekiti"
197825,48.27,24.3583,"","Jasiňa"
303149,41.07,14.3258,"landmark","Kráľovský palác Caserta"
303192,49.1508,18.8131,"","Hoblík (vrch v Malej Fatre)"
303242,49.1539,18.8442,"","Polom (vrch v Malej Fatre)"
198403,49.1904,19.0182,"","Pekelník (Malá Fatra)"
303277,49.1481,18.7967,"","Valientov diel"
198504,48.9964,19.0692,"","Lysec (vrch vo Veľkej Fatre)"
303292,49.14,18.7931,"","Dolná roveň (vrch v Malej Fatre)"
198505,48.9021,19.0791,"","Ostredok (vrch vo Veľkej Fatre)"
303446,49.1339,18.8047,"","Horná roveň (vrch v Malej Fatre)"
2922,51.5069,-0.126944,"","Londýn"
198506,48.8771,19.0783,"","Krížna (vrch vo Veľkej Fatre)"
303470,49.1328,18.8442,"","Úplaz (vrch v Malej Fatre)"
303482,49.1383,18.8219,"","Suchárová (vrch v Malej Fatre)"
199344,49.211,19.0632,"","Poludňový grúň"
114625,50.7333,7.1,"","Bonn"
304580,52.6667,6.75,"","Coevorden"
200911,48.9411,19.4947,"","Chabenec (1 955 m n. m.)"
200912,48.9383,19.5175,"","Kotliská"
2927,47.4719,19.0503,"","Budapešť"
200913,48.9292,19.5186,"","Skalka (1 980,1 m n. m.)"
200988,48.9403,19.5744,"","Dereše"
2929,52.3731,4.89222,"","Amsterdam"
200991,48.9647,19.5425,"","Bôr (vrch)"
200993,48.9469,19.5397,"","Poľana (Nízke Tatry)"
305930,44.6044,-124.055,"","Newport (Oregon)"
2930,53.3478,-6.25972,"","Dublin"
305937,45.4553,-123.842,"","Tillamook"
306094,44.9722,-124.011,"","Lincoln City (Oregon)"
201539,48.0167,16.9333,"","Neudorf bei Parndorf"
306534,49.4333,32.0667,"","Čerkasy"
201558,49.0318,19.0564,"","Lučenec (vrch)"
201561,48.9339,19.1169,"","Ploská (vrch vo Veľkej Fatre)"
306542,51.5,31.3,"","Černihiv"
306587,46.6333,32.5833,"","Cherson"
202154,62.7564,7.23861,"","Molde"
115110,51.4333,6.76667,"","Duisburg"
202172,42.5361,1.58278,"","Encamp"
306609,49.7833,30.1,"","Bila Cerkva"
202177,42.5089,1.54083,"","Escaldes-Engordany"
306612,48.5,32.2667,"","Kirovohrad"
115141,51.4833,7.21667,"","Bochum"
202184,42.5442,1.51639,"","La Massana"
202187,42.55,1.53333,"","Ordino"
202193,42.465,1.48583,"","Sant Julià de Lòria"
307169,49.2333,28.4833,"","Vinnycia"
307204,33.8825,-117.855,"","Placentia (Kalifornia)"
202312,42.5,1.5,"","Andorra (mesto)"
307214,36.84,-121.444,"","Gonzales (Kalifornia)"
117736,55.0333,82.9167,"","Novosibirsk"
2943,33.5167,36.3167,"","Damask"
202446,48.9189,18.9665,"","Ostrá (vrch vo Veľkej Fatre)"
307328,33.7408,-117.881,"","Santa Ana (Kalifornia)"
2944,33.3333,44.3833,"","Bagdad"
118244,56.3333,44,"","Nižný Novgorod"
120285,15.55,41.8167,"","Džebel at-Tair"
307727,35.1992,-111.631,"","Flagstaff (Arizona)"
120291,15.05,42.2,"","Džebel Zubair"
202642,60.4583,26.2333,"","Loviisa"
120295,14.0167,42.7,"","Zukur"
120298,13.7167,42.7333,"","Háníš"
2948,47.9167,106.917,"","Ulanbátar"
120306,14.8833,39.9167,"","Alid"
2949,38.7,-9.18333,"","Lisabon"
203165,55.0833,21.8833,"","Sovietsk"
307874,51.5167,7.1,"","Gelsenkirchen"
120454,14.2417,40.3,"","Dallol"
307897,51.2,6.43333,"","Mönchengladbach"
2951,59.9494,10.7564,"","Oslo"
120456,13.5833,41.8,"","Dubbi"
307904,52.1333,11.6167,"","Magdeburg"
120466,15.0417,39.8167,"","Džalua"
2957,59.35,18.0667,"","Štokholm"
203630,67.5675,33.3933,"","Apatity"
203648,46.75,36.7833,"","Berďansk"
120468,13.2667,41.65,"","Mallahle"
308058,52.4,13.0667,"","Postupim"
2962,64.1333,-21.9333,"","Reykjavík"
203771,48.8889,20.1061,"","Stredná hoľa"
120480,13.3667,41.7,"","Nabro"
120484,13.1833,41.7167,"","Sork Ale"
204040,62.5742,11.3831,"","Røros"
2964,37.9667,23.7167,"","Atény"
120734,13.975,40.4083,"","Gada Ale"
121221,13.8167,40.55,"","Alu (sopka)"
121232,13.7917,40.55,"","Dalaffilla"
204393,56.5,84.9667,"","Tomsk"
308273,36.5786,-118.292,"","Mount Whitney"
2970,41.33,19.82,"","Tirana"
121235,13.725,40.6,"","Borale Ale"
121248,13.5167,40.6333,"","Ale Bagu"
204529,55.6427,12.0803,"","Katedrála v Roskilde"
308277,52.1333,8.68333,"","Herford"
2971,60.1708,24.9375,"","Helsinki"
204619,54.009,-6.4049,"","Dundalk"
308313,51.6167,7.51667,"","Lünen"
204625,53.7139,-6.35028,"","Drogheda"
2975,34.5331,69.1661,"","Kábul"
204630,54.4167,-6.88333,"","Ardee"
123049,12.3833,42.2,"","Manda-Inakir"
2977,23.7,90.375,"","Dháka"
204631,53.8333,-6.4,"","Dunleer"
123051,12.55,42.5333,"","Gufa"
309029,54.8253,32.0529,"","Šablóna:Infobox Letecká nehoda"
204904,48.4167,22.2,"","Čop"
2985,28.7,77.2,"","Naí Dillí"
123052,12.47,42.4,"","Mousa Alli"
309117,39.7589,-84.1917,"","Dayton"
204927,50.6,36.6,"","Belgorod"
2987,35.7,139.7,"","Tokio"
309276,44.8333,11.6167,"","Ferrara"
205179,33.5333,-7.58333,"","Casablanca"
123513,11.5833,42.4667,"","Ardoukôba"
205247,55.1833,30.1667,"","Vicebsk"
309349,43.7167,12.6333,"","Urbino"
123559,11.4167,42.2,"","Garbes"
123560,11.25,41.8333,"","Boina"
3011,21.0333,105.85,"","Hanoj"
309436,48.6289,20.88,"","Kunia priepasť"
309480,60.5672,-140.403,"","Mount Logan"
123602,10.07,40.84,"","Adwa (sopka)"
309511,48.6815,19.6814,"","Dobročský prales"
123607,13.0833,40.85,"","Afderà"
205413,55.5833,13.0333,"","Malmö"
3016,64.1667,-51.7333,"","Nuuk"
123801,12.8833,40.5667,"","Alayta"
309733,44.05,9.83333,"","Portovenere"
205534,53.8333,-6.5,"","Grófstvo Louth"
123881,7.77,38.78,"","Alutu"
3019,19.4325,-99.1331,"","Mexiko (mesto)"
309736,44.0428,9.84387,"","Palmaria"
309737,44.0272,9.85056,"","Tino"
123892,41.55,2,"","Terrassa"
3020,-15.8,-47.9,"","Brazília (mesto)"
309739,44.0235,9.85126,"","Tinetto"
123986,13.0667,41.6,"","Asavyo"
3021,-33.45,-70.6667,"","Santiago (Čile)"
123991,13.5,40.7167,"","Hayli Gubbi"
310232,63.9092,-135.304,"","Keno City"
123995,13.3,40.9833,"","Borawli"
123999,13.2833,41.0667,"","Tat Ali"
124000,13.1,41.15,"","Mat Ala"
124003,13.0167,40.2,"","Ma Alalta"
207279,55.2,34.25,"","Viazma"
311015,41.84,-87.9531,"","Oak Brook (Illinois)"
124024,12.6,40.4833,"","Dabbahu"
311120,41.8922,-87.9439,"","Elmhurst (Illinois)"
124028,11.3833,40.0667,"","Dabbayra"
311211,41.8761,-88.015,"","Lombard (Illinois)"
124030,12.1667,40.8167,"","Manda Hararo"
311303,49.0909,18.8138,"","Veľká lúka (Malá Fatra)"
3105,39.7,44.3,"","Ararat (vrch v Turecku)"
124032,11.7333,40.25,"","Groppo"
311333,41.7947,-88.0169,"","Downers Grove (dedina)"
311333,41.8089,-88.0111,"","Downers Grove (dedina)"
3107,40.8214,14.4261,"","Vezuv"
124033,11.8833,41.2,"","Kurub"
311479,48.17,17.2125,"airport","Letisko M. R. Štefánika (Bratislava)"
311479,48.6631,21.2411,"airport","Letisko Košice"
311479,48.3394,19.7358,"airport","Letisko Boľkovce (Lučenec)"
311479,49.0653,18.9508,"airport","Letisko Martin"
311479,48.2794,18.1328,"airport","Letisko Nitra"
311479,48.625,17.8283,"airport","Letisko Piešťany"
311479,49.0733,20.2411,"airport","Letisko Poprad-Tatry"
311479,48.7661,18.5867,"airport","Letisko Prievidza"
311479,48.6578,17.3297,"airport","Letisko Senica"
311479,48.6378,19.1339,"airport","Letisko Sliač"
311479,48.865,17.9922,"airport","Letisko Trenčín"
311479,49.2314,18.6133,"airport","Letisko Žilina"
311479,48.4019,17.1183,"airport","Letecká základňa Malacky"
311479,49.0297,21.3156,"airport","Letecká základňa Prešov"
3114,37.7342,15.0044,"","Etna"
124035,11.2833,41.6333,"","Dama Ali"
124139,55.8589,-4.25972,"","Glasgow"
209235,62.5917,23.6167,"","Alavus"
124140,11.0833,41.2667,"","Gabillema"
312214,39.1,26.55,"","Mytilini"
124147,10.5833,41.0333,"","Yangudi"
124150,10.0822,40.7017,"","Ayelu"
124151,9.78333,40.3333,"","Hertali"
124154,9.56667,40.2833,"","Liado Hayk"
124156,9.35,40.1333,"","Dofen"
124184,8.975,39.9333,"","Fentale"
124189,8.95,39.75,"","Beru"
124206,8.8,39.6833,"","Kone (sopka)"
209924,36.9667,-6.38333,"","El Puerto de Santa María"
124208,8.55833,39.475,"","Boset-Bericha"
312897,51.8333,12.25,"","Dessau"
124209,8.78333,38.65,"","Bishoftu"
210204,60.75,26.8167,"","Anjalankoski"
124269,8.43333,39.35,"","Sodore"
124274,8.35,39.1833,"","Gedamsa"
313205,54.9667,-1.6,"","Newcastle upon Tyne"
124277,8.26667,39.0333,"","Bora-Bericcio"
3867,39.9533,-75.17,"","Philadelphia"
124281,8.15833,39.1333,"","Tullu Moje"
124283,7.95,38.9333,"","East Zway"
210488,46.6219,18.8558,"","Paks"
4247,41.2667,69.2167,"","Taškent"
124284,8.05,38.35,"","Butajiri-Silti"
313307,54.8253,32.0529,"","Letecké nešťastie v Smolensku 2010"
124285,7.46667,38.5833,"","O’a"
124311,-26.2044,28.0456,"","Johannesburg"
313873,41.8536,-87.9683,"","Oakbrook Terrace"
124326,10.7694,106.682,"","Hočiminovo Mesto"
124340,52.0933,5.11944,"","Utrecht"
313996,63.6333,-19.6,"","Eyjafjallajökull (sopka)"
314134,55.7558,9.41944,"","Runové kamene v Jellingu"
124567,7.18333,38.4333,"","Corbetti"
124579,7.06667,38.1,"","Bilate River"
124586,7.41667,35.4333,"","Tepi"
124588,6.78333,37.8333,"","Hobicha"
124590,6.65,38.1167,"","Chiracha"
124591,5.93333,37.5667,"","Tosa Sucha"
124592,5.1,35.8833,"","Korath Range"
124641,33.95,67.9167,"","Dacht-i-Navar"
124642,34.25,67.9667,"","Vakak"
314600,-3.682,-61.4754,"","Purus"
314613,45.0833,29.5,"","Delta Dunaja"
125367,39.7333,46.0167,"","Čchouk-Karckar"
125992,22.5667,88.3667,"","Západné Bengálsko"
315706,48.6236,20.8891,"","Skalistý potok"
315758,49.6536,8.56972,"","Opátstvo Lorsch"
316067,51.8636,12.2814,"","Dessau-Wörlitzer Gartenreich"
316418,48.6189,20.4278,"","Zvonivá jama"
317224,54.0833,13.3833,"","Greifswald"
128722,48.45,34.9833,"","Dnepropetrovsk"
317317,53.25,10.4,"","Lüneburg"
317324,52.35,14.55,"","Frankfurt nad Odrou"
317331,49.0011,8.81278,"","Kláštor Maulbronn"
131709,41.7497,-88.1556,"","Naperville"
132099,-32.4833,-58.2333,"","Concepción del Uruguay"
317446,38.7125,21.6267,"","Meteora"
317456,37.6381,21.6306,"","Olympia (Grécko)"
317460,37.6908,26.9433,"","Pythagoreion"
317462,37.6733,26.8894,"","Héraion (Samos)"
317592,37.1769,-3.58528,"","Generalife"
317593,37.1769,-3.58528,"","Albayzín"
317594,37.3858,-5.99306,"","Katedrála v Seville"
6619,49.1638,20.134,"","Gerlachovský štít"
317597,37.3847,-5.99278,"","Archivo General de Indias"
317640,40.3439,1.10722,"","Mudejarská architektúra v Aragónsku"
317642,41.3808,1.0825,"","Kláštor Poblet"
317647,39.4528,-5.3275,"","Kláštor Santa Maria de Guadalupe"
317649,36.9475,6.35861,"","Národný park Doñana"
317662,48.8761,18.6992,"","Vyšehrad (vrch v Žiari)"
137305,-34.9167,-57.95,"","La Plata (mesto)"
317681,45.9328,1.0325,"","Oradour-sur-Glane"
317696,40.0364,-3.60917,"","Kráľovský palác v Aranjueze"
317699,38.2694,-0.698333,"","Palmový háj v Elche"
137434,-22.7167,-65.7,"","Abra Pampa"
317700,41.3878,2.175,"","Palau de la Música Catalana"
317703,41.3878,2.175,"","Hospital de la Santa Creu i Sant Pau"
138795,-40.1667,-71.3333,"","San Martín de los Andes"
317704,54.3344,27.9436,"","Chatyň"
138841,-38.9,-70.05,"","Zapala (mesto)"
317714,42.3258,-2.86528,"","Kláštor San Millán de Yuso"
317719,42.3258,-2.86528,"","Kláštor San Millán de Suso"
138896,-42.7667,-65.05,"","Puerto Madryn"
139229,-36.6167,-64.2833,"","Santa Rosa de Toay"
317831,59.3362,17.5455,"","Birka"
139643,47.7494,7.34,"","Mulhouse"
318272,42.2167,13.8333,"","Abruzzy (región)"
141096,37.3772,-5.98694,"","Sevilla"
318764,43.6333,11.9833,"","Caprese Michelangelo"
141113,53.3836,-1.46694,"","Sheffield"
319244,51.2,11.9667,"","Weißenfels"
6936,48.9411,19.0892,"","Borišov"
319322,51.15,11.8167,"","Naumburg"
6940,48.9842,20.7725,"","Dreveník"
319499,42.8183,-1.64417,"","Pamplona"
319696,42.4,18.9167,"","Cetinje"
141134,52.0167,8.51667,"","Bielefeld"
141134,51.9661,8.6225,"","Bielefeld"
320126,49.2172,15.8772,"","Židovská štvrť (Třebíč)"
141152,-33.2667,-66.35,"","San Luis (mesto v Argentíne)"
320326,7.39639,3.91667,"","Ibadan"
141181,-43.3,-65.0833,"","Rawson (Chubut)"
320724,69.2878,21.3386,"","Ridnitšohkka"
320741,49.7653,21.2903,"","Siepietnica"
141271,37.5,15.0833,"","Catania (mesto)"
141361,51.4833,11.9667,"","Halle (Saale)"
321037,40.9,23.4833,"","Nigrita"
321176,43.7683,11.2558,"","Šablóna:Infobox Výtvarné dielo/Dokumentácia"
216771,49.3881,21.1608,"","Busov (vrch)"
217183,48.9341,18.9711,"","Tlstá (vrch vo Veľkej Fatre)"
142024,-48.7667,-70.25,"","Gobernador Gregores"
321354,29.9386,31.2942,"","Tura (Egypt)"
321354,29.9389,31.2775,"","Tura (Egypt)"
217204,11.6667,96.7667,"","Andamany a Nikobary"
143513,6.45306,3.39583,"","Lagos"
321381,48.1606,24.5003,"","Hoverla"
218482,-29.8833,31.05,"","Durban"
143764,-33.7,-61,"","Buenos Aires (provincia)"
321540,39.6167,19.9167,"","Korfu (mesto)"
219473,53.9233,19.3514,"","Dzierzgoń"
143983,46.8333,7.61667,"","Bern (kantón)"
144116,-28.4667,-65.7833,"","San Fernando del Valle de Catamarca"
219740,53.35,18.4167,"","Chełmno"
144796,-31.4333,-62.0667,"","San Francisco (Argentína)"
145096,-27.45,-59,"","Resistencia"
321793,41.2206,47.8578,"","Bazardüzü dağı"
321802,46.4333,13.8167,"","Škrlatica"
145161,60.45,22.2667,"","Turku"
145260,-31.4,-64.1833,"","Córdoba (mesto v Argentíne)"
145276,-32.95,-60.65,"","Rosario"
146252,-41.1333,-71.3,"","San Carlos de Bariloche"
146270,-39.0333,-67.5833,"","General Roca (Río Negro)"
322563,39.3667,21.9167,"","Karditsa"
146280,37.0833,15.2833,"","Syrakúzy"
322666,31.4044,30.4164,"","Ar-Rašíd (Egypt)"
146401,-40.7333,-64.95,"","San Antonio Oeste"
322702,47.5,11.0833,"","Garmisch-Partenkirchen"
146487,53.3667,-4.33333,"","Llanfairpwllgwyngyllgogerychwyrndrobwllllantysiliogogogoch"
322845,48.8989,2.09389,"","Saint-Germain-en-Laye"
322863,49.6667,12.15,"","Weiden in der Oberpfalz"
322872,52.9833,6.55,"","Assen"
322873,48.5333,12.15,"","Landshut"
322940,34.7136,-86.5861,"","Huntsville (Alabama)"
147668,49.95,15.2667,"","Kutná Hora"
323050,48.9644,18.6333,"","Reváň"
323071,25.6167,85.2167,"","Bihár"
323072,27.1,93.6167,"","Arunáčalpradéš"
323074,26.25,92.2833,"","Ásam"
323078,21.45,82,"","Čatísgarh"
222231,53.7517,-0.343056,"","Kingston upon Hull"
323079,23.2167,72.6667,"","Gudžarát"
222628,48.9242,21.0125,"","Roháčka (Čierna hora)"
323082,31.2167,77.3,"","Harijána"
323085,31.1,77.1667,"","Himáčalpradéš"
147872,47.5297,21.6389,"","Debrecín"
323097,33.45,76.2333,"","Džammú a Kašmír"
148103,-31.5333,-68.5167,"","San Juan (mesto v Argentíne)"
323099,23.35,85.3167,"","Džharkhand"
323102,23.1667,77.2,"","Madhjapradéš"
225127,43.95,4.8,"","Avignon"
323114,18.95,72.8167,"","Maháraštra"
149141,-46.6,-70.9167,"","Perito Moreno (Santa Cruz)"
225703,60.8167,23.6167,"","Forssa"
149275,-50.3333,-72.2667,"","El Calafate"
225791,42.9753,17.1811,"","Orebić"
323189,24.8167,93.95,"","Manípur"
27951,48.555,17.5356,"landmark","Kostol a kláštor svätej Kataríny Alexandrijskej (Dechtice)"
149399,40.7,19.95,"","Berat (mesto)"
323191,25.5667,91.8667,"","Meghálaj"
323193,23.35,92,"","Mizorám"
149548,42.35,20.0667,"","Bajram Curri (mesto)"
323194,25.4,99.0333,"","Nágsko"
323195,20.15,85.5,"","Urísa"
323270,30.7167,76.7667,"","Pandžáb (indický štát)"
323277,26.5667,73.8333,"","Radžastan"
149802,47.0833,8,"","Aargau"
323316,-36.6167,-72.95,"","Tomé"
323333,27.3167,88.6167,"","Sikkim"
323368,13.0833,80.2667,"","Tamilnádu"
323414,23.8333,91.2667,"","Tripura"
7673,48.4244,18.6392,"city","Nová Baňa"
323420,30.3167,78.05,"","Uttarákhand"
150094,-44.7833,-65.7,"","Camarones"
323715,48.9008,20.0308,"","Andrejcová"
323967,30.3167,78.05,"","Uttarpradéš"
323982,30.4,-9.6,"","Agadir"
228687,43.3333,42.45,"","Elbrus"
324103,47.9667,24.015,"","Veľký Bočkov"
229052,62.0083,23.025,"","Parkano"
324339,59.9369,30.3567,"","Chrám Matky Božej Lurdskej (Petrohrad)"
324351,59.9367,30.3239,"","Kostol svätých Petra a Pavla (Petrohrad)"
324429,61.6364,8.3125,"","Galdhøpiggen"
324523,-30.0331,-51.23,"","Porto Alegre"
150157,-43.3,-65.7,"","Dolavon"
230280,58.6,49.65,"","Kirov (Kirovská oblasť)"
324534,43.4667,11.05,"","San Gimignano"
230579,37.9714,23.7262,"","Akropola v Aténach"
231833,42.7167,27.7667,"","Sveti Vlas"
231920,43.58,16.6,"","Dugopolje"
231931,43.43,16.8944,"","Zadvarje"
231983,43.0539,17.6472,"","Metković"
231984,43.0553,17.4328,"","Ploče"
231989,44.0383,16.1947,"","Knin"
231991,45.12,14.5281,"","Malinska-Dubašnica"
325108,43.2206,17.2692,"","Ravča"
232002,45.4,14.8,"","Delnice"
325171,44.8667,15.2333,"","Otočac"
325172,44.8042,15.3247,"","Ličko Lešće"
150316,48.1392,17.1244,"","Sklad č. 7"
325174,44.9311,15.1833,"","Brloška Dubrava"
325184,45.2036,33.3614,"","Jevpatorija"
232005,43.4333,17.2,"","Imotski"
325186,43.8167,15.6656,"","Pirovac"
325190,43.6781,16.0114,"","Vrpolje (Šibenik)"
232110,43.56,16.52,"","Klis"
232184,52.6167,39.6,"","Lipeck"
325227,43.2039,17.37,"","Vrgorac"
232256,42.9286,17.4214,"","Janjina"
325229,42.8142,17.7825,"","Doli"
325231,42.9831,17.55,"","Slivno"
325241,44.4636,15.6467,"","Gornja Ploča"
232360,48.7333,22.4667,"","Perečín"
325250,45.4117,15.2886,"","Bosiljevo"
325266,44.5042,34.1564,"","Jalta"
232403,48,23.5667,"","Ťačov"
232405,48.1667,23.3,"","Chust"
232438,48.2,22.65,"","Berehovo"
232686,42.2333,43.9667,"","Cchinvali"
232787,41.65,41.65,"","Batumi"
325364,43.6161,16.23,"","Prgomet"
325367,43.5333,16.7833,"","Šestanovac"
325369,43.5972,16.4111,"","Vučevica"
325372,44.8167,15.8667,"","Bihać"
233770,48.935,19.1444,"","Čierny kameň"
151575,64.6833,24.4667,"","Raahe"
152292,-40.8,-62.9833,"","Viedma (mesto)"
234061,43.0167,44.65,"","Vladikavkaz"
153025,60.2056,24.6556,"","Espoo"
234773,23,10.8333,"","In Ezzane"
325890,45.0489,35.3792,"","Feodosija"
234779,22.6667,4,"","Tahalra"
325914,36.7,67.1167,"","Mazár-e Šaríf"
153029,62.6,29.75,"","Joensuu"
234782,23.3333,5.83333,"","Atakor"
326087,51.7667,-3.06667,"","Blaenavon"
153039,61.6833,27.2667,"","Mikkeli"
234792,23.9167,5.83333,"","Manzaz"
326220,48.8067,18.9736,"","Flochová"
29703,42.3578,-71.0617,"","Boston (Massachusetts)"
153154,60.2944,25.0403,"","Vantaa"
326248,48.7383,18.9964,"","Skalka (vrch v Kremnických vrchoch)"
29719,49.5731,19.5306,"","Babia hora"
235141,64.0167,-22.5667,"","Keflavík"
153183,61.2667,24.0333,"","Valkeakoski"
153188,66.5,25.7333,"","Rovaniemi"
153205,60.3931,25.6639,"","Porvoo"
30510,55.9494,-3.16028,"","Edinburgh"
153212,61,24.4667,"","Hämeenlinna"
153290,65.0167,25.4667,"","Oulu (mesto)"
153298,61.0667,28.1833,"","Lappeenranta"
153325,62.2417,25.7417,"","Jyväskylä"
31277,48.1115,17.1109,"","Technopol"
153379,60.2167,24.7333,"","Kauniainen"
326918,47.0667,12.7,"","Grossglockner"
153406,66.7167,27.4333,"","Kemijärvi"
326931,47.8789,20.0103,"","Kékes"
31588,49.4132,18.9688,"","Veľká Rača"
327015,67.8833,18.55,"","Kebnekaise"
153448,61.4833,21.8,"","Pori"
327071,41,16.5,"","Apúlia"
327223,50.1333,17.3833,"","Praděd"
327226,49.4919,18.2222,"","Radhošť (vrch)"
327255,48.9236,21.4622,"","Dubník (vrch v Slanských vrchoch)"
154129,61.5833,25.5,"","Päijänne"
239890,48.05,24.2,"","Rachov"
327285,40.5,16.5,"","Basilicata"
154231,60.3894,5.33,"","Bergen"
327289,40.6333,15.8,"","Potenza"
34763,48.1439,17.1053,"","Kostol a kláštor klarisiek (Bratislava)"
327311,54.5667,-1.23333,"","Middlesbrough"
34939,48.1419,17.1106,"","Kostol Nanebovzatia Panny Márie (Notre Dame)"
327373,43.3167,13,"","Marky"
327603,43.39,22.6782,"","Midžur"
327619,74,56,"","Nová Zem"
328080,-8.65,115.217,"","Bali"
328081,48.7733,19.8856,"","Fabova hoľa (vrch)"
328094,48.7758,20.2111,"","Stolica (vrch)"
241664,48.9167,17.7825,"","Veľký Lopeník"
154710,40.6008,19.7364,"","Ballsh"
328123,48.7622,18.8117,"","Bralová skala"
154718,40.6275,20.99,"","Bilisht"
328252,51.1,7.11667,"","Bergisch Gladbach"
328307,53.725,-1.86278,"","Halifax (Yorkshire)"
154719,41.4833,20.2167,"","Bulqizë"
10118,34.05,-118.25,"","Los Angeles"
328368,53.1144,-3.99667,"","Tryfan"
35550,54.0333,19.05,"city","Malbork"
154720,41.6083,20.0111,"","Burrel"
328521,23.7,133.87,"","Alice Springs"
241965,48.1383,17.1044,"landmark","Zoznam rozhľadní na Slovensku"
241965,48.1825,17.0944,"landmark","Zoznam rozhľadní na Slovensku"
241965,48.3633,17.2611,"landmark","Zoznam rozhľadní na Slovensku"
241965,48.46,17.2739,"landmark","Zoznam rozhľadní na Slovensku"
241965,48.3839,17.3172,"landmark","Zoznam rozhľadní na Slovensku"
241965,48.8606,17.7031,"landmark","Zoznam rozhľadní na Slovensku"
241965,48.9167,17.7825,"landmark","Zoznam rozhľadní na Slovensku"
241965,48.5967,17.9706,"landmark","Zoznam rozhľadní na Slovensku"
241965,48.4753,18.4858,"landmark","Zoznam rozhľadní na Slovensku"
241965,49.3644,18.6356,"landmark","Zoznam rozhľadní na Slovensku"
241965,49.4131,18.9692,"landmark","Zoznam rozhľadní na Slovensku"
241965,49.2025,19.4997,"landmark","Zoznam rozhľadní na Slovensku"
241965,49.3264,19.6642,"landmark","Zoznam rozhľadní na Slovensku"
241965,49.2978,19.6922,"landmark","Zoznam rozhľadní na Slovensku"
241965,48.5106,18.79,"landmark","Zoznam rozhľadní na Slovensku"
241965,48.3772,18.8253,"landmark","Zoznam rozhľadní na Slovensku"
241965,48.4031,18.8772,"landmark","Zoznam rozhľadní na Slovensku"
241965,48.4519,18.8697,"landmark","Zoznam rozhľadní na Slovensku"
241965,48.3494,19.0792,"landmark","Zoznam rozhľadní na Slovensku"
241965,48.1681,19.0922,"landmark","Zoznam rozhľadní na Slovensku"
241965,48.1586,19.7894,"landmark","Zoznam rozhľadní na Slovensku"
241965,48.8047,19.1486,"landmark","Zoznam rozhľadní na Slovensku"
241965,49.3586,21.5572,"landmark","Zoznam rozhľadní na Slovensku"
241965,49.3019,21.5092,"landmark","Zoznam rozhľadní na Slovensku"
241965,49.4367,21.5975,"landmark","Zoznam rozhľadní na Slovensku"
241965,49.4147,21.7081,"landmark","Zoznam rozhľadní na Slovensku"
241965,49.3331,21.9731,"landmark","Zoznam rozhľadní na Slovensku"
241965,48.9525,22.4,"landmark","Zoznam rozhľadní na Slovensku"
241965,49.2361,21.1725,"landmark","Zoznam rozhľadní na Slovensku"
241965,48.9994,21.2467,"landmark","Zoznam rozhľadní na Slovensku"
241965,48.7792,20.8603,"landmark","Zoznam rozhľadní na Slovensku"
241965,48.7614,21.2369,"landmark","Zoznam rozhľadní na Slovensku"
328751,54.8253,32.0529,"","Šablóna:Infobox Letecká nehoda/Dokumentácia"
155049,55.65,12.0833,"","Roskilde"
328806,41.9667,44.1,"","Gori"
242504,48.3839,17.3172,"","Kukla (vrch)"
328990,51.5167,6.91667,"","Bottrop"
328992,51.75,14.3333,"","Cottbus"
243377,56.25,34.3333,"","Ržev"
329000,50.9167,11.5833,"","Jena"
155577,40.3833,-3.71667,"","Madrid"
244195,57.0333,9.91667,"","Aalborg"
329262,10.5667,72.6167,"","Lakadivy"
246655,-25.345,131.036,"","Uluru"
247605,49.2245,18.7406,"","Žilinský hrad"
329358,37.8667,-122.267,"","Berkeley (Kalifornia)"
248479,-6.53333,110.667,"","Jawa Tengah"
36437,52.9219,-1.47583,"","Derby (Derbyshire)"
329362,47.0033,11.5075,"","Brennerský priesmyk"
156487,61.1667,23.8667,"","Akaa"
248708,43.55,10.3167,"","Livorno"
329449,48.6247,18.635,"","Vtáčnik (vrch vo Vtáčniku)"
15145,61.5,23.7667,"","Tampere"
329457,46.9517,4.31611,"","Autun"
329482,40.2667,140.55,"","Ódate"
252204,44.3333,15.7,"","Sveti Rok (Lovinac)"
37561,12.9667,77.55,"","Karnátaka"
157713,-26.8167,-65.2,"","San Miguel de Tucumán"
252803,44.5467,15.3722,"","Gospić"
329777,48.8878,19.0825,"","Frčkov"
15157,53.0167,18.6333,"","Toruň"
37638,34.0175,-6.83611,"","Rabat (mesto)"
329780,48.8906,19.2231,"","Zvolen (vrch vo Veľkej Fatre)"
252805,45.03,15.13,"","Brinje (obec)"
158518,-24.1833,-64.3,"","San Salvador de Jujuy"
37729,9.06667,7.48333,"","Abuja"
329782,11.93,79.83,"","Puttučéri (teritórium)"
252806,44.9697,15.0636,"","Žuta Lokva"
15265,47.2333,38.9,"","Taganrog"
37748,14.6928,-17.4467,"","Dakar"
329877,52.6256,10.0825,"","Celle"
330464,43.4992,-1.475,"","Bayonne (Francúzsko)"
37819,36.8167,10.1889,"","Tunis"
158693,-24.2872,-67.7928,"","Aracar"
330502,45.155,14.7211,"","Selce (Crikvenica)"
158745,-26.0833,-67.5,"","Antofagasta de la Sierra (sopka)"
330525,43.2369,17.0764,"","Podgora"
37846,15.55,73.8167,"","Goa"
330529,43.1047,17.3411,"","Gradac"
158750,-26.6167,-68.35,"","Cerro el Cóndor"
37983,27.1,93.6167,"","Ándhrapradéš"
330643,42.9592,17.1353,"","Korčula (mesto)"
257540,56.355,35.9217,"","Tver"
38131,30.75,76.7667,"","Čandígarh"
258140,55.3667,86.0667,"","Kemerovo"
330700,44.96,14.4081,"","Cres (mesto)"
160013,48.2072,16.975,"","Kostol Ducha Svätého (Devínska Nová Ves)"
330709,45.1283,14.7908,"","Novi Vinodolski"
258446,-30.1,-68.7,"","Villa Mercedes (San Juan)"
330934,48.4475,21.3126,"","Letecké nešťastie slovenského An-24"
258781,44.75,37.7667,"","Novorossijsk"
331277,48.9044,2.30639,"","Clichy (Hauts-de-Seine)"
161120,-34.65,-70.05,"","Caldera del Atuel"
161133,-35.5583,-70.4964,"","Calabozos"
19762,43.3333,40.2167,"","Gagra"
331504,62.6667,30.9333,"","Ilomantsi"
331538,49.0186,18.7228,"","Úplaz (vrch v Malej Fatre, Rajecká Lesná)"
331541,49.0649,18.7846,"","Horná lúka"
331570,48.8892,20.0864,"","Orlová (vrch)"
261215,47.4736,0.554167,"","Angers"
331716,48.9367,19.6536,"","Štiavnica (vrch)"
161899,45.52,-122.682,"","Portland"
331804,48.8833,19.0458,"","Kráľova studňa"
331833,49.3603,21.2456,"","Stebnícka Magura"
161902,32.2217,-110.926,"","Tucson"
331842,48.8511,21.4928,"","Makovica (vrch v Slanských vrchoch)"
331988,48.7867,18.7847,"","Horeňovo (vrch)"
162011,-27.7833,-64.25,"","Santiago del Estero (mesto)"
331999,48.9578,18.7608,"","Chlieviská"
332018,48.7317,18.8197,"","Vysoká (vrch v Kremnických vrchoch)"
332081,49.0842,21.2297,"","Lysá Stráž"
332084,49.0642,21.2561,"","Stráž (739,6 m n. m.)"
332089,49.0522,21.1761,"","Šarišský vrch"
332227,61.0828,25.5383,"","Vesijärvi"
163125,8.5,76.9667,"","Kérala"
332344,48.6372,19.4839,"","Poľana (vrch)"
163469,-49.3333,-67.75,"","Puerto San Julián"
332353,48.7164,19.4586,"","Vepor"
332355,48.7306,19.4572,"","Hrb (vrch)"
163545,56.7833,-2.96667,"","Dundee (Škótsko)"
332374,41.6833,14.6,"","Molise"
332600,48.8917,20.0725,"","Bartková (vrch)"
332604,48.8981,20.0519,"","Ždiarske sedlo"
163865,29.8697,31.2164,"","Sakkára"
332640,48.9394,19.63,"","Krúpova hoľa"
332655,47.05,9.01667,"","Appenzell Ausserrhoden"
39036,41.8819,-87.6278,"","Chicago"
41160,49.0481,19.2792,"","Sidorovo"
332662,47.3,9.4,"","Appenzell Innerrhoden"
332671,47.5667,7.6,"","Bazilej-mesto"
332690,47.1167,7.73333,"","Bazilej-vidiek"
265961,48.4022,2.70056,"","Zámok Fontainebleau"
44314,48.4547,18.6356,"","Tajch (Nová Baňa)"
332888,34.3849,109.273,"","Terakotová armáda"
165101,43.5853,39.7203,"","Soči"
265985,49.2814,18.8787,"","Ľadonhora"
165136,63.4633,24.1667,"","Halsua"
333071,49.2172,15.8772,"","Židovský cintorín v Třebíči"
267001,53.6333,11.4167,"","Schwerin"
165155,63,23.8167,"","Alajärvi"
333119,46.7167,7.08333,"","Fribourg (kantón)"
165164,60.4,22.3667,"","Kaarina"
47711,64.8833,28.9167,"","Suomussalmi"
165291,64.0583,23.65,"","Himanka"
165300,63.9833,23.9167,"","Kannus"
23046,34.3833,132.467,"","Hirošima (mesto)"
165457,51.8667,12.65,"","Lutherstadt Wittenberg"
165473,60.8833,21.7,"","Laitila"
23368,50.45,30.5233,"","Kyjev"
165799,26.1849,31.9189,"","Abydos (Egypt)"
165981,46.5,13.3167,"","Pontebba"
49144,48.6167,22.3,"","Užhorod"
268350,49.4439,1.10333,"","Rouen"
23380,48.7202,21.2581,"","Dóm svätej Alžbety"
166067,51.3333,6.56667,"","Krefeld"
166067,51.3629,6.54553,"","Krefeld"
49312,45.0667,7.7,"","Turín"
269075,52.6265,-2.486,"","Iron Bridge"
269126,57.8167,-8.58333,"","St. Kilda"
269799,-24.35,-128.317,"","Henderson (Pitcairnove ostrovy)"
50503,62.8925,27.6783,"","Kuopio"
50509,60.9833,25.65,"","Lahti"
50754,-33.9253,18.4239,"","Kapské Mesto"
272476,17.4831,106.6,"","Đồng Hới"
166918,13.6833,-89.1833,"","San Salvador (Salvádor)"
273330,62.2497,25.1833,"","Kostol v Petäjävesi"
273335,47.6408,4.38972,"","Kláštor Fontenay"
166920,-16.8308,-68.2367,"","La Paz (Bolívia)"
166924,-31.3833,-58.0167,"","Concordia (mesto, Entre Ríos)"
274808,49.2365,19.0141,"","Sokolie"
275227,54.0794,21.4936,"landmark","Wolfsschanze"
52148,49.7892,14.8783,"city","Divišov"
168223,60.6333,23.5167,"","Somero"
277513,34.5683,-112.461,"","Prescott"
279519,56.039,12.6218,"","Zámok Kronborg"
279694,-32.8903,-68.8472,"","Mendoza (mesto v Argentíne)"
279749,-27.3833,-55.8833,"","Posadas"
279973,40.589,-4.148,"","El Escorial"
280630,64.0667,-21.95,"","Hafnarfjörður"
54262,36.175,-115.136,"","Las Vegas"
168468,48.9607,19.1791,"","Rakytov (vrch)"
280833,55.3958,10.3883,"","Odense"
168469,48.9828,19.191,"","Skalná Alpa"
168565,49.024,19.2283,"","Šiprúň"
54686,42.9047,-78.8494,"","Buffalo (New York)"
280955,-27.2167,-54.9667,"","Campo Grande (Misiones)"
168597,60.85,23.05,"","Loimaa"
168861,51.3667,6.16667,"","Venlo"
283614,46.6667,11.1667,"","Merano"
283720,-31.6333,-60.7,"","Santa Fe (Argentína)"
283883,50.4833,12.1167,"","Plauen (mesto)"
169688,-28.7167,-65.9667,"","Huillapima"
283916,11.5833,165.383,"","Atol Bikini"
60026,35.35,25.5167,"","Kréta"
284772,52.3672,-2.72361,"","Hrad Ludlow (Anglicko)"
169766,48.1892,16.9956,"","Devínska Kobyla"
60766,48.1817,17.0936,"","Kamzík (vrch)"
60867,48.3464,18.1089,"","Zobor (vrch)"
169839,49.6225,15.2006,"city","Blažejovice"
60870,48.4694,18.2397,"","Veľký Tribeč (vrch)"
169840,49.6489,15.0161,"city","Borovnice (okres Benešov)"
169841,49.8267,14.6169,"city","Bukovany (okres Benešov)"
61174,47.8,13.0333,"","Salzburg"
62047,49.2314,19.0986,"","Veľký Rozsutec"
169848,49.7308,14.8953,"city","Ctiboř (okres Benešov)"
62094,48.8911,22.1133,"","Vihorlat (vrch)"
169849,49.8186,14.8339,"city","Čakov (okres Benešov)"
62456,49.1876,19.0308,"","Veľký Kriváň"
62465,50.8167,-1.08333,"","Portsmouth"
169851,49.8519,14.705,"city","Čerčany"
169852,49.5644,14.6214,"city","Červený Újezd"
169855,49.8733,14.7178,"city","Čtyřkoly"
64837,48.9814,18.6408,"","Kľak (vrch v Malej Fatre)"
169856,49.6211,15.1503,"city","Děkanovice"
169857,49.6514,15.1844,"city","Dolní Kralovice"
65890,54.6,-5.91667,"","Belfast"
65892,-29.1,26.2167,"","Bloemfontein"
65893,51.4853,-3.18667,"","Cardiff"
65954,18.5,-69.9833,"","Santo Domingo (hlavné mesto)"
65993,49.2117,19.094,"","Stoh (Malá Fatra)"
66044,49.1878,19.0517,"","Chleb"
66198,52.0833,4.31667,"","Haag"
66976,-25.7533,28.1869,"","Pretória"
286104,-51.6167,-69.2167,"","Río Gallegos"
170549,49.7783,15.2228,"city","Bohdaneč"
66982,-33.05,-71.6167,"","Valparaíso"
286235,49.1552,18.9495,"","Kľačianska Magura"
286238,-51.5333,-72.3,"","Río Turbio (Santa Cruz)"
171121,-28.4667,-59.05,"","Bella Vista (department)"
67347,60.1,19.9333,"","Mariehamn"
67381,62.0117,-6.7675,"","Tórshavn"
69594,49.2167,18.9995,"","Veľká Bránica"
69622,-1.51667,29.25,"","Nyiragongo"
69973,49.1242,18.8269,"","Minčol (vrch v Malej Fatre)"
287248,49.1876,19.0308,"","Šablóna:Geobox/Dokumentácia"
70061,47.5667,7.6,"","Bazilej"
287258,52.9667,36.0833,"","Oriol"
70303,49.85,24.0167,"","Ľvov"
70867,49.0267,18.7403,"","Hnilická Kýčera"
287442,43.3561,16.95,"","Baška Voda"
71466,41.3833,2.18333,"","Barcelona"
287444,43.5,16.8333,"","Cista Provo"
72074,34.3883,47.4367,"","Bísutúnsky nápis"
72658,36.5333,-6.28333,"","Cádiz"
288863,-45.0333,-70.8333,"","Alto Río Senguer"
288919,-36.7667,-59.85,"","Azul (Buenos Aires)"
73070,40.8333,14.25,"","Neapol"
173696,48.4786,18.4261,"","Hrušovský hrad"
73071,40.5333,44.2,"","Aragac"
73076,39.7,45.5333,"","Dar-Alages"
289206,-45.8667,-67.5,"","Comodoro Rivadavia"
73080,40.0167,45.7833,"","Porak"
289288,-42.3833,-66.95,"","Telsen (mesto)"
73089,40.275,44.75,"","Ghegam"
289313,-43.7167,-67.25,"","Las Plumas"
290067,-50.0167,-68.5167,"","Puerto Santa Cruz"
73120,38.5333,14.9,"","Liparské ostrovy"
290187,45.55,11.55,"","Vicenza"
290188,69.2167,-51.1,"","Ilulissat"
290246,51.7667,-10.5333,"","Skellig Michael"
290257,-46.4167,-67.5167,"","Caleta Olivia"
290572,49.0798,18.8064,"","Veterné (vrchol)"
75987,45.7594,4.84222,"","Lyon"
290617,52.2667,8.03333,"","Osnabrück"
290707,-27.4667,-58.8167,"","Corrientes (mesto)"
291539,49.2438,19.0598,"","Boboty"
77770,13.6,40.6667,"","Erta Ale"
291808,43.7683,11.2558,"","Šablóna:Infobox Výtvarné dielo"
174669,50.1306,13.31,"city","Lubenec"
291979,41.9128,0.193333,"","Monzón"
174779,51.5217,-0.126111,"","Russell Square"
292511,59.0883,37.9197,"landmark","Ledovyj dvorec (Čerepovec)"
294647,48.4843,135.086,"landmark","Platinum Arena"
294720,41.0592,14.4017,"landmark","Akvadukt Vanvitelli"
294721,41.0995,14.3162,"landmark","San Leucio"
294765,55.1747,61.2889,"landmark","Traktor Arena"
294809,56.2919,43.9792,"landmark","Narodnyj dvorec sporta profsojuzov"
294994,61.0625,26.6375,"","Verla"
294999,47.6813,10.9001,"","Pútnický kostol vo Wies"
295393,43.0436,16.0894,"","Komiža"
83730,51.1788,-1.82619,"","Stonehenge"
295646,46.4,13.5167,"","Jôf di Montasio"
84848,38.5833,28.5167,"","Kula (sopka)"
84910,42.7,44.5,"","Kazbek"
84967,47.1886,18.4136,"","Stoličný Belehrad"
86906,48.8108,14.3153,"","Český Krumlov"
87945,43.2167,27.9167,"","Varna (Bulharsko)"
87953,43.5,16.4333,"","Split"
87956,42.6403,18.1083,"","Dubrovník"
178326,49.1831,16.3944,"city","Rosice (okres Brno-venkov)"
88442,43.2931,17.02,"","Makarska"
88443,43.27,17.05,"","Tučepi"
89133,42.55,44,"","Kabargin Oth"
89147,42.8881,11.6228,"","Amiata (sopka)"
89152,43.2333,10.8833,"","Larderello"
89164,42.6,11.9333,"","Monti Vulsini"
89367,40.8272,14.1389,"","Campi Flegrei"
89373,40.7333,13.8833,"","Ischia (ostrov)"
91049,36.75,66.9,"","Balch"
95503,37.9333,22.9333,"","Korint"
99128,29.6578,91.1169,"","Potala"
101013,38.4036,14.9617,"","Vulcano"
102938,48.4,9.98333,"","Ulm"
103746,38.4667,14.95,"","Lipari (ostrov)"
103791,38.7894,15.2131,"","Stromboli (ostrov)"
103797,38.6375,15.0667,"","Panarea"
104123,37.1,12.7,"","Campi Flegrei del Mar di Sicilia"
104130,36.7833,12,"","Pantelleria (ostrov)"
104395,37.6667,33.8167,"","Karapinar"
182243,47.8333,35.1667,"","Záporožie"
182635,48.1849,17.037,"","Kostol Ducha Svätého (Dúbravka)"
104396,38.1333,34.1667,"","Hasan Dağı"
104632,38.25,34.5667,"","Göllü Dağ"
104633,38.5667,34.5167,"","Acıgöl-Nevşehir"
104643,38.5167,35.4833,"","Erciyes Dağı"
104646,37.6667,39.8333,"","Karaca Dağ"
183111,38.0308,-7.62278,"","Obnoviteľný zdroj energie"
104648,38.65,42.2333,"","Nemrut Dağı"
104653,38.9167,42.8167,"","Süphan Dağı"
104657,39.2833,43.3333,"","Girekol"
183905,50.25,28.6667,"","Žytomyr"
104662,39.3667,43.8667,"","Tendürek Dağı"
104664,40.75,42.9,"","Kars (sopka)"
104670,19.8,18.5333,"","Emi Koussi"
104671,21.3333,16.3333,"","Tarso Tôh"
104673,21.0333,16.45,"","Tarso Toussidé"
104675,20.9167,17.2833,"","Tarso Voon"
104729,-1.40833,29.2,"","Nyamuragira"
184976,48.05,16.95,"","Potzneusiedl"
104730,-0.933333,29.3333,"","May-ya-moto"
184977,42.5667,1.6,"","Canillo"
104739,-1.5,29.45,"","Karisimbi"
104759,-2.31667,28.75,"","Tshibinda"
104805,4.20333,9.17,"","Kamerun (sopka)"
105041,46.4667,30.7333,"","Odesa"
105044,49.9167,36.3167,"","Charkov"
105052,44.6164,33.5253,"","Sevastopoľ"
106212,34.7844,135.439,"","Osaka (mesto)"
106228,4.75,9.66667,"","Tombel (sopka)"
106233,5.03333,9.83333,"","Manengouba (sopka)"
106242,6.25,10.5,"","Oku (sopka)"
106250,16.4667,107.6,"","Huế"
106311,7.25,13.6667,"","Ngaoundéré (sopka)"
107044,43.0833,-87.95,"","Milwaukee"
107553,-22.9083,-43.1964,"","Rio de Janeiro"
107964,43.3833,16.4833,"","Sutivan"
108614,51.9217,4.48111,"","Rotterdam"
264497,49.2172,15.8772,"","Holašovice"
333161,51.8875,14.315,"","Rammelsberg"
333254,38,-3.36667,"","Úbeda"
333248,56.1833,15.65,"","Karlskrona"
333303,38,-3.46667,"","Baeza"
266935,53.9,11.4667,"","Wismar"
177181,49.1844,15.4531,"","Telč"
114112,49.22,15.88,"","Třebíč"
333535,40.9333,-4.99028,"","Fontiveros"
333625,48.4111,18.5444,"","Veľký Inovec"
5147,49.8417,18.2917,"","Ostrava"
218242,43.36,-5.845,"","Oviedo"
141135,38.3453,-0.495278,"","Alicante"
114169,38.5342,-0.131389,"","Benidorm"
91466,42.35,-3.7,"","Burgos (mesto v Španielsku)"
121303,41.65,-0.883333,"","Zaragoza"
141136,41.6333,-4.71667,"","Valladolid"
333939,28.4833,-16.3,"","San Cristóbal de La Laguna"
334011,45.0442,3.88583,"","Le Puy-en-Velay"
334090,43.6667,18.9833,"","Goražde"
334176,48.3603,22.3958,"","Baťovo"
334187,48.3247,23.9344,"","Usť-Čorna"
334219,41.8486,-87.9282,"","GPS"
333921,35.9081,-78.8628,"city","Research Triangle Park"
334245,48.8922,22.46,"","Veľké Berezné"
334254,48.5472,22.9861,"","Svaľava"
334259,48.3667,23.45,"","Dlhé"
334271,48.5397,22.5042,"","Seredné"
334288,48.0069,23.7625,"","Hrušovo (Zakarpatská oblasť)"
334325,48.6022,22.2428,"","Storožnica"
334333,48.6281,22.5225,"","Antalovce"
334399,48.9847,22.8647,"","Užok"
234595,48.3172,23.0375,"","Iršava"
334628,48.5289,23.5003,"","Mižhirja"
168301,48.4419,22.7183,"","Mukačevo"
137035,48.7144,23.1817,"","Volovec (mesto)"
315945,38.9,-6.33333,"","Mérida"
334641,48.1397,23.0331,"","Vinohradov"
334728,48.8642,22.4428,"","Malé Berezné"
334745,48.5456,22.4186,"","Hlboké (Zakarpatská oblasť)"
334747,48.7142,22.5939,"","Turie Remety"
334755,47.9481,23.8797,"","Solotvyno"
334757,48.0547,23.4761,"","Buštín"
234478,49.1908,19.06,"","Hromové"
334840,51.1636,13.4775,"","Meißen"
333936,37.1769,-3.58528,"","Alhambra"
335208,60,29.7675,"","Kronštadt"
335272,40.65,-4.68333,"","Ávila"
335273,39.4667,-6.38333,"","Cáceres"
87452,31.1922,29.9039,"","Alexandria"
335452,52.4042,13.0386,"","Sanssouci"
335507,49.3464,28.72,"","Turbiv"
155994,48.7694,20.6539,"","Zlatý stôl (vrch)"
208496,48.8303,20.4625,"","Babiná (vrch vo Volovských vrchoch)"
68174,48.7828,20.9872,"","Kojšovská hoľa (vrch)"
244246,48.7444,20.5747,"","Volovec (vrch vo Volovských vrchoch)"
335795,-23.5494,-46.7919,"","Osasco"
107547,-22.55,-46.6333,"","São Paulo"
335854,41.8167,15.3667,"","Poggio Imperiale"
335857,41.85,15.9564,"","Vico del Gargano"
335868,44.7,10.6333,"","Reggio Emilia"
335910,40.0833,21.4167,"","Grevena"
155217,47.8333,35.1667,"","Záporožská oblasť"
235298,68.4206,17.56,"","Narvik"
336084,49.2719,19.2494,"","Minčol (vrch v Oravskej Magure)"
336117,49.2742,19.2683,"","Kubínska hoľa (vrch)"
335128,-20.5167,57.5167,"","Souillac (Maurícius)"
336161,49.3036,19.3536,"","Príslop (sedlo na Orave)"
336178,49.3242,19.2142,"","Paráč (vrch)"
336181,49.3756,28.7806,"","Čuprynivka"
336186,44.2972,15.8503,"","Gračac"
336193,49.5164,19.2869,"","Minčol (vrch v Oravských Beskydách)"
336234,43.7003,16.6328,"","Sinj"
231918,44.2203,15.4803,"","Posedarje"
336237,44.6533,15.3797,"","Perušić"
336247,45.4331,13.5203,"","Umag"
321158,45.1531,13.6003,"","Vrsar"
315442,45.0828,13.6331,"","Rovinj"
211714,44.8669,13.8472,"","Pula"
248242,45.2131,13.5861,"","Poreč"
321069,45.2339,13.9319,"","Pazin"
321084,45.4169,13.9664,"","Buzet"
336250,45.0983,14.1161,"","Labin"
336252,44.9619,13.8561,"","Vodnjan"
336253,45.3164,13.5631,"","Novigrad (Istrijská župa)"
336281,45.4125,13.6539,"","Buje"
336283,45.0333,13.7681,"","Bale"
336286,45.1792,13.7372,"","Sveti Lovreč"
336288,44.5269,15.07,"","Karlobag"
336358,45.3811,13.7172,"","Grožnjan"
336360,45.3694,13.6136,"","Brtonigla"
308058,52.3606,13.0658,"","Postupim"
336401,49.3928,28.7181,"","Stara Pryluka"
336411,45.1814,13.8636,"","Sveti Petar u Šumi"
280954,43.5194,16.2314,"","Trogir"
287452,43.3503,16.7339,"","Pučišća"
290190,43.1839,16.6028,"","Stari Grad"
287457,43.3844,16.5553,"","Supetar"
231930,43.0092,17.2678,"","Trpanj"
335517,48.5767,21.4581,"","Veľký Milič (vrch)"
7107,49.1189,20.0636,"","Štrbské Pleso"
335926,38.15,23.95,"","Maratón (mesto)"
336642,48.47,21.7122,"","Rozhľadňa (vrch)"
336653,51.6383,-111.942,"","Hanna (Alberta)"
336782,46.3833,16.6833,"","Goričan"
336798,44.3839,15.6836,"","Lovinac"
336682,44.9156,15.5042,"","Plitvička jezera"
336854,48.8857,13.9393,"","Horní Sněžná"
72731,45.4667,9.16667,"","Miláno"
83667,48.8897,18.6989,"","Vyšehradské sedlo"
336959,49.4258,19.6739,"","Chyžné (Poľsko)"
337422,45.222,19.844,"","Sremska Kamenica"
337563,49.3564,28.9058,"","Brycke"
337606,50.3597,7.59778,"","Koblenz"
337564,59.3758,28.1961,"","Narva"
337698,49.3714,28.8517,"","Koňušivka"
337702,49.32,28.8433,"","Vachnivka"
337762,49.3031,28.8439,"","Žurava"
337785,48.9539,13.9264,"","Cudrovice"
337757,48.4833,9.21667,"","Reutlingen"
337755,53.1333,8.2,"","Oldenburg"
337829,48.8672,13.9089,"","Chlum (Volary)"
337604,51.1667,7.08333,"","Solingen"
337867,49.5108,19.6372,"","Nižná Lipnica"
337872,49.5333,19.6833,"","Nižná Zubrica"
337873,49.55,19.7333,"","Podvlk"
337865,49.48,19.6933,"","Jablonka (Poľsko)"
337869,49.5089,19.7169,"","Orávka (Poľsko)"
337874,49.5667,19.65,"","Vyšná Zubrica"
337887,48.9583,13.7019,"","Březová Lada"
337924,48.9267,13.7297,"","Žlíbky"
337949,49.4833,19.6167,"","Vyšná Lipnica"
337950,49.5181,19.7892,"","Bukovina-Podsklé"
337955,49.4667,19.7667,"","Pekelník (Poľsko)"
337956,49.55,19.85,"","Harkabúz"
337959,49.5667,19.8,"","Sŕnie"
337995,48.9675,13.5933,"","Bučina (Kvilda)"
338078,48.9944,13.6819,"","Černá Lada"
205911,50.2578,13.1419,"","Doupov"
338177,48.8856,13.7425,"","Dolní Cazov"
51959,48.9072,13.7211,"","Strážný"
338366,48.8203,13.7294,"","Studená Vltava"
338366,48.8586,13.8933,"","Studená Vltava"
338733,48.8292,13.7939,"","Nové Údolí"
338753,48.8614,13.8606,"","Černý Kříž"
338763,45.0331,15.1639,"","Lipice (Chorvátsko)"
338912,48.7811,13.8045,"","Třístoličník"
338936,48.7713,13.8573,"","Plechý"
23773,48.4778,20.4703,"","Domica"
38409,12.3661,-1.51806,"","Ouagadougou"
107666,-37.8136,144.963,"","Melbourne"
3003,3.1475,101.693,"","Kuala Lumpur"
164799,52.6333,4.75,"","Alkmaar"
339808,48.8789,13.7753,"","České Žleby"
336176,49.3017,19.2381,"","Minčol (vrch v Oravskej Magure; 1 139,3 m n. m.)"
340085,48.8517,13.9353,"","Pěkná"
340108,48.9311,14.4108,"","Černý Dub"
124315,25.7878,-80.2242,"","Miami"
340624,48.8633,14.3533,"","Plešovice"
340625,48.8256,14.3358,"","Domoradice (Český Krumlov)"
340626,48.8833,14.3469,"","Třísov"
340635,48.7842,14.2417,"","Mezipotočí"
340638,48.7983,14.1469,"","Polná na Šumavě"
340639,48.7825,14.075,"","Hodňov"
340647,48.7603,14.0858,"","Žlábek (Horní Planá)"
340727,48.8331,13.9531,"","Záhvozdí"
340730,48.8203,13.9675,"","Slunečná (Želnava)"
87814,48.8369,19.2194,"","Kalište"
340886,48.8183,13.6786,"","Haidel"
3024,-41.2889,174.777,"","Wellington"
245641,49.1711,18.9564,"","Suchý (1 468 m n. m.)"
341212,48.9467,14.0131,"","Skříněřov"
341513,48.9042,13.9661,"","Spálenec"
341526,48.8947,13.9936,"","Arnoštov (Křišťanov)"
341567,53.4467,6.35111,"","Waddensee"
341632,48.8417,13.9236,"","Brod (Stožec)"
341754,48.8153,13.8803,"","Jelení (Nová Pec)"
341791,48.9467,13.7072,"","Polka (Horní Vltavice)"
341884,48.9053,13.6511,"","Dolní Světlé Hory"
341908,48.9564,13.6311,"","Knížecí Pláně"
81498,48.8386,18.9986,"","Malý Šturec"
342213,48.9788,14.0118,"","Libín (Šumavské podhorie)"
342227,48.865,14.2839,"","Kleť"
205054,53.4508,-6.15444,"","Malahide"
342405,48.9913,13.8175,"","Boubín"
342495,48.7569,19.0039,"","Vyhnatová"
342497,48.7703,19.0111,"","Kordícke sedlo"
342501,48.7503,18.9992,"","Sedlo Tunel"
342505,48.8053,18.9914,"","Svrčinník"
342506,48.8064,18.9844,"","Sedlo Flochovej"
342510,49.1381,13.6544,"","Javorník (Šumava)"
342515,48.9583,13.8653,"","Bobík"
70870,48.9636,18.6119,"","Fačkovské sedlo"
342621,48.7347,19.0014,"","Bystrické sedlo"
342627,48.7281,19.0014,"","Králické sedlo"
342631,48.715,19.005,"","Zlatá studňa (vrch)"
342790,48.7053,19.0086,"","Tri kríže (sedlo)"
342792,48.7089,19.0042,"","Velestúr"
342795,48.7083,18.9947,"","Smrečník (vrch)"
175301,48.7392,18.9842,"","Skalka (rekreačné stredisko)"
343007,-23.5228,-46.1931,"","Mogi das Cruzes"
343010,55.4167,37.5333,"","Podoľsk"
343124,49.1803,18.9677,"","Stratenec (vrch v Malej Fatre)"
343157,48.7986,19.1489,"","Panský diel"
343176,48.4417,19.2894,"","Javorie (vrch v rovnomennom pohorí)"
128186,51.4056,30.0569,"","Pripiať (mesto)"
343243,48.5656,17.8772,"","Havran (sedlo)"
343270,50.5002,6.09306,"","Signal de Botrange"
343169,48.7692,19.4606,"","Čierťaž (1 204,3 m n. m.)"
343405,29.5611,34.9517,"","Ejlat"
343539,32.7019,35.3033,"","Nazaret"
343545,49.3281,28.9761,"","Zozivka"
343569,43.1,-0.05,"","Lurdy"
344535,49.6581,13.8189,"","Praha (Brdy)"
344531,49.7047,13.8769,"","Tok (Brdy)"
345132,44.8147,-91.4928,"","Eau Claire (Wisconsin)"
345898,49.6092,13.6472,"","Hořehledy (okres Plzeň-juh)"
3103,27.9881,86.9253,"","Mount Everest"
125004,35.8825,76.5133,"","K2 (vrch)"
345926,50.125,17.1542,"","Červenohorské sedlo"
202515,55.0833,38.7833,"","Kolomna"
203156,58.7333,29.85,"","Luga (mesto)"
152554,27.7025,88.1483,"","Káčaňdžunga"
152576,27.9667,86.9333,"","Lhoce"
152578,27.8842,87.0889,"","Makalu"
345964,50.1708,17.1167,"","Keprník"
345976,50.1861,17.1069,"","Šerák"
345985,50.1933,17.0647,"","Ramzovské sedlo"
152579,28.1,86.65,"","Čho Oju"
152874,28.6964,83.4953,"","Dhaulágirí"
152580,28.55,84.5667,"","Manaslu"
153037,35.2375,74.5892,"","Nanga Parbat"
153092,28.5953,83.8197,"","Annapurna"
153158,35.7167,76.7,"","Gašerbrum I"
153135,35.8106,76.5681,"","Broad Peak"
153173,35.75,76.65,"","Gašerbrum II"
152726,28.35,85.7833,"","Šiša Pangma"
48594,43.8667,18.4167,"","Sarajevo"
14155,46.2,6.15,"","Ženeva"
164284,51.825,5.85556,"","Nijmegen"
164110,51.9833,5.91667,"","Arnhem"
164280,53.2167,6.55,"","Groningen (mesto v Holandsku)"
164795,52.5,6.08333,"","Zwolle"
141307,52.3667,5.21667,"","Almere (mesto)"
203169,42.8167,132.867,"","Nachodka (mesto)"
156124,27.6828,88.0458,"","Jannu"
154255,29.6306,95.0553,"","Namča Barva"
156113,30.3128,79.7772,"","Trisul"
156066,30.3767,79.9708,"","Nandádéví"
156059,30.9203,79.5936,"","Kamét"
156121,30.93,79.6,"","Abi Gamin"
159498,36.2461,71.8439,"","Tirič Mír"
159504,36.4317,71.8283,"","Nošak"
222221,38.9167,72.0167,"","Kullai Ismoili Somonij"
222323,39.0556,72.0239,"","Kullai Korženevskij"
347407,49.4042,13.2286,"","Tupadly (okres Klatovy)"
156380,39.3333,72.9167,"","Kullai Aböalij ibni Sino"
156620,42.2108,80.175,"","Chan-Tengri"
347368,31.9117,130.883,"","Šinmoe-dake"
156210,42.035,80.1256,"","Štít víťazstva"
251670,-49.3128,-73.0432,"","Cerro Fitz Roy"
117539,-32.6556,-70.0158,"","Aconcagua"
3119,42.6322,0.657778,"","Pico de Aneto"
202215,42.5906,1.44472,"","Coma Pedrosa"
202298,42.5792,1.45139,"","Pic dels Aspres"
202220,42.6,1.44528,"","Pic de Sanfonts"
202257,42.5689,1.44528,"","Pic del Port Vell"
273471,42.6667,0.0333333,"","Monte Perdido"
3120,37.0553,-3.30917,"","Mulhacén"
251423,46.38,12.0533,"","Monte Civetta"
347765,48.9117,13.745,"","Hliniště (Strážný)"
347771,48.9142,13.7225,"","Kořenný"
226290,63.0694,-151.007,"","Mount McKinley"
200799,45.5333,7.26667,"","Gran Paradiso"
250423,45.8689,6.98806,"","Grandes Jorasses"
347878,49.2861,20.2083,"","Príslop (Spišská Magura)"
347879,49.2778,20.2067,"","Pod Príslopom"
347981,41.8333,-88.0833,"","DuPage County"
68592,50.3858,7.01111,"","Eifel"
141361,51.5067,11.9722,"","Halle (Saale)"
200814,45.9225,7.83556,"","Lyskamm"
3108,50.3961,12.9678,"","Klínovec"
3118,46.4369,11.8653,"","Marmolada"
125758,45.9764,7.65833,"","Matterhorn"
345268,60.8,21.4097,"","Uusikaupunki"
2932,55.7556,35.6175,"","Moskva"
348146,63.7486,25.3181,"","Haapajärvi"
203551,46.3824,9.90806,"","Piz Bernina"
3109,46.5375,8.12603,"","Finsteraarhorn"
348180,61.2028,26.0319,"","Heinola"
46201,50.0386,15.7792,"","Pardubice"
164446,52.2167,5.96667,"","Apeldoorn"
164286,51.5667,4.8,"","Breda"
164854,52.015,4.35667,"","Delft"
164647,51.8167,4.65,"","Dordrecht"
162823,51.4333,5.46667,"","Eindhoven"
241390,51.1,5.88333,"","Echt"
348669,49.0317,18.0544,"","Vlársky priesmyk"
241393,51.0683,5.82639,"","Gebroek"
168770,52.3803,4.64056,"","Haarlem"
217470,51.1536,6.06806,"","Herkenbosch"
241395,51.05,5.95,"","Koningsbosch"
268477,53.2,5.8,"","Leeuwarden"
164649,52.2667,4.81667,"","Leiden"
217469,51.1667,6.01667,"","Melick"
349345,45.6167,63.3167,"","Bajkonur (mesto)"
241399,51.0333,5.86667,"","Nieuwstadt"
164856,51.7667,5.88333,"","Oss"
217471,51.1333,6.03333,"","Paarlo"
214089,51.1167,6.03333,"","Posterholt"
241400,51.0833,5.81667,"","Roosteren"
241404,51.1167,5.9,"","Sint Joost"
217467,51.15,6,"","Sint Odiliënberg"
241407,51.0667,5.86667,"","Susteren"
164111,51.555,5.09056,"","Tilburg"
217473,51.1333,6.08333,"","Vlodrop"
2938,10.5,-66.9333,"","Caracas"
30739,29.7628,-95.3831,"","Houston"
38364,37.7793,-122.419,"","San Francisco"
117281,29.9647,-90.0706,"","New Orleans"
3017,38.8951,-77.0367,"","Washington D.C."
350716,48.6822,26.5825,"","Kamjanec-Podiľskyj"
36587,53.9583,-1.08028,"","York (Anglicko)"
350839,50.1856,27.0683,"","Šepetivka"
191719,40.7614,-73.9733,"","Budova Sony (New York)"
349211,39.7436,-104.985,"","Wells Fargo Center (Denver)"
350877,26.0496,32.241,"","Rukopisy z Nag Hammádí"
350877,26.0579,32.3066,"","Rukopisy z Nag Hammádí"
350877,26.0214,32.2829,"","Rukopisy z Nag Hammádí"
350877,26.1126,32.4032,"","Rukopisy z Nag Hammádí"
350877,26.1122,32.3262,"","Rukopisy z Nag Hammádí"
350972,50.3339,26.6506,"","Netišyn"
350999,26.0494,32.2411,"","Nag Hammádí"
351027,49.0569,18.7556,"","Sedlo Maríková"
351029,49.0606,18.7731,"","Kopa (vrch v Malej Fatre)"
351033,49.105,18.8192,"","Zázrivá (vrch)"
351035,49.1169,18.8283,"","Dlhá lúka (vrch)"
292189,32.6575,51.6767,"","Isfahán"
351325,50.8694,-115.651,"","Mount Assiniboine"
351305,58.9064,-137.527,"","Mount Fairweather"
106702,48.9444,21.4683,"","Šimonka (vrch)"
125652,48.4031,18.8775,"","Sitno (vrch)"
351811,49.4997,18.3139,"","Kněhyně (vrch)"
351917,49.4039,18.3608,"","Vysoká (Vsetínske vrchy)"
351826,49.5083,18.3706,"","Smrk (Moravsko-sliezske Beskydy)"
19940,47.3667,8.55,"","Zürich"
351962,48.8317,-121.603,"","Mount Shuksan"
352018,17.347,-62.836,"","Brimstone Hill Fortress National Park"
352342,32.6872,35.3903,"","Tábor (vrch)"
51117,45.5283,2.81417,"","Centrálny masív (Francúzsko)"
352881,49.2331,19.9828,"","Kasprov vrch"
306637,49.2508,19.9342,"","Giewont"
352914,49.2483,19.7114,"","Zverovka"
353116,49.1631,20.1339,"","Gerlachovská veža"
76665,51.5761,0.488611,"","Basildon"
353142,48.9458,18.5308,"","Javorinka (vrch v Strážovských vrchoch, Čičmany)"
353153,48.8267,18.5411,"","Boškovie laz"
2925,48.2083,16.3731,"","Viedeň"
337133,32.7667,21.7417,"","Al-Bajdá"
37607,32.9,13.1833,"","Tripolis"
353272,44.4833,14.95,"","Pag (mesto)"
353274,50.1803,26.5628,"","Plužne"
353379,48.7919,2.36361,"","Villejuif"
87950,44.1203,15.2306,"","Zadar"
37952,31.2,121.5,"","Šanghaj"
349986,31.6333,-8,"","Murrákuš"
3033,45.8336,6.865,"","Mont Blanc"
353889,43.85,10.75,"","Ponte Buggianese"
164228,49.1478,19.4303,"","Sestrč (vrch)"
354103,49.2226,19.6822,"","Brestová (vrch v Západných Tatrách)"
161503,48.1478,17.1214,"","Chrám Povýšenia vznešeného a životodarného kríža"
354221,28,-112,"","Kalifornský záliv"
203075,48.1422,17.1,"","Redaktor:LWolf"
301736,48.4866,17.6632,"landmark","Bohunice Meteorological Tower"
182926,48.9364,19.6403,"","Ďumbier (vrch)"
354252,42.1797,23.5867,"","Musala"
37633,12.65,-8,"","Bamako"
81484,16.7758,-3.00944,"","Timbuktu (mesto)"
354321,45.9369,7.86722,"","Dufourspitze"
354017,43.9333,10.9167,"","Pistoia"
13325,44.5,11.35,"","Bologna"
354513,32.1167,20.0667,"","Bengázi"
266550,44.65,10.9333,"","Modena"
145739,44.4167,12.2,"","Ravenna"
62176,44.1422,12.2439,"","Cesena"
62178,44.05,12.5667,"","Rimini"
141131,41.1333,16.8667,"","Bari (Apúlia)"
146245,40.6333,17.9333,"","Brindisi"
352711,41.4667,15.5667,"","Foggia"
146478,40.4667,17.2333,"","Tarent"
98052,45.4167,11.8667,"","Padova"
101994,45.6333,13.8,"","Terst"
145880,41.1,14.2167,"","Capua"
241007,40.75,14.6333,"","Nocera Inferiore"
13317,44.4167,8.93333,"","Janov (Taliansko)"
13290,43.8167,7.78333,"","Sanremo"
149706,45.55,9.06667,"","Arese"
140948,45.7,9.06667,"","Bergamo (mesto)"
141290,45.5333,10.2333,"","Brescia (mesto)"
143442,45.6167,8.85,"","Busto Arsizio"
144143,45.55,9.21667,"","Cinisello Balsamo"
354787,21.4603,-71.1414,"","Cockburn Town"
198243,45.7333,9.48333,"","Cisano Bergamasco"
40867,45.8167,9.08333,"","Como (mesto, Lombardia)"
224869,45.1333,10.0333,"","Cremona (mesto)"
143964,45.1333,10.0333,"","Gallarate"
199508,45.85,9.4,"","Lecco"
199182,45.5167,10.0833,"","Travagliato"
143997,45.5333,9.23333,"","Sesto San Giovanni"
151046,45.1833,9.15,"","Pavia"
144148,45.5833,9.26667,"","Monza"
149752,38.6833,15.9,"","Tropea"
127299,39.2167,9.11667,"","Cagliari"
304494,40.9167,9.5,"","Olbia"
337958,38.1833,15.55,"","Messina"
3012,36.7667,3.05,"","Alžír"
3004,4.175,73.5089,"","Male"
304497,38.0167,12.5167,"","Trapani"
141793,43.7167,10.95,"","Empoli"
159898,43.7167,10.4,"","Pisa"
72735,43.3167,11.3333,"","Siena (mesto)"
23539,46.05,11.35,"","Bolzano"
20247,46.0667,7.35,"","Trident (mesto)"
142393,43.1167,12.3833,"","Perugia"
254496,41.7,13.35,"","Alatri"
324566,41.7161,12.8,"","Tivoli"
324539,40.6667,16.6,"","Matera"
334212,42.2333,11.75,"","Tarquinia"
314136,37.3167,13.5833,"","Agrigento"
294718,40.7833,17.2333,"","Alberobello"
352710,44.9167,8.61667,"","Alessandria"
354305,45.45,8.61667,"","Novara"
355605,44.1422,12.2439,"","Piacenza"
355606,43.3167,11.3333,"","Prato"
355577,49.0999,19.4456,"","Thermal park Bešeňová"
356221,47.1833,19.8,"","Cegléd (mesto)"
356242,40.7333,8.55,"","Sassari"
356244,42.4667,14.2167,"","Pescara"
356250,44.2333,12.05,"","Forlì"
356253,42.5667,12.65,"","Terni"
356254,43.6167,13.5167,"","Ancona"
356257,40.9333,14.2,"","Giugliano in Campania"
356259,41.4667,12.9,"","Latina (mesto)"
356264,40.8294,16.5539,"","Altamura"
356265,41.2,16.6,"","Molfetta"
356267,43.85,10.5167,"","Lucca"
356314,43.4667,11.8833,"","Arezzo"
164803,51.1167,5.95,"","Montfort (Limbursko)"
356358,42.8556,13.575,"","Ascoli Piceno"
356362,40.9667,14.2,"","Aversa"
356375,41.1333,14.7833,"","Benevento"
356379,44.7833,10.8833,"","Carpi"
356392,50.2075,16.8475,"","Králický Sněžník (vrch)"
356396,40.9,14.3,"","Casoria"
356398,38.9,16.6,"","Catanzaro"
356401,39.3,16.25,"","Cosenza"
356403,44.2853,11.8831,"","Faenza"
356404,42.7667,11.1167,"","Grosseto"
356463,44.1,9.81667,"","La Spezia"
356474,38.9667,16.3,"","Lamezia Terme"
356476,40.35,18.1667,"","Lecce"
356479,41.6333,15.9167,"","Manfredonia"
356500,37.8,12.4333,"","Marsala"
356501,44.0333,10.1333,"","Massa"
356503,36.85,14.7667,"","Modica"
322701,46.0667,13.2333,"","Udine"
356516,48.7253,19.1411,"","Urpín (vrch)"
37794,17.3,-62.7333,"","Basseterre"
65886,17.2628,-88.7875,"","Belmopan"
155788,45.7667,13.3667,"","Aquileia"
322753,46.1,13.4333,"","Cividale del Friuli"
189366,45.9333,13.6167,"","Gorizia"
112983,16.7928,-62.2106,"","Brades"
100159,40.6833,14.7667,"","Salerno"
339667,45.3167,9.5,"","Lodi"
112980,16.7064,-62.2158,"","Plymouth (Montserrat)"
324672,36.9167,14.7167,"","Ragusa"
333835,36.9167,14.7167,"","Militello in Val di Catania"
356634,36.8833,15.0833,"","Noto (Sicília)"
353171,44.0833,10.1,"","Carrara"
314144,43.0667,12.6167,"","Assisi"
356642,50.1914,16.8153,"","Malý Sněžník"
356661,49.8397,17.43,"","Slunečná (Nízky Jeseník)"
356663,49.6206,17.5053,"","Fidlův kopec"
65889,13.0947,-59.6175,"","Bridgetown"
148728,-0.683889,73.1331,"","Gan (Sínu)"
356690,50.2303,17.0339,"","Smrk (Rychlebské hory)"
356694,50.2258,16.9222,"","Kladské sedlo"
65908,19.2833,-81.3667,"","George Town"
356698,50.1564,16.7908,"","Klepý"
263596,49.9,2.3,"","Amiens"
35368,48.5844,7.74861,"","Štrasburg"
329112,43.6119,3.87722,"","Montpellier"
108388,44.84,0.579722,"","Bordeaux"
65911,14.6133,-90.5353,"","Guatemala (mesto)"
356771,50.3042,16.4003,"","Velká Deštná"
356794,50.8497,15.42,"","Vysoká kopa"
356809,50.8894,15.2719,"","Smrk (Jizerské hory)"
356822,51.9994,-9.74278,"","Carrauntoohil"
356832,51.05,-1.3,"","Winchester"
356834,50.0614,17.2317,"","Vysoká hole"
259540,49.2628,4.03472,"","Reims"
33855,49.49,0.1,"","Le Havre"
301269,45.4347,4.39028,"","Saint-Étienne"
149067,45.1878,4.72694,"","Grenoble"
76659,48.02,0.198889,"","Le Mans"
356879,50.8336,15.2597,"","Jizera (vrch)"
341003,40.7031,24.7061,"","Ypsarion"
330536,45.8353,1.2625,"","Limoges"
108315,45.7831,3.08222,"","Clermont-Ferrand"
102530,47.3936,0.689167,"","Tours"
267869,49.1161,6.17222,"","Metz"
98892,51.7519,-1.25778,"","Oxford"
209150,63.8333,20.25,"","Umeå"
35369,42.6986,2.89556,"","Perpignan"
90052,37.3833,-5.98333,"","Andalúzia"
90236,41,-4,"","Aragónsko"
234713,43.3333,-6,"","Astúria"
87917,39.5,-3,"","Baleáry"
234701,42.8333,-2.68333,"","Baskicko"
358557,42.85,-2.68333,"","Vitoria-Gasteiz"
65931,32.2931,-64.7819,"","Hamilton (Bermudy)"
331138,48.9364,2.35472,"","Saint-Denis (Seine-Saint-Denis)"
330535,48.8611,2.44361,"","Montreuil (Seine-Saint-Denis)"
358615,39,-6,"","Extremadura"
358618,38.8667,-6.96667,"","Badajoz"
93943,42.5,-8.1,"","Galícia"
330794,48.7911,2.46278,"","Créteil"
259388,46.5819,0.336111,"","Poitiers"
88675,28.1,-15.4,"","Kanárske ostrovy"
246096,44.1033,19.3147,"","Srebrenica"
17466,48.8053,2.135,"","Versailles"
183473,48.8978,2.25306,"","Courbevoie"
331031,48.7894,2.38944,"","Vitry-sur-Seine"
330793,48.9403,2.25222,"","Colombes"
330602,48.9386,2.49056,"","Aulnay-sous-Bois"
282209,48.9108,2.28889,"","Asnières-sur-Seine"
330796,48.8833,2.2,"","Rueil-Malmaison"
350712,46.1603,-1.15,"","La Rochelle"
330888,48.7994,2.49972,"","Saint-Maur-des-Fossés"
330733,48.8167,2.51667,"","Champigny-sur-Marne"
166657,50.9481,2.85639,"","Calais"
330601,48.9131,2.38306,"","Aubervilliers"
268311,43.3475,3.21889,"","Béziers"
359286,48.8603,19.2903,"","Kozí chrbát (vrch v Starohorských vrchoch)"
144563,48.0817,7.35556,"","Colmar"
331278,48.9333,2.45,"","Drancy"
153909,41.9267,8.73694,"","Ajaccio"
36445,52.635,-1.135,"","Leicester"
330596,48.7539,2.2975,"","Antony (Hauts-de-Seine)"
337587,48.8881,2.26861,"","Neuilly-sur-Seine"
348526,69.3333,88.2167,"","Noriľsk"
140645,43.3333,17.8,"","Mostar"
331784,45.57,5.91167,"","Chambéry"
337586,48.8078,2.37472,"","Ivry-sur-Seine"
337644,47.06,-0.878333,"","Cholet"
322093,43.3333,-4,"","Kantábria"
359773,43.45,-3.8,"","Santander"
352984,48.8833,2.6,"","Chelles (Seine-et-Marne)"
337594,48.8967,2.40167,"","Pantin"
347058,48.9553,2.30917,"","Épinay-sur-Seine"
359916,42.4692,13.5658,"","Corno Grande"
347225,48.6239,2.42944,"","Évry (Essonne)"
347063,48.8014,2.26278,"","Clamart"
360017,49.3261,28.6706,"","Syvakivci"
268245,45.9161,6.13306,"","Annecy"
360034,43.9333,15.4333,"","Biograd na Moru"
360206,50.1573,6.037,"","Kneiff"
360220,42.7172,24.9169,"","Botev"
351105,32.7831,-96.7991,"landmark","Energy Plaza"
330597,48.95,2.25,"","Argenteuil (Val-d’Oise)"
321278,45.05,6.03333,"","L’Alpe-d’Huez"
360786,52.1347,4.60194,"","Koudekerk aan den Rijn"
4253,13.1528,-61.2231,"","Kingstown"
126992,49.1808,18.9928,"","Malý Kriváň (vrch v Malej Fatre)"
107586,43.7164,-79.3406,"","Toronto"
361061,48.9681,18.77,"","Zniev (vrch)"
361251,46.95,142.733,"","Južno-Sachalinsk"
361270,-19.9191,-43.9387,"","Belo Horizonte"
361271,50.2833,127.533,"","Blagoveščensk"
308165,45.3833,47.3667,"","Lagaň"
297204,46.3167,44.2667,"","Elista"
199415,52.0333,113.217,"","Čita"
361300,69.725,30.0517,"","Kirkenes"
361303,46.4833,13.7833,"","Kranjska Gora"
361325,49.0971,18.8193,"","Vysielač Krížava"
361341,48.8826,20.1399,"","Vysielač Kráľova hoľa"
361356,48.4031,18.8775,"","Vysielač Sitno"
361369,48.8576,17.6752,"","Vysielač Veľká Javorina"
289065,48.9236,21.4622,"","Vysielač Dubník"
288916,48.7383,18.9964,"","Vysielač Suchá hora"
297737,40.95,-4.16667,"","Segovia"
317334,38.0131,23.6358,"","Monastier Dafni"
317377,38.4,26.0167,"","Monastier Nea Moni"
361724,64.7333,177.517,"","Anadyr"
304146,-12.45,130.833,"","Darwin (Austrália)"
362310,39.1922,-106.824,"","Aspen"
186608,50.1128,14.4725,"","Libeň"
187184,50.0511,14.3606,"","Jinonice"
37790,15.6333,32.5333,"","Chartúm (mesto)"
81669,46.8528,-121.76,"","Rainier (sopka)"
82234,46.2056,-121.49,"","Adams (sopka)"
73340,48.7767,-121.813,"","Baker (sopka)"
82237,48.1117,-121.113,"","Glacier Peak"
84996,45.9333,-121.817,"","Indian Heaven"
81774,46.2,-122.183,"","Saint Helens"
81785,52.8939,-170.054,"","Carlisle (sopka)"
81241,58.2667,-155.15,"","Novarupta"
34830,14.6667,-61,"","Martinik"
74168,49.4833,135.067,"","Chabarovsk"
199420,52.2833,104.3,"","Irkutsk"
254431,44.6,40.0833,"","Majkop"
205687,43.3167,45.7,"","Groznyj"
81310,48.8841,19.167,"","Veľký Šturec"
51800,48.9056,19.736,"","Čertovica (sedlo)"
105175,40.7353,-74.185,"","Newark (New Jersey)"
328896,45.3503,19.7239,"","Kysáč"
363003,44.4667,-73.15,"","Burlington (Vermont)"
323718,48.9075,19.9556,"","Priehyba (sedlo)"
363341,48.9828,19.2308,"","Smrekovica (vrch vo Veľkej Fatre)"
363349,49.0058,19.2058,"","Malá Smrekovica (vrch vo Veľkej Fatre)"
363384,49.0489,19.2486,"","Malinné (vrch vo Veľkej Fatre)"
363385,48.9322,18.9806,"","Lubená (vrch vo Veľkej Fatre)"
363533,43.7572,15.7753,"","Vodice (Chorvátsko)"
88492,43.7392,15.8889,"","Šibenik"
363589,40.4167,8.63333,"","Mara (Taliansko)"
363793,9.18472,105.16,"","Cà Mau"
3775,10.6667,-61.5167,"","Port of Spain"
364132,49.5083,18.9628,"","Príslop (sedlo na Kysuciach)"
364166,49.3603,21.2456,"","Vysielač Stebnícka Magura"
157956,48.6908,19.4672,"","Hájny grúň (1 207,7 m n. m.)"
364592,48.68,19.47,"","Jasenová (sedlo)"
364605,48.6731,19.4814,"","Brusniansky grúň"
335269,40.9667,-5.66667,"","Salamanca (mesto, Španielsko)"
364646,49.1503,18.8633,"","Grúň (1 100,5 m n. m.)"
364672,49.1686,18.8817,"","Domašín (vrch v Malej Fatre)"
85118,48.6017,19.6606,"","Prašivá (sedlo)"
132541,48.4936,21.8128,"","Veľký vrch (Východoslovenská rovina)"
204717,53.3816,-6.59097,"","Maynooth"
364722,45.1708,21.005,"","Jánošík (dedina)"
322891,49.0211,18.4067,"","Ostrá Malenica"
364810,49.3,19.7475,"","Oravice"
85145,49.4175,21.6958,"","Dukliansky priesmyk"
155871,49.2817,19.7058,"","Bôrik (sedlo)"
364916,39.4667,75.9833,"","Kašgar (mesto)"
338378,48.9325,22.1092,"","Ščobík"
365113,49.3794,17.7014,"","Hostýn"
365140,49.5931,17.8981,"","Moravská brána"
365210,49.0908,18.8136,"","Vysielač Veľká lúka"
287929,44.8,10.3333,"","Parma (Emilia-Romagna)"
286278,40.9333,24.4,"","Kavala"
365255,44.6463,10.9257,"","Dóm v Modene"
365520,45.3894,19.4567,"","Silbaš"
365547,48.9092,19.0856,"","Suchý vrch (vrch vo Veľkej Fatre)"
286090,48.8478,2.43917,"","Vincennes"
364723,49,2.38333,"","Villiers-le-Bel"
347302,49.9667,2.53333,"","Villepinte (Seine-Saint-Denis)"
347354,48.8833,2.5,"","Villemomble"
285764,49.1608,5.38833,"","Verdun"
365962,32.3778,15.09,"","Misráta"
365971,30.4058,19.5739,"","Marsá al-Burajka"
366069,48.7153,21.6489,"","Albinovská hora"
366075,32.7522,12.7278,"","Záwíja"
155782,60.5,26,"","Južné Fínsko"
366305,53.0203,-1.49972,"","Derwent Valley Mills"
366353,-8.05,-34.8833,"","Recife"
366356,40.5667,8.72722,"","Siligo"
280945,38.4886,-27.2208,"","Angra do Heroísmo (okres)"
280945,38.73,-27.32,"","Angra do Heroísmo (okres)"
366300,40.15,-8.85,"","Figueira da Foz (okres)"
366371,11.9417,108.438,"","Đà Lạt"
365388,41.5442,-8.42194,"","Braga (mesto)"
366520,45.655,13.0931,"","Lignano Sabbiadoro"
366638,38.0167,-7.86667,"","Beja (mesto)"
366705,41.5,-6.26667,"","Miranda do Douro (mesto)"
307103,49.5461,18.4486,"","Lysá hora (vrch v Česku)"
366890,-19.8167,-43.95,"","Minas Gerais"
335851,-23.5333,-46.6333,"","São Paulo (štát)"
366920,-3.77361,-38.5747,"","Fortaleza"
366936,48.955,18.7533,"","Sokol (vrch v Žiari)"
366918,-9.97472,-67.81,"","Rio Branco (Acre)"
366916,-9.66583,-35.735,"","Maceió"
366984,43.5756,12.1439,"","Redaktor:Antenor81/Sandbox"
366947,-20.3189,-40.3378,"","Vitória (Brazília)"
367019,-20.3189,-40.3378,"","Pôrto Velho"
367028,-20.3189,-40.3378,"","Natal"
367031,-20.3189,-40.3378,"","Cuiabá"
367040,-20.3189,-40.3378,"","Goiânia"
367044,-20.3189,-40.3378,"","Campo Grande (Mato Grosso)"
367048,-20.3189,-40.3378,"","Londrina"
367050,-20.3189,-40.3378,"","Maringá"
117738,54.9667,73.3833,"","Omsk"
367074,-20.3189,-40.3378,"","Ponta Grossa"
367076,-20.3189,-40.3378,"","Cascavel (Paraná)"
367080,-20.3189,-40.3378,"","São José dos Pinhais"
367081,-20.3189,-40.3378,"","Colombo (Paraná)"
170300,-20.3189,-40.3378,"","Curitiba"
367113,-20.3189,-40.3378,"","Guarapuava"
367117,-20.3189,-40.3378,"","Paranaguá"
367118,-20.3189,-40.3378,"","Pinhais"
367121,-20.3189,-40.3378,"","Toledo (Paraná)"
367049,-20.3189,-40.3378,"","Cambé"
367126,-20.3189,-40.3378,"","Campo Mourão"
367119,-20.3189,-40.3378,"","Almirante Tamandaré"
367170,-20.3189,-40.3378,"","Florianópolis"
367173,-20.3189,-40.3378,"","Joinville"
367174,-20.3189,-40.3378,"","Criciúma"
367183,-20.3189,-40.3378,"","Lages"
367187,-20.3189,-40.3378,"","Balneário Camboriú"
317596,37.3858,-5.99306,"","Alkazár v Seville"
367203,-20.3189,-40.3378,"","Chapecó"
367207,48.7117,18.7128,"","Veľký Grič"
367232,-20.3189,-40.3378,"","Passo Fundo"
311479,48.6203,18.3333,"airport","Letisko Malé Bielice"
311479,47.9608,18.1861,"airport","Letisko Nové Zámky"
311479,49.0797,21.1042,"airport","Letisko Ražňany"
311479,48.9408,20.5339,"airport","Letisko Spišská Nová Ves"
311479,48.9975,18.1892,"airport","Letisko Slavnica"
367181,-20.3189,-40.3378,"","Blumenau (Brazília)"
367245,-20.3189,-40.3378,"","São José de Ribamar"
367253,-20.3189,-40.3378,"","Jundiaí"
367265,-20.3189,-40.3378,"","São José do Rio Preto"
367266,-20.3189,-40.3378,"","Sorocaba"
367275,-20.3189,-40.3378,"","Petrópolis"
367276,-20.3189,-40.3378,"","Teresópolis"
367278,49.5317,18.7998,"","Gírová"
367292,-20.3189,-40.3378,"","Volta Redonda"
367304,-20.3189,-40.3378,"","Nilópolis"
367305,-20.3189,-40.3378,"","Cabo Frio"
367309,-20.3189,-40.3378,"","Nova Friburgo"
352709,51.0333,6.98333,"","Leverkusen"
367318,-20.3189,-40.3378,"","Ijuí"
367320,-20.3189,-40.3378,"","São João de Meriti"
367323,-20.3189,-40.3378,"","Niterói"
367324,-20.3189,-40.3378,"","Belford Roxo"
207891,49.2372,18.8275,"","Straník (vrch)"
367325,-20.3189,-40.3378,"","Duque de Caxias"
367327,-20.3189,-40.3378,"","São Gonçalo"
367329,-20.3189,-40.3378,"","Metropolitný región Rio de Janeiro"
366876,50.8544,14.5606,"","Jedlová (Lužické hory)"
367428,57.6167,39.85,"","Jaroslavľ"
254171,48.5967,17.9706,"","Marhát"
298646,36.2,37.15,"","Halab"
321361,46.5456,10.6472,"","L’Angelo Grande"
367716,31.2053,16.6056,"","Syrta"
357931,50.6761,-120.341,"","Kamloops"
329261,20.4167,72.8333,"","Dádra a Nagar Havelí"
368020,-20.3189,-40.3378,"","Açailândia"
368026,-20.3189,-40.3378,"","Imperatriz"
368074,-20.3189,-40.3378,"","Chapadinha"
368077,-20.3189,-40.3378,"","Balsas"
367249,-20.3189,-40.3378,"","Pantanal (územie)"
368178,-20.3189,-40.3378,"","São Cristóvão"
368183,-20.3189,-40.3378,"","Nossa Senhora do Socorro"
306995,34.1294,-117.293,"","San Bernardino (Kalifornia)"
368236,-20.3189,-40.3378,"","Barra dos Coqueiros"
368242,-20.3189,-40.3378,"","Canindé de São Francisco"
368246,-20.3189,-40.3378,"","Poco Verde"
368250,-20.3189,-40.3378,"","Nossa Senhora das Dores"
368251,-20.3189,-40.3378,"","Boquim"
368254,-20.3189,-40.3378,"","Laranjeiras"
368260,-20.3189,-40.3378,"","Porto da Folha"
368263,-20.3189,-40.3378,"","Capela"
368272,-20.3189,-40.3378,"","Propriá"
368276,-20.3189,-40.3378,"","Cascavel"
368290,-20.3189,-40.3378,"","Morada Nova"
368292,-20.3189,-40.3378,"","Sobral"
368255,-20.3189,-40.3378,"","Nossa Senhora da Glória"
368361,-20.3189,-40.3378,"","Luziânia"
368363,-20.3189,-40.3378,"","Anápolis"
368366,-20.3189,-40.3378,"","Rio Verde"
368373,-20.3189,-40.3378,"","Santo Antônio do Descoberto"
368378,-20.3189,-40.3378,"","Formosa (Goiás)"
368381,-20.3189,-40.3378,"","Novo Gama"
368386,-20.3189,-40.3378,"","Trindade (Goiás)"
368391,-20.3189,-40.3378,"","Aparecida de Goiânia"
368395,-20.3189,-40.3378,"","Senador Canedo"
368369,-20.3189,-40.3378,"","Valparaíso de Goiás"
368396,49.2342,18.7819,"","Dubeň (vrch)"
368399,-20.3189,-40.3378,"","Itumbiara"
368403,-20.3189,-40.3378,"","Caldas Novas"
368406,35.1992,-101.845,"","Amarillo"
368405,32.4464,-99.7456,"","Abilene"
306171,49.1503,18.8847,"","Strečniansky priesmyk"
368534,-20.3189,-40.3378,"","São Mateus"
368538,32.4464,-99.7456,"","Childress"
368564,-20.3189,-40.3378,"","Colatina"
368249,-20.3189,-40.3378,"","Umbaúba"
368597,30.4833,-99.7667,"","Junction"
368588,30.8833,-102.883,"","Fort Stockton"
368583,33.6167,-97.15,"","Gainesville"
368650,-20.3189,-40.3378,"","Linhares"
81307,48.8617,20.2261,"","Besník"
368815,48.8833,19.1611,"","Šturec (vrch)"
368837,45.7611,15.87,"","Lučko"
124381,56.15,10.2167,"","Aarhus"
368926,48.3431,18.1053,"","Vysielač Zobor"
169261,48.9244,2.36,"","Stade de France"
369039,48.9919,18.0314,"","Vysielač Nad oborou"
368694,43.0417,-87.9097,"","Milwaukee City Hall"
368691,40.7111,-74.0078,"","Park Row Building"
368690,40.7111,-74.0078,"","New York World Building"
368845,40.7078,-74.0125,"","Trinity Church (New York)"
368622,40.7078,-74.0117,"","Manhattan Life Insurance Building"
368848,43.0382,-87.9023,"","U.S. Bank Center (Milwaukee)"
368463,40.7098,-74.01,"","Singer Building"
368110,40.7412,-73.9874,"","Metropolitan Life Insurance Company Building"
165277,40.7122,-74.0081,"","Woolworth Building"
369341,43.7683,11.2558,"","Redaktor:Lure/pieskovisko/Dokumentácia"
369340,43.7683,11.2558,"","Redaktor:Lure/pieskovisko"
165484,40.7067,-74.0098,"","40 Wall Street"
369475,37.7342,-119.638,"","El Capitan"
369496,37.746,-119.533,"","Half Dome"
2945,35.6961,51.4231,"","Teherán"
96900,36.3,59.6,"","Mašhad"
167413,36.7003,45.14,"","Piranšahr"
169711,36.5658,53.0597,"","Sárí (Irán)"
369622,48.5894,6.50167,"","Lunéville"
369647,42.9611,-85.6556,"","Grand Rapids"
369653,47.1614,1.56694,"","Valençay"
369685,49.5058,18.6711,"","Veľký Polom"
127936,35.3333,25.1333,"","Iraklio (mesto na Kréte)"
368271,-20.3189,-40.3378,"","Itaporanga d’Ajuda"
368602,27.5,-99.5,"","Laredo (Texas)"
370012,45.2739,0.04,"","Chalais (Charente)"
370207,51.2606,24.6058,"","Moščena"
370300,0.8,-66.0333,"","Pico da Neblina"
370346,50.5586,13.9414,"","Milešovka"
107373,30.25,-97.75,"","Austin (Texas)"
107394,36.1314,-95.9372,"","Tulsa"
343542,42.35,13.4,"","L’Aquila"
370650,49.3681,19.4908,"","Magurka (vrch v Oravskej Magure)"
370693,39.3422,-120.204,"","Truckee"
77273,52.5147,13.2394,"landmark","Olympiastadion (Berlin)"
77273,51.4926,7.45184,"landmark","Signal Iduna Park"
77273,48.2188,11.6248,"landmark","Allianz Arena"
77273,48.7923,9.23203,"landmark","Mercedes-Benz Arena"
77273,51.5545,7.06759,"landmark","Veltins-Arena"
77273,53.5872,9.89862,"landmark","AOL Arena"
77273,50.0686,8.64546,"landmark","Commerzbank Arena"
77273,50.9335,6.875,"landmark","RheinEnergie Stadion"
77273,52.3601,9.7312,"landmark","AWD-Arena"
77273,51.3458,12.3482,"landmark","Zentralstadion"
77273,49.4347,7.77646,"landmark","Fritz Walter Stadion"
77273,49.4261,11.1258,"landmark","EasyCredit-Stadion"
292629,48.0539,17.5708,"","Slovakiaring"
370830,70.3256,-148.711,"","Prudhoe Bay"
89012,40.7517,-73.9753,"","Chrysler Building"
371183,33.9481,-117.396,"","Riverside (Kalifornia)"
371351,48.4661,19.4647,"","Kamenné vráta"
371355,48.4681,19.4306,"","Budinská skala"
371397,49.1019,18.8,"","Skalka (1 308,4 m n. m.)"
371451,48.4681,19.4306,"","Ostrôžky"
371514,48.4861,19.4625,"","Javor (vrch v Ostrôžkach)"
366117,24.1767,23.3133,"","Letisko Kufra"
371707,49.1667,20.0297,"","Bystré sedlo (Vysoké Tatry)"
108345,40.4417,-80,"","Pittsburgh"
371657,49.1961,19.8369,"","Bystré sedlo (Západné Tatry)"
366340,41.4,-8.51667,"","Vila Nova de Famalicão (mesto)"
372105,49.2942,28.7539,"","Kobyľňa"
372290,25.6667,-100.3,"","Monterrey (Mexiko)"
372297,32.0761,23.9614,"","Tobruk"
362880,49.3908,28.9158,"","Bila (Lypovecký rajón)"
317086,52.7544,-0.3975,"","King’s Lynn"
39153,50.6233,3.145,"","Villeneuve-d’Ascq"
356361,49.3175,29.0139,"","Zoziv (Lypovecký rajón)"
343122,49.4069,28.8144,"","Kosťantynivka (Lypovecký rajón)"
217472,51.1333,6.01667,"","’t Reutje"
369979,49.2581,28.7594,"","Kozynci (Lypovecký rajón)"
370086,49.2756,29.045,"","Slavna (Lypovecký rajón)"
89358,41.7333,12.7,"","Albanské vrchy"
372421,48.7794,18.5831,"","Prepoštská jaskyňa"
372473,38.4657,-2.23994,"","Molinicos"
372480,34.9364,32.8633,"","Olympus"
372603,48.6886,19.7689,"","Klenovský Vepor"
372962,49.07,19.1181,"","Príslop (sedlo vo Veľkej Fatre)"
372969,48.9306,19.1308,"","Sedlo Ploskej"
372979,49.1117,19.1214,"","Ľubochnianske sedlo"
164646,52.25,5.63333,"","Amersfoort (mesto v Holandsku)"
192635,49.1511,19.2856,"","Brestová (sedlo)"
373021,48.8772,19.0897,"","Rybovské sedlo"
373036,50.0967,16.7047,"","Mladkovské sedlo"
192836,49.2294,20.22,"","Kopské sedlo"
184272,55.9167,21.0667,"","Palanga"
373093,49.1131,2.60028,"","Mortefontaine"
46149,52.6,11.85,"","Stendal"
373306,40.75,-73.5,"","Oyster Bay"
373314,54.3833,-20.65,"","Bagrationovsk"
353184,48.4342,2.16139,"","Étampes"
373433,48.765,2.39222,"","Thiais"
373437,48.9175,2.26833,"","Bois-Colombes"
6646,49.1794,20.0881,"","Rysy (vrch)"
373485,48.8889,19.2308,"","Nová Hoľa"
344929,42.3736,-71.1106,"","Cambridge (Massachusetts)"
373694,46.0167,13.1667,"","Campoformido"
373882,49.2919,28.7331,"","Kosakivka (Lypovecký rajón)"
374063,34.05,-118.25,"","Mobile (Alabama)"
374263,49.2639,28.9769,"","Narcyzivka (Lypovecký rajón)"
374464,49.3078,28.7214,"","Pryborivka"
317374,38.3947,23.7467,"","Monastier Hosios Lukas"
374717,49.3769,28.7011,"","Nova Pryluka"
241619,48.9341,18.9711,"","Národná prírodná rezervácia Tlstá"
198502,49.0464,19.1122,"","Kľak (vrch vo Veľkej Fatre)"
198503,49.0092,19.1111,"","Jarabiná"
201563,48.89,18.9617,"","Drienok (vrch vo Veľkej Fatre)"
201680,49.1022,19.2792,"","Čebrať"
200024,49.1261,19.2433,"","Kečky"
374845,49.1469,18.7311,"","Turská skala"
374940,30.4397,48.1664,"","Chorramšahr"
375327,47.8264,18.6433,"","Modrý vrch"
375418,48.6172,20.5456,"","Dievčenská skala"
375442,49.2658,20.6094,"","Kotník (vrch)"
375468,48.9917,22.1961,"","Magurica"
375475,48.675,21.8289,"","Vysielač Trebišov"
375482,48.5936,17.2264,"","Vysielač Dubník (Borský Mikuláš)"
375489,48.5939,17.2314,"","Vysielač Mária Magdaléna"
375549,59.95,31.0333,"","Šlisseľburg"
189250,31.85,35.4667,"","Jericho"
2947,31.7833,35.2167,"","Jeruzalem"
87117,31.7031,35.1956,"","Betlehem (sídlo)"
375743,48.8333,10.1,"","Aalen"
83734,48.7436,19.8508,"","Zbojská"
85125,49.3464,18.5083,"","Javorník (sedlo)"
85123,49.3992,18.4097,"","Bumbálka"
85121,48.7392,21.5353,"","Dargovský priesmyk"
192637,48.6192,20.6297,"","Jablonovské sedlo"
6938,49.0175,20.8572,"","Branisko (priesmyk)"
81308,48.8956,20.2481,"","Vernárske sedlo"
192660,48.7725,20.1036,"","Predná Hora (sedlo)"
192618,48.7958,20.1361,"","Javorinka (sedlo)"
85157,49.2508,22.0386,"","Lupkovský priesmyk"
85154,49.2883,22.0156,"","Laborecký priesmyk"
83663,48.3503,17.1892,"","Baba (Malé Karpaty)"
85122,49.3831,18.4106,"","Makovský priesmyk"
85126,49.3575,18.5675,"","Semeteš (sedlo)"
192626,48.7006,19.9842,"","Dielik (sedlo)"
191212,48.8117,18.0878,"","Jastrabské sedlo"
192632,49.545,19.3683,"","Hliny (sedlo)"
85128,49.4489,21.3128,"","Dujava"
109650,49.2633,19.1028,"","Rovná hora"
83669,48.9508,18.7044,"","Vrícke sedlo (665,6 m n. m.)"
159840,49.1825,18.1308,"","Lyský priesmyk"
81507,49.3747,21.1028,"","Kurovské sedlo"
168936,48.2444,17.1611,"","Sakrakopec"
376224,47.4,8.05,"","Aarau"
376228,48.1978,28.7758,"","Dmytraškivka"
361781,48.7206,21.2528,"","Chrám Narodenia presvätej Bohorodičky (Košice)"
331501,48.9925,18.7014,"","Skalky (vrch v Malej Fatre)"
376323,48.1681,28.7525,"","Kukuly"
331499,48.9981,18.6692,"","Vrícke sedlo (950 m n. m.)"
376243,49.4472,21.2633,"","Javorina (vrch v Busove)"
311781,48.7531,18.8019,"","Remata (stredisko)"
376763,48.7325,18.7131,"","Malý Grič"
372703,48.7786,19.9672,"","Kľak (vrch v Muránskej planine)"
377407,68.7097,-52.8694,"","Aasiaat"
377541,49.1933,19.0136,"","Sedlo Bublen"
377542,49.1831,18.9769,"","Sedlo Priehyb"
377547,49.1825,18.9739,"","Sedlo Vráta"
377553,49.2431,19.1069,"","Medzirozsutce"
377562,49.2175,19.0817,"","Stohové sedlo"
331509,49.1914,19.0383,"","Snilovské sedlo"
304863,49.1503,18.8433,"","Javorina (sedlo)"
377572,49.1611,18.8661,"","Sedlo Rakytie"
201993,49.0233,18.7333,"","Sedlo pod Hnilickou Kýčerou"
112656,47.6097,-122.333,"","Seattle"
378043,48.7775,20.0717,"","Veľká lúka (Muránska planina)"
123973,30.3392,48.3042,"","Ábádán"
378099,-38.7333,-72.6667,"","Temuco"
285784,47.6558,-2.76028,"","Vannes"
129565,48.1147,-1.67944,"","Rennes"
2656,50.0872,14.4211,"","Praha"
378781,44.3119,-94.4631,"","New Ulm (Minnesota)"
378870,43.0833,40.8,"","Achali Atoni"
378865,43.1006,40.7906,"","Achali Atonis mghvime"
379091,61.98,-6.75,"","Argir"
379102,62.0256,-6.75889,"","Hoyvík"
379185,62.0567,-7.15417,"","Sandavágur"
379186,62.0703,-7.32222,"","Sørvágur"
114374,62.2881,-6.96722,"","Funningur"
379105,62.1156,-6.72222,"","Runavík"
379240,62.2239,-6.57861,"","Klaksvík"
379202,62.2953,-6.51611,"","Hvannasund"
223028,49.1141,18.7626,"","Kozol (Malá Fatra)"
379321,62.2111,-6.70611,"","Leirvík"
379283,62.2167,-6.53333,"","Norðoyri"
375730,31.5333,35.095,"","Hebron"
37470,-1.28333,36.8167,"","Nairobi"
12329,35.8883,-5.31556,"","Ceuta"
379516,62.1564,-7.16639,"","Vestmanna"
379536,62.0889,-6.73556,"","Toftir"
379567,21.0178,-101.257,"","Guanajuato (mesto)"
107677,-31.9522,115.858,"","Perth (Západná Austrália)"
14077,-33.86,151.211,"","Sydney"
65891,-35.3083,149.125,"","Canberra"
314586,51.5139,7.46528,"","Dortmund-City"
379662,61.8425,-6.80778,"","Sandur"
379669,62.2453,-6.66722,"","Syðradalur"
379675,61.5558,-6.80333,"","Tvøroyri"
379667,61.5264,-6.87694,"","Fámjin"
379721,70.4853,-21.9667,"","Ittoqqortoormiit"
379764,62.0742,-7.24806,"","Vatnsoyrar"
379812,61.6378,-6.92194,"","Sandvík"
379889,62.265,-6.68139,"","Húsar"
379901,60.8833,6.71667,"","Vestlandet"
379901,61.4614,7.87139,"","Vestlandet"
380197,-33.9581,25.6,"","Port Elizabeth"
380473,58.9633,5.71889,"","Stavanger"
381255,64.1111,-21.9056,"","Kópavogur"
195729,43.0833,25.65,"","Veliko Tărnovo"
163984,39.6417,22.4167,"","Larisa (mesto v Grécku)"
381790,56.6667,12.85,"","Halmstad"
12187,35.3,-2.95,"","Melilla"
381950,65.9667,29.1833,"","Kuusamo"
381968,49.4086,28.9153,"","Šenderivka (Lypovecký rajón)"
107587,40.7167,-74,"","Montreal"
382357,49.2756,28.7433,"","Kochanivka (Lypovecký rajón)"
382410,48.1436,28.7236,"","Bolhan"
382520,46.6333,11.5667,"","Gudon"
382657,49.2706,28.9261,"","Jasenky"
3005,27.7,85.3333,"","Káthmandu"
382790,49.4311,28.865,"","Nove (Lypovecký rajón)"
382855,30.0039,-107.792,"","Ouray County"
382861,48.6092,18.5436,"","Žarnov (vrch vo Vtáčniku)"
2921,41.9,12.5,"","Rím"
383656,43.4817,-1.55611,"","Biarritz"
383701,44.5333,14.4667,"","Mali Lošinj"
143940,46,8.95,"","Lugano"
383913,48.1453,28.8547,"","Studena"
233467,43.85,25.9667,"","Ruse"
383919,49.2664,28.7775,"","Sverdlivka (Lypovecký rajón)"
383956,39.1175,-106.445,"","Mount Elbert"
384549,49.2031,28.8994,"","Ščaslyva"
206719,55.15,61.4,"","Čeľabinsk"
384718,49.1872,28.9783,"","Strutynka (Lypovecký rajón)"
23386,47,28.9167,"","Kišiňov"
4243,51.1667,71.4333,"","Astana"
2946,32.0667,34.7833,"","Tel Aviv - Jafo"
65956,18.5333,72.3333,"","Port-au-Prince"
385247,49.2711,29.1256,"","Napadivka (Lypovecký rajón)"
385275,45.3503,19.0047,"","Vukovar"
385399,52.1333,-106.683,"","Saskatoon"
385623,49.1483,29.0444,"","Popivka (Lypovecký rajón)"
385743,49.1036,28.9772,"","Vijtivci (Lypovecký rajón)"
385922,49.2481,29.0931,"","Vikentijivka"
385995,49.1378,29.07,"","Verňanka"
386036,49.1753,29.0636,"","Hordijivka (Lypovecký rajón)"
386270,49.2683,29.09,"","Uľanivka (Lypovecký rajón)"
386320,49.105,29.0597,"","Ivaňky (Lypovecký rajón)"
386368,48.225,29.0086,"","Čornomyn"
386309,38.7167,20.65,"","Lefkada (ostrov)"
386391,49.2239,28.8767,"","Bilozerivka"
386396,49.3003,29.1986,"","Bohdanivka (Lypovecký rajón)"
386583,49.2994,29.0814,"","Hannivka (Lypovecký rajón)"
334751,48.3764,23.8444,"","Komsomoľsk (Ťačovský rajón)"
386653,49.2103,29.1267,"","Teklynivka"
386678,49.1056,29.0192,"","Pisočyn (Lypovecký rajón)"
386730,49.2475,28.9414,"","Lukašivka (Lypovecký rajón)"
386889,49.3461,29.0431,"","Oleksandrivka (Lypovecký rajón)"
386926,49.2283,28.9606,"","Berestivka (Lypovecký rajón)"
221793,43.2947,-0.370833,"","Pau (Francúzsko)"
334012,48.9575,4.365,"","Châlons-en-Champagne"
387362,49.1569,29.085,"","Trošča (Lypovecký rajón)"
387520,-5.85,13.05,"","Boma (mesto)"
387752,49.2314,28.8858,"","Korolivka (Lypovecký rajón)"
204488,38.4833,22.9833,"","Orchomenos (mesto v Boiócii)"
287357,44.1383,4.80972,"","Orange (Francúzsko)"
387993,49.2156,29.1531,"","Skytka"
334280,47.9956,23.6972,"","Terešva (sídlo)"
153948,48.805,2.42389,"","Alfortville"
353048,48.7631,2.40889,"","Choisy-le-Roi"
353026,48.755,2.32194,"","Fresnes (Val-de-Marne)"
330599,48.7075,2.38889,"","Athis-Mons"
388180,49.2036,29.1103,"","Choroša (Lypovecký rajón)"
330607,48.7983,2.31361,"","Bagneux (Hauts-de-Seine)"
330685,48.8353,2.24083,"","Boulogne-Billancourt"
347366,48.8961,2.15167,"","Chatou"
340814,48.7653,2.27806,"","Châtenay-Malabry"
340816,48.8,2.29,"","Châtillon (Hauts-de-Seine)"
353097,48.6139,2.48194,"","Corbeil-Essonnes"
353192,48.7786,2.29056,"","Fontenay-aux-Roses"
337596,48.8528,2.60278,"","Champs-sur-Marne"
301732,48.4069,2.7025,"","Fontainebleau"
337582,48.8692,2.41806,"","Bagnolet"
347062,48.9106,2.43972,"","Bobigny"
353051,48.9167,2.55,"","Clichy-sous-Bois"
347355,48.8833,2.53333,"","Gagny"
347216,48.9122,2.33417,"","Saint-Ouen (Seine-Saint-Denis)"
347060,48.9992,2.09833,"","Conflans-Sainte-Honorine"
373586,48.9333,2.21667,"","Bezons"
378710,49.0361,2.06306,"","Cergy"
347363,48.9833,2.26667,"","Ermont"
347057,48.9836,2.22861,"","Franconville (Val-d’Oise)"
347056,48.9667,2.41667,"","Garges-lès-Gonesse"
273854,48.7172,2.48806,"","Yerres"
346939,48.8208,2.28972,"","Vanves"
347206,48.95,2.57222,"","Tremblay-en-France"
388326,49.3686,29.0581,"","Ksaverivka (Lypovecký rajón)"
340813,48.8239,2.21167,"","Sèvres"
373961,48.8711,2.225,"","Suresnes"
347211,48.95,2.38333,"","Stains"
353030,48.0833,2.53333,"","Sevran"
373964,48.6303,2.3025,"","Saint-Michel-sur-Orge"
346940,48.8667,2.48333,"","Rosny-sous-Bois"
347367,48.8833,2.41667,"","Romainville"
353295,48.6494,1.82556,"","Rambouillet"
340950,48.9294,2.04556,"","Poissy"
347086,48.9656,2.36139,"","Pierrefitte-sur-Seine"
347359,48.8894,2.45028,"","Noisy-le-Sec"
337591,48.8478,2.55278,"","Noisy-le-Grand"
346941,48.85,2.53333,"","Neuilly-sur-Marne"
374229,48.8172,2.32194,"","Montrouge"
388541,48.6714,2.375,"","Viry-Châtillon"
388549,48.8439,2.21917,"","Saint-Cloud"
388558,48.895,2.28722,"","Levallois-Perret"
388560,48.7847,1.95889,"","Élancourt"
347059,48.6853,2.40806,"","Draveil"
353218,48.7019,2.13389,"","Gif-sur-Yvette"
34228,49.8075,2.24028,"","Meudon"
353225,48.5406,2.66,"","Melun"
337657,48.9603,2.88833,"","Meaux"
347223,48.7308,2.27139,"","Massy (Essonne)"
347051,48.9192,2.53611,"","Livry-Gargan"
347061,48.8211,2.13111,"","Le Chesnay"
331137,48.9333,2.45,"","Le Blanc-Mesnil"
347364,48.9322,2.39667,"","La Courneuve"
347053,48.9261,2.18917,"","Houilles"
347054,48.7714,2.07389,"","Guyancourt"
347361,49.0167,2.46667,"","Goussainville (Val-d’Oise)"
373822,44.8,0.583889,"","Talence"
353216,48.8172,7.78861,"","Haguenau"
373967,48.6481,-2.0075,"","Saint-Malo"
388905,49.2211,15.3394,"","Javořice"
388938,49.6708,16.0322,"","Devět skal"
389171,42.4864,19.8922,"","Zla Kolata"
81448,48.3531,18.5739,"","Slovenská brána"
389337,48.6869,18.6856,"","Biely kameň (vrch vo Vtáčniku)"
389338,46.5,9.83333,"","St. Moritz"
389351,48.6336,18.6433,"","Malá Homôľka"
389354,48.6325,18.6539,"","Veľká Homôľka"
389355,48.6128,18.6247,"","Kláštorská skala"
389366,49.2161,29.0561,"","Lypovec"
389400,55.75,60.7167,"","Oziorsk (Čeľabinská oblasť)"
389560,48.6575,18.6639,"","Jarabá skala (vrch vo Vtáčniku)"
389571,48.6661,18.6719,"","Orlí kameň"
389578,48.6472,18.6581,"","Hrebienky"
389592,48.64,18.6564,"","Tri chotáre (vrch vo Vtáčniku)"
389650,48.6092,18.5733,"","Buchlov (vrch vo Vtáčniku)"
389677,48.5825,18.6017,"","Tatra (vrch vo Vtáčniku)"
389694,48.5933,18.6022,"","Rúbaný vrch"
389731,48.6267,18.6256,"","Zraz"
389732,48.6481,18.6272,"","Kuní vrch"
389734,48.5989,18.5919,"","Balatom"
389736,48.5883,18.5978,"","Plešina (vrch vo Vtáčniku)"
389748,48.5669,18.5647,"","Suchá hora (vrch vo Vtáčniku)"
389750,48.5869,18.6261,"","Ostrovica (vrch vo Vtáčniku)"
77623,50.9167,128.483,"","Belogorsk (Amurská oblasť)"
390126,49.2458,29.2281,"","Lypovec (sídlisko)"
390555,42.4989,19.9,"","Dobra Kolata"
3630,30.0581,31.2289,"","Káhira"
390601,31.25,32.2833,"","Port Said"
322019,43.1278,19.0333,"","Bobotov Kuk"
390679,38.7958,22.537,"","Termopyly"
390744,49.1011,28.9333,"","Pylypenkove"
390889,27.9122,34.3297,"","Šarm aš-Šajch"
391795,49.1964,28.8869,"","Pidlisne (Lypovecký rajón)"
392010,50.055,23.9767,"","Žovkva"
392214,46.7167,11.65,"","Brixen"
241965,48.45,16.9683,"landmark","Zoznam rozhľadní na Slovensku"
241965,48.3025,17.3542,"landmark","Zoznam rozhľadní na Slovensku"
241965,48.7267,17.0322,"landmark","Zoznam rozhľadní na Slovensku"
241965,48.8722,17.2128,"landmark","Zoznam rozhľadní na Slovensku"
241965,48.5728,17.3892,"landmark","Zoznam rozhľadní na Slovensku"
241965,47.8817,17.5417,"landmark","Zoznam rozhľadní na Slovensku"
241965,48.8169,17.4267,"landmark","Zoznam rozhľadní na Slovensku"
241965,48.7469,17.5158,"landmark","Zoznam rozhľadní na Slovensku"
241965,48.8042,17.5444,"landmark","Zoznam rozhľadní na Slovensku"
241965,48.9578,18.1739,"landmark","Zoznam rozhľadní na Slovensku"
241965,49.1364,18.2536,"landmark","Zoznam rozhľadní na Slovensku"
241965,49.315,18.335,"landmark","Zoznam rozhľadní na Slovensku"
241965,48.7119,18.0125,"landmark","Zoznam rozhľadní na Slovensku"
241965,47.8581,18.5094,"landmark","Zoznam rozhľadní na Slovensku"
241965,48.1828,18.6433,"landmark","Zoznam rozhľadní na Slovensku"
241965,49.3406,18.9475,"landmark","Zoznam rozhľadní na Slovensku"
241965,49.025,19.5575,"landmark","Zoznam rozhľadní na Slovensku"
241965,48.975,19.5842,"landmark","Zoznam rozhľadní na Slovensku"
241965,48.5469,19.7339,"landmark","Zoznam rozhľadní na Slovensku"
241965,48.18,19.8611,"landmark","Zoznam rozhľadní na Slovensku"
241965,49.335,21.0083,"landmark","Zoznam rozhľadní na Slovensku"
392404,44.99,14.9028,"","Senj"
392409,46.3833,16.7167,"","Čakovec"
392496,45.8333,17.3833,"","Virovitica"
392521,45.9167,16.8333,"","Bjelovar"
392764,49.2186,29.1828,"","Teľmana (Lypovecký rajón)"
392857,49.39,28.8756,"","Červona Zirka (Lypovecký rajón)"
392869,49.2892,28.8817,"","Jasenecke"
392925,48.2586,28.8386,"","Myroľubivka (Piščanský rajón)"
314157,69.1589,-50.5064,"","Ľadovcový fjord v Ilulissate"
333265,48.1407,17.1051,"landmark","Morový stĺp na Rybnom námestí"
390599,29.9667,32.55,"","Suez (mesto)"
393733,48.1644,28.6422,"","Hrabarivka (Piščanský rajón)"
393740,48.2058,28.8889,"","Piščanka"
393793,47.2244,30.3378,"","Žovteň (Šyriajivskyj rajón)"
393770,48.1814,29.0017,"","Honorivka"
148171,46.3558,18.7031,"","Szekszárd"
124413,50.8514,5.69139,"","Maastricht"
309236,48.8761,18.6992,"","Vyšehrad (hradisko)"
394044,48.185,28.6631,"","Trybusivka"
210490,46.6231,18.3047,"","Tamási"
210489,46.7539,18.5475,"","Simontornya"
358278,49.19,20.1989,"","Diskusia s redaktorom:Karl Gruber"
394794,48.2536,29.0078,"","Rudnycke (Piščanský rajón)"
395213,48.1881,29.0433,"","Rybky (Ukrajina)"
393741,48.2592,28.9361,"","Rudnycia"
306588,49.4167,27,"","Chmeľnyckyj (mesto)"
356507,49.2439,29.1889,"","Rosoša (Lypovecký rajón)"
374586,49.2511,28.8322,"","Lozuvata (Lypovecký rajón)"
363595,49.3353,28.6489,"","Sobolivka (Lypovecký rajón)"
362807,49.4206,28.8381,"","Petrivka (Lypovecký rajón)"
369978,49.3781,28.9858,"","Verbivka (Lypovecký rajón)"
395271,48.1858,28.9336,"","Brohvyči"
210487,46.8089,18.9181,"","Dunaföldvár"
210485,46.2986,18.5306,"","Bonyhád"
76724,53.4667,-2.23333,"","Manchester"
358278,48.5183,17.7233,"","Diskusia s redaktorom:Karl Gruber"
107297,42.3333,-83.05,"","Detroit"
252640,36.3414,43.1292,"","Mosul"
326385,35.4667,44.3167,"","Karkúk"
100195,34.1983,43.8742,"","Samarra"
162778,42.7333,-84.55,"","Lansing"
197977,43.01,-83.69,"","Flint"
3855,42.6526,-73.7573,"","Albany"
162775,38.9729,-76.5012,"","Annapolis"
115077,33.755,-84.39,"","Atlanta"
162770,44.3106,-69.78,"","Augusta (Maine)"
162762,30.4581,-91.1403,"","Baton Rouge"
162765,46.8133,-100.779,"","Bismarck (Severná Dakota)"
162747,43.6136,-116.203,"","Boise"
400585,30,47.8167,"","Basra (mesto v Iraku)"
64784,39.1608,-119.754,"","Carson City"
105196,39.5272,-119.822,"","Reno (Nevada)"
105186,40.9683,-117.727,"","Winnemucca"
317236,42.0772,-71.63,"","Uxbridge (Massachusetts)"
150701,38.3472,-81.6333,"","Charleston (Západná Virgínia)"
210486,46.3819,18.1422,"","Dombóvár"
218716,59.3667,16.5,"","Eskilstuna"
416155,49.2135,19.6857,"","Salatín (Roháče)"
205409,65.6,22.15,"","Luleå"
417213,67.1333,20.6667,"","Gällivare"
421820,59.2667,15.2,"","Örebro (mesto)"
422786,59.3,14.1167,"","Kristinehamn"
141098,38.1167,13.3667,"","Palermo"
161882,39.1067,-94.6764,"","Kansas City (Kansas)"
161880,39.1097,-94.5886,"","Kansas City (Missouri)"
162755,39.0558,-95.6894,"","Topeka"
432364,48.8333,19.0167,"","Harmanecká tisina"
241965,48.3714,18.1223,"landmark","Zoznam rozhľadní na Slovensku"
241965,48.7942,21.9762,"landmark","Zoznam rozhľadní na Slovensku"
288601,58.4,15.6167,"","Linköping"
432729,16.7542,-22.9458,"","Espargos"
38411,9.03,38.74,"","Addis Abeba"
273836,12.0333,39.0333,"","Lalibäla"
202519,51.7167,94.45,"","Kyzyl (mesto)"
107683,-34.9497,138.583,"","Adelaide (Južná Austrália)"
2986,-6.2,106.8,"","Jakarta"
166980,3.58333,98.6667,"","Medan"
374237,49,2.33333,"","Montmorency (Val-d’Oise)"
205213,33.47,-81.975,"","Augusta (Georgia)"
340612,32.0811,-81.0911,"","Savannah"
121975,33.7714,-84.2978,"","Decatur (Georgia)"
169164,32.0747,-82.9128,"","Helena (Georgia)"
434417,-0.5375,166.922,"","Arenibek"
368593,30.7167,-95.55,"","Huntsville (Texas)"
368598,27.515,-97.8656,"","Kingsville (Texas)"
331102,48.8625,19.3042,"","Hiadeľské sedlo"
434778,45.7167,9.46667,"","Villa d'Adda"
435140,39.3644,-7.75111,"","Monte da Pedra"
435163,48.2628,28.8808,"","Stavky (Piščanský rajón)"
115087,51.45,7.01667,"","Essen (Nemecko)"
435703,47.7667,8.31667,"","Habsburg (obec)"
435764,48.8714,20.1578,"","Kráľova skala (vrch v Nízkych Tatrách)"
311479,48.4544,17.5181,"airport","Letisko Boleráz - Trnava"
311479,48.8075,17.1364,"airport","Letisko Holíč"
311479,48.9367,21.9997,"airport","Letisko Kamenica nad Cirochou"
311479,48.2017,17.475,"airport","Letisko Kráľová"
311479,49.0858,19.3703,"airport","Letisko Ružomberok"
199427,62.0333,129.733,"","Jakutsk"
3098,31.0597,-6.085,"","Džabal Tubkal"
4242,43.2775,76.8958,"","Alma-Ata"
437231,45.3461,-111.732,"","Ennis (Montana)"
311479,49.3342,21.7203,"airport","Letisko Svidník"
311479,48.5947,19.2689,"airport","Letisko Žilina"
437695,43.3667,-8.38333,"","La Coruña"
274967,49.2244,19.1039,"","Sedlo Medziholie"
438002,43.5333,-5.7,"","Gijón"
438005,25.4333,-101,"","Saltillo"
438174,53.1103,-119.157,"","Mount Robson"
438261,67.15,32.4,"","Kandalakša"
438267,49.0333,28.1167,"","Žmerynka"
144342,45.4658,9.17111,"landmark","Kostol Panny Márie milostí (Miláno)"
162807,46.5833,-112.017,"","Helena (Montana)"
345823,38.8768,-77.0708,"","Arlington National Cemetery"
4432,14.0167,-60.9833,"","Castries (Svätá Lucia)"
374083,32.7358,35.1906,"","Bejt Lechem ha-Glilit"
440353,-0.150833,37.3075,"","Mount Kenya"
440350,-3.21667,40.1167,"","Malindi"
440340,-4.05,39.6667,"","Mombasa"
440453,42.2667,27.7667,"","Primorsko"
440725,49.1931,20.6239,"","Čierna hora (vrch v Levočských vrchoch)"
347877,49.2919,20.1989,"","Repisko (vrch v Spišskej Magure)"
440789,49.2192,20.6511,"","Repisko (vrch v Levočských vrchoch)"
440794,49.0444,20.5994,"","Mariánska hora"
440863,58.8922,-3.05,"","Scapa Flow"
440846,48.8014,17.8903,"","Beckovská brána"
108196,48.1719,16.9767,"","Devínska brána"
209594,49.2678,18.7539,"","Kysucká brána"
119166,40.75,-111.883,"","Salt Lake City"
3924,39.7831,-89.6503,"","Springfield"
441096,41.7833,27.6,"","Strandža"
441219,41.7831,27.6183,"","Mahya Dağı"
441413,44.6097,34.2419,"","Roman-Koš"
309649,55.6833,157.733,"","Stredokamčatský chrbát"
410544,24.1,32.9,"","Aswán (mesto v Egypte)"
170726,39.7333,75.5333,"","Wilmington (Delaware)"
162639,39.15,79.5167,"","Dover (Delaware)"
170444,39.6667,75.75,"","Newark (Delaware)"
170439,39.45,75.7,"","Middletown (Delaware)"
170436,39.2833,75.6,"","Smyrna (Delaware)"
162597,32.3617,86.2792,"","Montgomery (Alabama)"
163359,33.65,86.8,"","Birmingham (Alabama)"
169162,33.2667,86.85,"","Helena (Alabama)"
441546,46.7833,-92.0833,"","Duluth (Minnesota)"
106916,33.4658,-112.081,"","Phoenix (Arizona)"
161913,33.415,-111.831,"","Mesa"
242732,44.8333,93.3,"","Bloomington (Minnesota)"
106733,35.6667,-105.95,"","Santa Fe (Nové Mexiko)"
155292,33.3833,-104.517,"","Roswell (Nové Mexiko)"
161905,35.1,-106.6,"","Albuquerque"
287273,44.05,-123.083,"","Eugene (Oregon)"
105183,40.2217,-75.2561,"","Trenton (New Jersey)"
163048,40.7453,74.0279,"","Hoboken (New Jersey)"
105406,40.7114,-74.0647,"","Jersey City"
441707,44.0234,-92.463,"","Rochester (Minnesota)"
163070,40.6624,-74.1102,"","Bayonne (New Jersey)"
105458,40.9147,-74.1628,"","Paterson (New Jersey)"
163368,40.504,-74.3494,"","Edison (New Jersey)"
163738,40.7675,-74.0323,"","Union City (New Jersey)"
162814,43.2067,-71.5381,"","Concord (New Hampshire)"
301289,42.7575,-71.4644,"","Nashua (New Hampshire)"
105172,40.9459,-74.2451,"","Wayne (New Jersey)"
105423,41.7627,-72.6743,"","Hartford (Connecticut)"
441826,48.4647,18.5186,"","Živánska veža"
162608,30.4517,-86.2685,"","Tallahassee"
162634,44.25,-72.5667,"","Montpelier (Vermont)"
318179,39.7667,64.4333,"","Buchara"
341018,40.6278,24.5767,"","Limenaria"
210271,39.6542,66.9597,"","Samarkand"
162758,38.1972,84.8631,"","Frankfort (Kentucky)"
5927,41.5908,-93.6208,"","Des Moines"
162631,47.0425,-122.893,"","Olympia (Washington)"
3853,37.5408,-77.4329,"","Richmond"
107344,39.9833,-82.9833,"","Columbus (Ohio)"
3937,21.3089,-157.826,"","Honolulu"
3858,38.5556,-121.469,"","Sacramento (Kalifornia)"
105420,41.8236,-71.4222,"","Providence (Rhode Island)"
162124,35.8189,-78.6447,"","Raleigh"
162804,44.9308,-123.029,"","Salem (Oregon)"
162752,44.3681,-100.336,"","Pierre (Južná Dakota)"
107381,36.1667,-86.7833,"","Nashville (Tennessee)"
162612,34.7361,-92.3311,"","Little Rock"
155130,39.7392,-104.985,"","Denver"
241965,48.4458,17.2331,"landmark","Zoznam rozhľadní na Slovensku"
162812,40.8097,-96.6753,"","Lincoln (Nebraska)"
442681,51.8167,-2.71667,"","Monmouth"
64813,-21.2167,-159.767,"","Avarua"
64813,-21.3283,-159.751,"","Avarua"
167045,54.3167,48.3667,"","Ulianovsk"
193524,49.4892,18.2647,"","Pustevny na Radhošti"
442699,50.0873,14.4219,"","Štorchův dům"
442853,56.1333,47.25,"","Čeboksary"
394455,48.5183,17.7233,"","Vysielač Veľké Kostoľany"
443024,48.3622,21.7892,"","Tarbucka (vrch)"
441294,49.5983,17.2622,"","Kaplnka svätej Barbory (Olomouc)"
171605,43.8606,18.4025,"","Avaz Twist Tower"
435078,45.65,11.7833,"","Cittadella"
88063,43.1333,131.9,"","Vladivostok"
443467,43.05,16.1833,"","Vis (mesto)"
443481,48.5283,20.4942,"","Milada (jaskyňa)"
443564,48.896,18.3655,"","Prielom Nitrice"
443566,48.8689,18.4833,"","Prírodná rezervácia Temešská skala"
443567,48.9167,18.3167,"","Pod Homôľkou"
443573,48.7667,18.4333,"","Národná prírodná rezervácia Rokoš"
443675,48.7972,18.2875,"","Národná prírodná rezervácia Bradlo"
443676,48.9389,18.3264,"","Národná prírodná rezervácia Vápeč"
242890,48.95,18.4667,"","Národná prírodná rezervácia Strážov"
3013,-8.83833,13.2344,"","Luanda"
129578,42.5,27.4667,"","Burgas"
66979,17.1167,-61.85,"","Saint John’s"
443796,35.3463,-111.678,"","Humphreys Peak"
444431,45.5283,2.81417,"","Puy de Sancy"
6258,48.1606,24.5003,"","Zakarpatská oblasť"
444606,-77.5,168,"","Rossov ostrov"
444606,-77.5333,167.167,"","Rossov ostrov"
443331,44.4246,26.0978,"","Pravoslávna patriachálna katedrála (Bukurešť)"
443148,50.0819,14.4531,"","Kostol Povýšenia svätého Kríža (Žižkov)"
444665,-27.7544,-68.7989,"","Monte Pissis"
444657,-71.25,163,"","Viktóriina zem"
230432,53.2,45.0167,"","Penza"
201209,-36.4561,148.263,"","Kościuszkov vrch"
234807,54,113.5,"","Vitimská plošina"
309649,56,158,"","Stredokamčatský chrbát"
232855,53.0167,158.65,"","Petropavlovsk-Kamčatskij"
155991,48.6839,20.6762,"","Pipitka (vrch)"
444930,45.9036,5.76194,"","Col du Grand Colombier"
262301,48.9389,21.9072,"","Kaštieľ v Humennom"
166661,45.4833,15.55,"","Karlovec"
343022,49.1967,16.6084,"","Redaktor:Sudo77(new)/pieskovisko"
338059,-36.8167,-73.05,"","Concepción (Čile)"
439141,49.2184,18.7309,"","Stanica Žilina-Záriečie"
446440,46.5333,-84.35,"","Sault Ste. Marie"
147842,50.4547,-104.607,"","Regina (Saskatchewan)"
29516,60.7167,-135.05,"","Whitehorse"
446489,44.2333,-76.5,"","Kingston (Ontário)"
446546,69.2472,-53.5333,"","Qeqertarsuaq"
155359,49.8833,-97.1333,"","Winnipeg"
446780,31.6169,65.7169,"","Kandahár"
75224,46.8167,134.25,"","Bikin (mesto)"
446768,77.4667,-63.2306,"","Qaanaaq"
241965,48.5075,18.4147,"landmark","Zoznam rozhľadní na Slovensku"
141301,51.8972,-8.47,"","Cork (mesto v Írsku)"
164792,52.0611,4.49333,"","Zoetermeer"
447031,67.4167,26.5925,"","Sodankylä"
162622,41.1356,-104.822,"","Cheyenne"
422776,30.8333,28.95,"","Al-Alamajn"
446428,43.0333,-81.15,"","London (Ontário)"
209077,30.25,120.167,"","Chang-čou"
322927,49.1983,19.5167,"city","..."
67359,12.519,-70.037,"","Oranjestad"
148308,49.8903,-119.494,"city","Kelowna (Britská Kolumbia)"
158624,49.3167,-123.067,"city","North Vancouver (mesto)"
172363,49.3333,-123.167,"city","West Vancouver (Britská Kolumbia)"
159855,49.2339,-124.805,"city","Port Alberni (Britská Kolumbia)"
162442,50.1208,-122.954,"city","Whistler (Britská Kolumbia)"
20388,48.4286,-123.366,"city","Victoria (Britská Kolumbia)"
613,48.3769,17.5931,"city","Trnava"
15150,53.1167,18.0083,"city","Bydgoszcz"
702,48.1439,17.1097,"city","Bratislava"
945,50.0667,19.9417,"city","Krakov"
1007,45.2175,29.7614,"landmark","Dunaj"
2640,49.2228,18.74,"city","Žilina"
2651,48.86,2.34444,"landmark","Paríž"
15609,48.7608,21.9942,"city","Zalužice"
15627,48.7075,21.1811,"city","Baška (okres Košice-okolie)"
17368,48.3117,17.8708,"city","Báb (okres Nitra)"
2673,48.1333,17.1167,"city","Petržalka"
2674,48.15,17.1667,"city","Ružinov"
19224,48.9683,18.7728,"landmark","Znievsky hrad"
2681,48.1333,17.2,"city","Vrakuňa"
2690,49.2225,18.5583,"city","Bytča"
19340,49.1667,20.1667,"landmark","Tatranský národný park"
2691,49.1161,18.4472,"city","Považská Bystrica"
19432,48.3833,17.3167,"city","Píla (okres Pezinok)"
2692,48.2919,17.2661,"city","Pezinok"
19450,46.2442,-124.058,"landmark","Columbia (rieka)"
2693,48.7386,19.1569,"city","Banská Bystrica"
2850,48.1933,17.0493,"city","Lamač"
19916,48.15,17.1,"city","Staré Mesto (Bratislava)"
20254,49.1667,18.5833,"landmark","Súľovské skaly"
2931,39.9139,116.392,"city","Peking"
25340,48.6317,22.1522,"city","Bežovce"
21981,48.15,17.05,"city","Karlova Ves"
2933,52.2322,21.0083,"city","Varšava"
26407,48.1697,17.4208,"city","Hrubý Šúr"
25341,48.6936,22.1094,"city","Blatná Polianka"
26408,48.1806,17.4833,"city","Hrubá Borša"
25342,48.7078,22.1056,"city","Blatné Remety"
21983,48.1833,17.0333,"city","Dúbravka (Bratislava)"
2935,39.8667,32.8667,"city","Ankara"
21984,48.1667,16.9833,"city","Devín"
26409,48.0386,17.2531,"city","Hamuliakovo"
25343,48.7372,22.0797,"city","Blatné Revištia"
21999,48.1167,17.2,"city","Podunajské Biskupice"
25344,48.7231,22.1189,"city","Bunkovce"
25868,48.9792,20.4953,"city","Arnutovce"
22014,48.1333,17.1,"city","Vajnory"
25869,48.9806,20.39,"city","Betlanovce"
26411,48.2667,17.4833,"city","Čataj"
22016,48.1675,17.1381,"city","Nové Mesto (Bratislava)"
25345,48.7714,22.085,"city","Fekišovce"
2941,23.1333,-82.3833,"landmark","Havana"
25870,48.9503,20.7567,"city","Bystrany"
26412,48.2389,17.4294,"city","Boldog"
25347,48.7578,22.2019,"city","Horňa"
22381,48.5831,17.8497,"city","Banka (okres Piešťany)"
25348,48.6986,22.2875,"city","Husák (okres Sobrance)"
22390,48.6328,17.7964,"city","Bašovce"
26419,48.1721,17.8602,"city","Dlhá nad Váhom"
25349,48.8233,22.3575,"city","Inovce"
22392,48.5767,17.7461,"city","Borovce"
26420,48.2536,17.8686,"city","Hájske"
25350,48.7964,22.1689,"city","Jasenov (okres Sobrance)"
22397,48.5689,17.6244,"city","Chtelnica"
22398,48.6028,17.8639,"city","Moravany nad Váhom"
25351,48.7197,22.2578,"city","Kolibabovce"
26421,48.2439,17.9154,"city","Horná Kráľová"
22400,48.6511,17.6889,"city","Prašník"
25876,48.9667,20.4,"city","Hrabušice"
25352,48.7753,22.2669,"city","Koňuš"
26422,48.2308,17.9308,"city","Močenok"
405039,43.9767,4.16889,"landmark","Domessargues"
394902,44.4006,4.28917,"landmark","Grospierres"
405040,44.0642,3.44667,"landmark","Dourbies"
394903,44.9344,4.87472,"landmark","Guilherand-Granges"
25353,48.6786,22.2489,"city","Krčava"
2950,44.4325,26.1039,"city","Bukurešť"
26423,48.0185,17.9705,"city","Neded"
